~Version
VERS  .             3.0                                 : CWLS LOG ASCII STANDARD - VERSION 3.0
WRAP  .             NO                                  : One line per depth step
DLM   .             COMMA                               : Delimiter character between data columns
#Delimiting character ( SPACE TAB OR COMMA ).

~Well
#MNEM.UNIT          DATA                                DESCRIPTION
#----- ----        -----------------                   -----------
STRT  .M                  8.22960                       : FIRST INDEX VALUE
STOP  .M               1654.30200                       : LAST INDEX VALUE
STEP  .M                  0.15240                       : STEP OF INDEX
NULL  .             -999.25                             : NULL VALUE
COMP  .                                                 : COMPANY
WELL  .             ATLAS                               : WELL
FLD   .                                                 : FIELD
LOC   .                                                 : LOCATION
SRVC  .                                                 : SERVICE COMPANY
CTRY  .                                                 : COUNTRY
PROV  .                                                 : PROVINCE
UWI   .                                                 : UNIQUE WELL ID
LIC   .                                                 : LICENSE NUMBER
STAT  .                                                 : STATE
CNTY  .                                                 : COUNTY
API   .                                                 : API NUMBER
DATE  .                                                 : LOG DATE
X     .             653523.9460707                      : X OR EAST-WEST COORDINATE
Y     .             8158307.615707                      : Y OR NORTH-SOUTH COORDINATE
HZCS  .                                                 : HORIZONTAL CO-ORDINATE SYSTEM
LATI  .             -16.65267861111                     : LATITUDE
LONG  .             154.43955                           : LONGITUDE
GDAT  .                                                 : GEODETIC DATUM

~TOPS_PARAMETER 
#MNEM.UNIT                    VALUE                        DESCRIPTION
#--------------- ---         ------------                 -----------------

~TOPS_DEFINITION 
#MNEM.UNIT                 LOG CODE                  CURVE DESCRIPTION
#----------- ----         ------------              -----------------
DEPTH       .M                                      :     {F}
TOPS        .                                       : Formation Tops    {S24}

~TOPS_DATA | TOPS_DEFINITION
        4.6619,Doyles Creek Subgroup   
      435.4607,Horseshoe Creek Subgroup
      514.1221,Apple Tree Flat Subgroup
      732.2914,Watts Sandstone         
      743.8090,Denman Fm               
      881.1697,Mt Leonard Fm           
     1001.4479,Althorpe Fm             
     1015.4708,Malabar Fm              
     1056.3090,Mt Ogilvie Fm           
     1104.1063,Milbrodale Fm           
     1133.5950,Mt Thorley Fm           
     1213.0118,Burnamwood Fm           
     1298.6164,Archerfield Sandstone   
     1324.9931,Mulbring Siltstone      
     1401.3447,Muree Sandstone         
     1498.8386,Branxton Fm             
     1548.1308,Greta Coal Measures     
     1583.3733,DALWOOD GROUP           
     1644.8905,                        

~PARAMETER 
#MNEM.UNIT                    VALUE                        DESCRIPTION
#--------------- ---         ------------                 -----------------

~CURVE 
#MNEM.UNIT                 LOG CODE                  CURVE DESCRIPTION
#----------- ----         ------------              -----------------
DEPTH       .M                                      : DEPTH    {F}
DT          .US/F                                   : Sonic    {F}
GR          .GAPI                                   : Gamma Ray    {F}
LLD         .OHMM                                   : LLD Resistivity    {F}
LLS         .OHMM                                   : LLS Resistivity    {F}
NPHI        .V/V                                    : Neutron Porosity    {F}
RHOB        .K/M3                                   : Offset applied to log data.    {F}

~ASCII | CURVE 
# ...
     184.25160,       56.7774,       35.4041,     -999.2500,     -999.2500,     -999.2500,     -999.2500
     184.40400,       56.5906,       35.4479,     -999.2500,     -999.2500,     -999.2500,     -999.2500
     184.55640,       56.3372,       36.3658,     -999.2500,     -999.2500,     -999.2500,     -999.2500
     184.70880,       56.1285,       37.1019,     -999.2500,     -999.2500,     -999.2500,     -999.2500
     184.86120,       56.3929,       36.4652,     -999.2500,     -999.2500,     -999.2500,     -999.2500
     185.01360,       56.8529,       35.1111,     -999.2500,     -999.2500,     -999.2500,     -999.2500
     185.16600,       56.9771,       34.7764,     -999.2500,     -999.2500,     -999.2500,     -999.2500
     185.31840,       56.7938,       35.9969,     -999.2500,     -999.2500,     -999.2500,     -999.2500
     185.47080,       56.7501,       37.2679,     -999.2500,     -999.2500,     -999.2500,     -999.2500
     185.62320,       56.8638,       37.5508,     -999.2500,     -999.2500,     -999.2500,     -999.2500
     185.77560,       56.9079,       37.2492,     -999.2500,     -999.2500,     -999.2500,     -999.2500
     185.92800,       62.6034,       37.1674,     -999.2500,     -999.2500,     -999.2500,     -999.2500
     186.08040,      103.8000,       37.8473,     -999.2500,     -999.2500,     -999.2500,     -999.2500
     186.23280,      190.9840,       38.4246,     -999.2500,     -999.2500,     -999.2500,     -999.2500
     186.38520,      243.7070,       37.9245,     -999.2500,     -999.2500,     -999.2500,     -999.2500
     186.53760,      243.2680,       37.0123,     -999.2500,     -999.2500,     -999.2500,     -999.2500
     186.69000,      247.6550,       36.9259,     -999.2500,     -999.2500,     -999.2500,     -999.2500
     186.84240,      253.4520,       37.8123,       12.6810,        0.2560,     -999.2500,     -999.2500
     186.99480,      246.4040,       38.7775,       12.5207,        0.2560,     -999.2500,     -999.2500
     187.14720,      229.7200,       39.1184,       13.6067,        0.2560,     -999.2500,     -999.2500
     187.29960,      222.0240,       38.7629,       14.8756,        0.2558,     -999.2500,     -999.2500
     187.45200,      216.3790,       37.9718,       11.5613,        0.2550,     -999.2500,     -999.2500
     187.60440,      201.3180,       37.4813,       11.5914,        0.2552,     -999.2500,     -999.2500
     187.75680,      189.0340,       38.0537,       16.6392,        0.2562,     -999.2500,     -999.2500
     187.90920,      185.0740,       38.5768,       11.7407,        0.2568,     -999.2500,     -999.2500
     188.06160,      190.6750,       37.8010,        5.0058,        0.2560,     -999.2500,     -999.2500
     188.21400,      231.7750,       35.4051,        5.9128,        0.2563,     -999.2500,     -999.2500
     188.36640,      322.3360,       32.6609,        6.6709,        0.2567,     -999.2500,     -999.2500
     188.51880,      376.1440,       32.1726,        6.2503,        0.2563,     -999.2500,     -999.2500
     188.67120,      375.4690,       33.7750,        6.2207,        0.2573,     -999.2500,     -999.2500
     188.82360,      374.1380,       35.2508,        7.0486,        0.2583,     -999.2500,     -999.2500
     188.97600,      373.8570,       35.3200,        6.2468,        0.2593,     -999.2500,     -999.2500
     189.12840,      373.3560,       35.2868,        5.0220,        0.2600,     -999.2500,     -999.2500
     189.28080,      371.3810,       36.4460,        7.8719,        0.2592,     -999.2500,     -999.2500
     189.43320,      359.9610,       37.1137,       12.1554,        0.2548,     -999.2500,     -999.2500
     189.58560,      332.1710,       36.5260,       12.7600,        0.2476,     -999.2500,     -999.2500
     189.73800,      281.9710,       34.8896,       18.1932,        0.2448,     -999.2500,     -999.2500
     189.89040,      238.4490,       32.2819,       12.6644,        0.2484,     -999.2500,     -999.2500
     190.04280,      217.8850,       29.2648,       11.0921,        0.2551,     -999.2500,     -999.2500
     190.19520,      206.7880,       27.0210,       13.7795,        0.2653,     -999.2500,     -999.2500
     190.34760,      199.8810,       27.4304,       18.4826,        0.2693,     -999.2500,     -999.2500
     190.50000,      191.3980,       29.4742,       21.5225,        0.2624,     -999.2500,     -999.2500
     190.65240,      185.7240,       31.8936,       18.3172,        0.2542,     -999.2500,     -999.2500
     190.80480,      183.4490,       32.5839,       17.0429,        0.2497,     -999.2500,     -999.2500
     190.95720,      186.5660,       32.4124,       22.2517,        0.2496,     -999.2500,     -999.2500
     191.10960,      189.0050,       33.4335,       28.2941,        0.2519,     -999.2500,     -999.2500
     191.26200,      197.0340,       35.1222,       13.1135,        0.2546,     -999.2500,     -999.2500
     191.41440,      209.8310,       35.3990,        6.6176,        0.2560,     -999.2500,     -999.2500
     191.56680,      214.3780,       33.4001,       11.0943,        0.2560,     -999.2500,     -999.2500
     191.71920,      212.1760,       31.8935,       21.2699,        0.2560,     -999.2500,     -999.2500
     191.87160,      187.5720,       32.0225,       15.3807,        0.2557,     -999.2500,     -999.2500
     192.02400,      137.2700,       31.9775,        9.5932,        0.2553,     -999.2500,     -999.2500
     192.17640,      100.9180,       32.1668,       13.4425,        0.2560,     -999.2500,     -999.2500
     192.32880,       85.6593,       32.5832,       25.3538,        0.2560,     -999.2500,     -999.2500
     192.48120,       74.8736,       33.4125,       35.3563,        0.2563,     -999.2500,     -999.2500
     192.63360,       70.9396,       33.5716,       20.8488,        0.2567,     -999.2500,     -999.2500
     192.78600,       69.4402,       31.5233,       15.5362,        0.2557,     -999.2500,     -999.2500
     192.93840,       67.2297,       29.8858,       27.4042,        0.2553,     -999.2500,     -999.2500
     193.09080,       61.1139,       29.3649,       22.8188,        0.2560,     -999.2500,     -999.2500
     193.24320,       58.7643,       30.7314,       14.0989,        0.2560,     -999.2500,     -999.2500
     193.39560,       58.3006,       31.9946,       13.1952,        0.2560,     -999.2500,     -999.2500
     193.54800,       57.8493,       32.8523,       13.2170,        0.2557,     -999.2500,     -999.2500
     193.70040,       57.4321,       34.3921,       10.9796,        0.2550,     -999.2500,     -999.2500
     193.85280,       57.2269,       36.4834,       16.9398,        0.2550,     -999.2500,     -999.2500
     194.00520,       58.6030,       37.4664,       27.3213,        0.2554,     -999.2500,     -999.2500
     194.15760,       61.8882,       37.1939,       22.3517,        0.2560,     -999.2500,     -999.2500
     194.31000,       63.4604,       36.2048,       20.8783,        0.2560,     -999.2500,     -999.2500
     194.46240,       62.3437,       36.1310,       29.1807,        0.2560,     -999.2500,     -999.2500
     194.61480,       58.9610,       37.8597,       24.8902,        0.2560,     -999.2500,     -999.2500
     194.76720,       57.3560,       40.2388,       12.5725,        0.2560,     -999.2500,     -999.2500
     194.91960,       57.5631,       41.2665,        6.3353,        0.2556,        0.4791,     2169.0240
     195.07200,       57.9132,       40.8396,        5.8124,        0.2550,        0.5002,     2146.7240
     195.22440,       58.1243,       41.3724,        5.7575,        0.2554,        0.5318,     2150.2240
     195.37680,       57.9754,       44.2550,        7.2457,        0.2560,        0.5481,     2162.9240
     195.52920,       57.8440,       46.8569,        7.9090,        0.2560,        0.5345,     2173.4240
     195.68160,       57.7708,       46.4312,        5.8942,        0.2556,        0.5159,     2179.2230
     195.83400,       57.6249,       43.9940,        3.2058,        0.2550,        0.5270,     2180.0240
