~Version
VERS  .             3.0                                 : CWLS LOG ASCII STANDARD - VERSION 3.0
WRAP  .             NO                                  : One line per depth step
DLM   .             COMMA                               : Delimiter character between data columns
#Delimiting character ( SPACE TAB OR COMMA ).

~Well
#MNEM.UNIT          DATA                                DESCRIPTION
#----- ----        -----------------                   -----------
STRT  .M                  8.22960                       : FIRST INDEX VALUE
STOP  .M               1654.30200                       : LAST INDEX VALUE
STEP  .M                  0.15240                       : STEP OF INDEX
NULL  .             -999.25                             : NULL VALUE
COMP  .                                                 : COMPANY
WELL  .             ATLAS                               : WELL
FLD   .                                                 : FIELD
LOC   .                                                 : LOCATION
SRVC  .                                                 : SERVICE COMPANY
CTRY  .                                                 : COUNTRY
PROV  .                                                 : PROVINCE
UWI   .                                                 : UNIQUE WELL ID
LIC   .                                                 : LICENSE NUMBER
STAT  .                                                 : STATE
CNTY  .                                                 : COUNTY
API   .                                                 : API NUMBER
DATE  .                                                 : LOG DATE
X     .             653523.9460707                      : X OR EAST-WEST COORDINATE
Y     .             8158307.615707                      : Y OR NORTH-SOUTH COORDINATE
HZCS  .                                                 : HORIZONTAL CO-ORDINATE SYSTEM
LATI  .             -16.65267861111                     : LATITUDE
LONG  .             154.43955                           : LONGITUDE
GDAT  .                                                 : GEODETIC DATUM

~TOPS_PARAMETER 
#MNEM.UNIT                    VALUE                        DESCRIPTION
#--------------- ---         ------------                 -----------------

~TOPS_DEFINITION 
#MNEM.UNIT                 LOG CODE                  CURVE DESCRIPTION
#----------- ----         ------------              -----------------
DEPTH       .M                                      :     {F}
TOPS        .                                       : Formation Tops    {S24}

~TOPS_DATA | TOPS_DEFINITION
        4.6619,Doyles Creek Subgroup   
      435.4607,Horseshoe Creek Subgroup
      514.1221,Apple Tree Flat Subgroup
      732.2914,Watts Sandstone         
      743.8090,Denman Fm               
      881.1697,Mt Leonard Fm           
     1001.4479,Althorpe Fm             
     1015.4708,Malabar Fm              
     1056.3090,Mt Ogilvie Fm           
     1104.1063,Milbrodale Fm           
     1133.5950,Mt Thorley Fm           
     1213.0118,Burnamwood Fm           
     1298.6164,Archerfield Sandstone   
     1324.9931,Mulbring Siltstone      
     1401.3447,Muree Sandstone         
     1498.8386,Branxton Fm             
     1548.1308,Greta Coal Measures     
     1583.3733,DALWOOD GROUP           
     1644.8905,                        

~PARAMETER 
#MNEM.UNIT                    VALUE                        DESCRIPTION
#--------------- ---         ------------                 -----------------

~CURVE 
#MNEM.UNIT                 LOG CODE                  CURVE DESCRIPTION
#----------- ----         ------------              -----------------
DEPTH       .M                                      : DEPTH    {F}
DT          .US/F                                   : Sonic    {F}
GR          .GAPI                                   : Gamma Ray    {F}
LLD         .OHMM                                   : LLD Resistivity    {F}
LLS         .OHMM                                   : LLS Resistivity    {F}
NPHI        .V/V                                    : Neutron Porosity    {F}
RHOB        .K/M3                                   : Offset applied to log data.    {F}

~ASCII | CURVE 
# ...
     477.62160,      130.2170,       68.2339,        2.5903,        1.9350,        0.4217,     2159.8230
     477.77400,      130.9460,       68.8393,        3.0881,        2.2968,        0.4265,     2181.4240
     477.92640,      129.8740,       72.6666,        3.3991,        2.5924,        0.4262,     2188.2240
     478.07880,      126.6870,       74.9486,        3.6195,        2.7283,        0.3984,     2188.6240
     478.23120,      123.7660,       71.2025,        3.6976,        2.7389,        0.3811,     2178.5230
     478.38360,      122.1050,       64.6083,        3.5188,        2.5999,        0.3695,     2157.1240
     478.53600,      121.7580,       58.9469,        3.1735,        2.3924,        0.3685,     2132.2240
     478.68840,      121.8460,       60.1228,        2.9862,        2.2685,        0.3727,     2119.6240
     478.84080,      121.9100,       65.4993,        3.0887,        2.2984,        0.3859,     2117.9240
     478.99320,      121.2580,       68.1706,        3.4064,        2.4514,        0.4004,     2122.1240
     479.14560,      120.9020,       67.8360,        3.6783,        2.5717,        0.3976,     2132.4240
     479.29800,      120.7220,       66.5124,        3.6916,        2.6022,        0.4017,     2140.1240
     479.45040,      121.0420,       68.0739,        3.5109,        2.5213,        0.4071,     2133.8230
     479.60280,      121.5220,       72.1322,        3.3378,        2.4507,        0.4247,     2115.5230
     479.75520,      121.6120,       74.7111,        3.2843,        2.4492,        0.4316,     2105.7240
     479.90760,      121.6450,       76.2458,        3.4427,        2.5558,        0.4391,     2107.5240
     480.06000,      121.7150,       74.3111,        3.7270,        2.7248,        0.4406,     2112.7240
     480.21240,      121.8460,       69.7965,        4.0233,        2.8937,        0.4297,     2119.9240
     480.36480,      121.7300,       65.4348,        4.2580,        3.0949,        0.4043,     2124.6240
     480.51720,      121.8290,       62.7839,        4.2828,        3.1987,        0.3806,     2126.8230
     480.66960,      121.9640,       62.6722,        4.1245,        3.1538,        0.3662,     2123.0240
     480.82200,      122.4200,       63.9559,        3.9217,        3.0587,        0.3644,     2114.7240
     480.97440,      123.1850,       65.3659,        3.7134,        2.9411,        0.3737,     2105.7240
     481.12680,      123.7940,       65.4564,        3.5556,        2.8378,        0.3851,     2098.5230
     481.27920,      124.2240,       65.5602,        3.4698,        2.7591,        0.3911,     2097.0240
     481.43160,      123.9460,       67.6912,        3.4849,        2.7460,        0.3846,     2099.3240
     481.58400,      122.5670,       69.6326,        3.7442,        2.9252,        0.3699,     2103.9240
     481.73640,      120.6760,       68.0716,        4.3534,        3.3680,        0.3565,     2116.1240
     481.88880,      119.0760,       64.4984,        5.3131,        4.0742,        0.3523,     2136.2230
     482.04120,      118.4640,       62.3438,        6.3175,        4.8718,        0.3586,     2147.1240
     482.19360,      118.8980,       61.2486,        6.7873,        5.3557,        0.3683,     2139.8240
     482.34600,      119.4030,       60.1477,        6.5427,        5.3107,        0.3750,     2126.5240
     482.49840,      119.9070,       59.1041,        6.0413,        5.0075,        0.3843,     2116.7230
     482.65080,      121.0110,       59.0891,        5.8020,        4.8203,        0.4027,     2113.1240
     482.80320,      122.1550,       59.8498,        5.8654,        4.8440,        0.4227,     2113.7240
     482.95560,      122.2630,       60.1727,        5.9340,        4.8988,        0.4300,     2118.1240
     483.10800,      122.0320,       59.7878,        5.7819,        4.8058,        0.4205,     2121.4240
     483.26040,      122.2080,       58.6100,        5.3737,        4.5554,        0.4041,     2119.3240
     483.41280,      122.2210,       58.4379,        4.8957,        4.2407,        0.3881,     2112.6240
     483.56520,      122.3240,       61.7085,        4.5372,        3.9493,        0.3741,     2106.0230
     483.71760,      122.5540,       66.2821,        4.2572,        3.7144,        0.3622,     2104.5240
     483.87000,      122.9530,       69.3972,        4.0032,        3.5569,        0.3577,     2107.8230
     484.02240,      122.8810,       68.6406,        3.7887,        3.4538,        0.3608,     2112.5230
     484.17480,      122.8030,       66.2522,        3.6334,        3.3614,        0.3658,     2118.9240
     484.32720,      123.0080,       65.3108,        3.5110,        3.2615,        0.3726,     2127.0240
     484.47960,      124.6710,       65.7700,        3.3537,        3.1263,        0.3860,     2140.0240
     484.63200,      127.5050,       65.8180,        3.1340,        2.9327,        0.3995,     2157.7240
     484.78440,      129.7710,       64.9261,        2.9147,        2.7360,        0.3998,     2171.7240
     484.93680,      129.6370,       64.6168,        2.7317,        2.5732,        0.3979,     2171.8240
     485.08920,      124.4840,       64.2478,        2.6593,        2.4951,        0.4112,     2163.2240
     485.24160,      114.6200,       62.8003,        2.8268,        2.6010,        0.4261,     2182.2230
     485.39400,      104.0120,       60.6920,        3.2765,        2.9061,        0.4024,     2244.2240
     485.54640,       96.0016,       57.3990,        4.1207,        3.4653,        0.3452,     2327.4240
     485.69880,       90.6275,       52.4502,        5.6702,        4.5642,        0.2915,     2395.5230
     485.85120,       87.5845,       46.2206,        7.7715,        6.1538,        0.2584,     2437.9240
     486.00360,       87.2906,       43.1099,        9.9324,        7.8267,        0.2344,     2455.6240
     486.15600,       88.1698,       45.2999,       10.9960,        8.7097,        0.2117,     2435.3240
     486.30840,       94.4486,       50.4878,        9.4203,        7.5521,        0.2088,     2360.1240
     486.46080,      104.4390,       55.7725,        6.6523,        5.3706,        0.2338,     2254.6240
     486.61320,      114.8830,       58.0119,        4.7525,        3.8526,        0.2773,     2164.2240
     486.76560,      123.2240,       59.3844,        3.8662,        3.1140,        0.3276,     2114.1240
     486.91800,      127.0020,       60.9506,        3.6383,        2.8462,        0.3672,     2094.5240
     487.07040,      127.5580,       61.5282,        3.7301,        2.8348,        0.3928,     2086.7230
     487.22280,      127.2840,       59.7071,        3.7988,        2.8561,        0.4069,     2078.9240
     487.37520,      127.0040,       58.0996,        3.7443,        2.7867,        0.4135,     2075.0240
     487.52760,      127.0740,       59.6769,        3.6147,        2.6642,        0.4145,     2075.2240
     487.68000,      127.8070,       63.4873,        3.4655,        2.5410,        0.4097,     2077.2230
     487.83240,      128.5140,       65.6295,        3.3553,        2.4074,        0.4042,     2077.6240
     487.98480,      129.0140,       65.2715,        3.2898,        2.3191,        0.3986,     2076.4240
     488.13720,      129.0230,       65.1844,        3.2423,        2.2498,        0.3976,     2075.5230
     488.28960,      127.6160,       65.6784,        3.1951,        2.1622,        0.3983,     2073.5240
     488.44200,      126.6900,       64.6435,        3.1548,        2.1103,        0.3987,     2071.1240
     488.59440,      126.5960,       61.8982,        3.1642,        2.1069,        0.3935,     2069.8240
     488.74680,      126.8570,       59.5390,        3.1971,        2.1038,        0.3881,     2068.6240
     488.89920,      127.8000,       60.1875,        3.2022,        2.0569,        0.3883,     2063.7230
     489.05160,      127.5400,       61.6307,        3.1379,        1.9928,        0.3882,     2058.6240
     489.20400,      126.3860,       63.3153,        3.0558,        1.9681,        0.3842,     2061.8230
