~Version
VERS  .             3.0                                 : CWLS LOG ASCII STANDARD - VERSION 3.0
WRAP  .             NO                                  : One line per depth step
DLM   .             COMMA                               : Delimiter character between data columns
#Delimiting character ( SPACE TAB OR COMMA ).

~Well
#MNEM.UNIT          DATA                                DESCRIPTION
#----- ----        -----------------                   -----------
STRT  .M                  8.22960                       : FIRST INDEX VALUE
STOP  .M               1654.30200                       : LAST INDEX VALUE
STEP  .M                  0.15240                       : STEP OF INDEX
NULL  .             -999.25                             : NULL VALUE
COMP  .                                                 : COMPANY
WELL  .             ATLAS                               : WELL
FLD   .                                                 : FIELD
LOC   .                                                 : LOCATION
SRVC  .                                                 : SERVICE COMPANY
CTRY  .                                                 : COUNTRY
PROV  .                                                 : PROVINCE
UWI   .                                                 : UNIQUE WELL ID
LIC   .                                                 : LICENSE NUMBER
STAT  .                                                 : STATE
CNTY  .                                                 : COUNTY
API   .                                                 : API NUMBER
DATE  .                                                 : LOG DATE
X     .             653523.9460707                      : X OR EAST-WEST COORDINATE
Y     .             8158307.615707                      : Y OR NORTH-SOUTH COORDINATE
HZCS  .                                                 : HORIZONTAL CO-ORDINATE SYSTEM
LATI  .             -16.65267861111                     : LATITUDE
LONG  .             154.43955                           : LONGITUDE
GDAT  .                                                 : GEODETIC DATUM

~TOPS_PARAMETER 
#MNEM.UNIT                    VALUE                        DESCRIPTION
#--------------- ---         ------------                 -----------------

~TOPS_DEFINITION 
#MNEM.UNIT                 LOG CODE                  CURVE DESCRIPTION
#----------- ----         ------------              -----------------
DEPTH       .M                                      :     {F}
TOPS        .                                       : Formation Tops    {S24}

~TOPS_DATA | TOPS_DEFINITION
        4.6619,Doyles Creek Subgroup   
      435.4607,Horseshoe Creek Subgroup
      514.1221,Apple Tree Flat Subgroup
      732.2914,Watts Sandstone         
      743.8090,Denman Fm               
      881.1697,Mt Leonard Fm           
     1001.4479,Althorpe Fm             
     1015.4708,Malabar Fm              
     1056.3090,Mt Ogilvie Fm           
     1104.1063,Milbrodale Fm           
     1133.5950,Mt Thorley Fm           
     1213.0118,Burnamwood Fm           
     1298.6164,Archerfield Sandstone   
     1324.9931,Mulbring Siltstone      
     1401.3447,Muree Sandstone         
     1498.8386,Branxton Fm             
     1548.1308,Greta Coal Measures     
     1583.3733,DALWOOD GROUP           
     1644.8905,                        

~PARAMETER 
#MNEM.UNIT                    VALUE                        DESCRIPTION
#--------------- ---         ------------                 -----------------

~CURVE 
#MNEM.UNIT                 LOG CODE                  CURVE DESCRIPTION
#----------- ----         ------------              -----------------
DEPTH       .M                                      : DEPTH    {F}
DT          .US/F                                   : Sonic    {F}
GR          .GAPI                                   : Gamma Ray    {F}
LLD         .OHMM                                   : LLD Resistivity    {F}
LLS         .OHMM                                   : LLS Resistivity    {F}
NPHI        .V/V                                    : Neutron Porosity    {F}
RHOB        .K/M3                                   : Offset applied to log data.    {F}

~ASCII | CURVE 
# ...
    1345.99680,       88.5723,       75.4807,        8.8047,        9.4172,        0.2348,     2377.9240
    1346.14920,       87.6175,       76.6709,        9.5791,       10.1549,        0.2281,     2376.6240
    1346.30160,       85.7987,       75.6738,       10.4195,       11.0471,        0.2192,     2390.4240
    1346.45400,       84.7738,       71.0072,       10.7566,       11.4478,        0.2230,     2405.4240
    1346.60640,       85.1908,       67.8908,       10.0190,       10.7704,        0.2363,     2415.9240
    1346.75880,       86.9280,       71.8020,        8.3810,        9.1525,        0.2493,     2420.9240
    1346.91120,       88.0379,       80.8925,        7.3364,        8.0612,        0.2446,     2423.2240
    1347.06360,       88.3335,       84.9484,        7.2994,        7.9891,        0.2241,     2425.7230
    1347.21600,       88.2450,       80.7193,        7.7622,        8.3741,        0.2103,     2425.1240
    1347.36840,       87.0849,       73.6412,        8.4593,        8.9450,        0.2153,     2419.5240
    1347.52080,       85.6765,       70.2913,        9.1994,        9.6306,        0.2283,     2414.1240
    1347.67320,       84.6093,       69.7357,       10.1091,       10.5346,        0.2287,     2414.8230
    1347.82560,       83.4096,       69.6817,       11.4345,       11.7238,        0.2167,     2417.9240
    1347.97800,       82.1594,       69.2965,       12.5959,       12.6731,        0.2066,     2412.8240
    1348.13040,       81.5673,       67.4707,       12.7537,       12.7469,        0.2033,     2400.1240
    1348.28280,       81.6718,       63.2024,       12.0534,       12.0026,        0.2040,     2388.9240
    1348.43520,       82.3548,       57.1433,       11.4323,       11.2216,        0.2057,     2380.4240
    1348.58760,       83.6660,       53.5561,       11.3442,       10.9755,        0.2129,     2371.7240
    1348.74000,       85.3157,       54.6691,       11.1851,       10.7616,        0.2229,     2358.1240
    1348.89240,       86.9445,       58.9411,       10.4547,       10.0768,        0.2309,     2344.2240
    1349.04480,       88.0865,       62.6441,        9.5573,        9.3477,        0.2327,     2335.5230
    1349.19720,       88.8614,       63.8168,        8.9080,        8.9189,        0.2323,     2335.2240
    1349.34960,       88.9546,       63.9006,        8.5332,        8.7148,        0.2339,     2341.2240
    1349.50200,       88.5323,       63.8437,        8.5583,        8.7549,        0.2369,     2347.8230
    1349.65440,       87.7267,       62.7653,        9.1483,        9.1170,        0.2393,     2358.6240
    1349.80680,       85.7673,       60.1216,       10.4680,        9.9330,        0.2366,     2379.9240
    1349.95920,       82.4553,       56.4263,       12.8545,       11.4839,        0.2212,     2414.5230
    1350.11160,       78.2857,       53.6250,       17.4390,       14.6406,        0.1962,     2457.2240
    1350.26400,       74.5447,       51.0963,       23.4082,       19.2588,        0.1777,     2502.6240
    1350.41640,       72.5630,       47.8515,       24.7894,       21.3696,        0.1874,     2547.5240
    1350.56880,       72.1731,       44.3070,       20.3461,       19.0508,        0.2333,     2580.8230
    1350.72120,       72.7938,       43.0718,       16.8962,       16.7563,        0.2847,     2595.8240
    1350.87360,       73.4318,       45.5247,       16.4811,       16.6296,        0.2988,     2588.2240
    1351.02600,       73.3424,       49.2411,       19.2980,       19.4425,        0.2613,     2566.2240
    1351.17840,       72.9027,       50.8071,       24.4700,       24.9167,        0.2027,     2536.5230
    1351.33080,       72.5054,       51.4199,       24.8028,       25.9595,        0.1640,     2501.4240
    1351.48320,       73.7253,       53.5100,       20.1154,       21.4811,        0.1557,     2461.6240
    1351.63560,       76.6034,       57.6190,       15.1631,       16.2510,        0.1708,     2425.2240
    1351.78800,       80.0014,       61.0196,       11.4414,       12.3283,        0.1942,     2404.0240
    1351.94040,       83.5101,       63.3075,        9.6340,       10.3780,        0.2159,     2399.5240
    1352.09280,       86.1406,       67.8215,        9.2612,        9.9481,        0.2298,     2406.5240
    1352.24520,       87.0296,       73.0856,        9.4787,       10.2163,        0.2368,     2417.3230
    1352.39760,       87.1048,       77.2022,        9.9106,       10.7427,        0.2375,     2427.5230
    1352.55000,       85.9252,       77.8827,       10.5408,       11.4636,        0.2280,     2426.6240
    1352.70240,       84.5896,       75.9560,       11.0456,       11.9414,        0.2154,     2414.2240
    1352.85480,       83.8213,       71.7569,       11.2270,       11.9971,        0.2090,     2395.6240
    1353.00720,       83.1294,       65.0838,       10.9665,       11.6034,        0.2105,     2382.5230
    1353.15960,       83.0028,       60.6637,       10.2976,       10.8105,        0.2123,     2376.3240
    1353.31200,       83.0366,       58.8674,        9.7825,       10.1410,        0.2084,     2374.4240
    1353.46440,       83.3894,       58.4903,        9.9270,       10.1211,        0.2021,     2377.0240
    1353.61680,       83.4969,       57.3609,       10.7470,       10.8137,        0.1994,     2389.2240
    1353.76920,       83.1432,       57.4445,       11.8826,       11.8848,        0.2030,     2411.4240
    1353.92160,       82.3762,       60.4143,       13.0225,       13.0731,        0.2095,     2438.9240
    1354.07400,       80.6162,       61.8821,       13.9123,       14.0870,        0.2070,     2471.2240
    1354.22640,       78.5042,       61.8889,       14.4335,       14.6784,        0.1902,     2502.7240
    1354.37880,       76.6023,       61.9444,       14.5660,       14.8400,        0.1683,     2524.3240
    1354.53120,       75.9219,       63.3147,       14.2959,       14.5992,        0.1548,     2517.7230
    1354.68360,       77.3677,       64.1705,       13.7208,       14.0317,        0.1573,     2486.7240
    1354.83600,       79.6440,       64.9222,       12.9517,       13.1842,        0.1703,     2449.8230
    1354.98840,       81.7499,       65.8640,       12.3808,       12.5224,        0.1840,     2424.8240
    1355.14080,       83.1403,       66.9448,       12.0733,       12.1775,        0.1924,     2411.6240
    1355.29320,       83.8281,       66.4442,       11.8636,       11.9486,        0.1976,     2401.6240
    1355.44560,       83.9804,       66.1667,       11.7870,       11.8479,        0.2024,     2394.6240
    1355.59800,       84.0683,       66.4274,       11.7472,       11.8050,        0.2080,     2390.4240
    1355.75040,       84.0601,       67.1685,       11.6197,       11.6693,        0.2139,     2389.6240
    1355.90280,       84.1499,       66.9476,       11.5846,       11.6106,        0.2205,     2390.1240
    1356.05520,       84.4465,       65.4301,       11.5117,       11.5431,        0.2257,     2393.6240
    1356.20760,       84.4303,       61.9409,       11.1994,       11.2191,        0.2276,     2395.8240
    1356.36000,       84.2237,       59.6204,       10.9260,       10.9295,        0.2257,     2395.6240
    1356.51240,       84.5068,       60.6791,       10.4018,       10.5054,        0.2236,     2391.9240
    1356.66480,       86.4950,       66.0939,        8.8409,        9.1180,        0.2256,     2393.1240
    1356.81720,       90.2763,       73.9110,        6.7231,        7.0776,        0.2384,     2408.4240
    1356.96960,       94.5342,       82.0828,        5.0776,        5.4098,        0.2618,     2428.6240
    1357.12200,       98.4193,       90.6115,        4.1008,        4.3763,        0.2856,     2440.7240
    1357.27440,      100.7550,       97.8696,        3.6371,        3.8606,        0.3046,     2438.5230
    1357.42680,      101.3430,      102.2740,        3.5164,        3.7012,        0.3178,     2432.5240
    1357.57920,      101.5720,      102.7400,        3.5396,        3.6996,        0.3244,     2428.3240
