~Version
VERS  .             3.0                                 : CWLS LOG ASCII STANDARD - VERSION 3.0
WRAP  .             NO                                  : One line per depth step
DLM   .             COMMA                               : Delimiter character between data columns
#Delimiting character ( SPACE TAB OR COMMA ).

~Well
#MNEM.UNIT          DATA                                DESCRIPTION
#----- ----        -----------------                   -----------
STRT  .M                  8.22960                       : FIRST INDEX VALUE
STOP  .M               1654.30200                       : LAST INDEX VALUE
STEP  .M                  0.15240                       : STEP OF INDEX
NULL  .             -999.25                             : NULL VALUE
COMP  .                                                 : COMPANY
WELL  .             ATLAS                               : WELL
FLD   .                                                 : FIELD
LOC   .                                                 : LOCATION
SRVC  .                                                 : SERVICE COMPANY
CTRY  .                                                 : COUNTRY
PROV  .                                                 : PROVINCE
UWI   .                                                 : UNIQUE WELL ID
LIC   .                                                 : LICENSE NUMBER
STAT  .                                                 : STATE
CNTY  .                                                 : COUNTY
API   .                                                 : API NUMBER
DATE  .                                                 : LOG DATE
X     .             653523.9460707                      : X OR EAST-WEST COORDINATE
Y     .             8158307.615707                      : Y OR NORTH-SOUTH COORDINATE
HZCS  .                                                 : HORIZONTAL CO-ORDINATE SYSTEM
LATI  .             -16.65267861111                     : LATITUDE
LONG  .             154.43955                           : LONGITUDE
GDAT  .                                                 : GEODETIC DATUM

~TOPS_PARAMETER 
#MNEM.UNIT                    VALUE                        DESCRIPTION
#--------------- ---         ------------                 -----------------

~TOPS_DEFINITION 
#MNEM.UNIT                 LOG CODE                  CURVE DESCRIPTION
#----------- ----         ------------              -----------------
DEPTH       .M                                      :     {F}
TOPS        .                                       : Formation Tops    {S24}

~TOPS_DATA | TOPS_DEFINITION
        4.6619,Doyles Creek Subgroup   
      435.4607,Horseshoe Creek Subgroup
      514.1221,Apple Tree Flat Subgroup
      732.2914,Watts Sandstone         
      743.8090,Denman Fm               
      881.1697,Mt Leonard Fm           
     1001.4479,Althorpe Fm             
     1015.4708,Malabar Fm              
     1056.3090,Mt Ogilvie Fm           
     1104.1063,Milbrodale Fm           
     1133.5950,Mt Thorley Fm           
     1213.0118,Burnamwood Fm           
     1298.6164,Archerfield Sandstone   
     1324.9931,Mulbring Siltstone      
     1401.3447,Muree Sandstone         
     1498.8386,Branxton Fm             
     1548.1308,Greta Coal Measures     
     1583.3733,DALWOOD GROUP           
     1644.8905,                        

~PARAMETER 
#MNEM.UNIT                    VALUE                        DESCRIPTION
#--------------- ---         ------------                 -----------------

~CURVE 
#MNEM.UNIT                 LOG CODE                  CURVE DESCRIPTION
#----------- ----         ------------              -----------------
DEPTH       .M                                      : DEPTH    {F}
DT          .US/F                                   : Sonic    {F}
GR          .GAPI                                   : Gamma Ray    {F}
LLD         .OHMM                                   : LLD Resistivity    {F}
LLS         .OHMM                                   : LLS Resistivity    {F}
NPHI        .V/V                                    : Neutron Porosity    {F}
RHOB        .K/M3                                   : Offset applied to log data.    {F}

~ASCII | CURVE 
# ...
    1052.62680,       99.4995,       63.9872,        2.4705,        2.6951,        0.3001,     2409.6240
    1052.77920,       99.1152,       66.2339,        2.5147,        2.7567,        0.3068,     2410.9240
    1052.93160,       98.8771,       67.7892,        2.5485,        2.8162,        0.3157,     2414.9240
    1053.08400,       98.2502,       66.4049,        2.6372,        2.9198,        0.3186,     2423.1240
    1053.23640,       96.8553,       64.5725,        2.8169,        3.1142,        0.3146,     2430.8230
    1053.38880,       94.9518,       64.6445,        3.0045,        3.3165,        0.3008,     2431.8240
    1053.54120,       93.5046,       66.7922,        3.1469,        3.4614,        0.2858,     2429.4240
    1053.69360,       92.5376,       67.0828,        3.2777,        3.6142,        0.2822,     2430.6240
    1053.84600,       91.7947,       63.7047,        3.4242,        3.8141,        0.2876,     2437.2240
    1053.99840,       91.1554,       57.6116,        3.6276,        4.0450,        0.2880,     2445.2230
    1054.15080,       89.8428,       52.1426,        3.8785,        4.3196,        0.2774,     2447.6240
    1054.30320,       88.9123,       51.6370,        3.9121,        4.3951,        0.2668,     2441.5230
    1054.45560,       89.9796,       56.4413,        3.6029,        4.0951,        0.2693,     2426.9240
    1054.60800,       92.5090,       62.8430,        3.3079,        3.8099,        0.2862,     2410.9240
    1054.76040,       94.4561,       67.3758,        3.0987,        3.6174,        0.3046,     2399.9240
    1054.91280,       95.8655,       69.8453,        2.9089,        3.4115,        0.3153,     2392.9240
    1055.06520,       97.1720,       69.9158,        2.8509,        3.3254,        0.3220,     2384.3230
    1055.21760,       98.1364,       68.9925,        2.8347,        3.3074,        0.3301,     2371.6240
    1055.37000,       98.7080,       67.5731,        2.8354,        3.3232,        0.3315,     2366.7230
    1055.52240,       98.1913,       67.0876,        2.9386,        3.4298,        0.3203,     2375.5230
    1055.67480,       96.5668,       70.2882,        3.0792,        3.5615,        0.3112,     2394.9240
    1055.82720,       94.4467,       74.4810,        3.1749,        3.6576,        0.3146,     2419.0240
    1055.97960,       91.9085,       74.4002,        3.3992,        3.8831,        0.3211,     2445.6240
    1056.13200,       88.0166,       66.6680,        4.0736,        4.5633,        0.3048,     2484.9240
    1056.28440,       82.8834,       53.9175,        5.4869,        5.9790,        0.2560,     2539.3230
    1056.43680,       76.6430,       45.5030,        8.1663,        8.6543,        0.1915,     2591.6240
    1056.58920,       71.7144,       41.0742,       12.0847,       12.5985,        0.1439,     2617.4240
    1056.74160,       68.5924,       41.0565,       14.2663,       15.0757,        0.1295,     2612.7240
    1056.89400,       68.0488,       42.8447,       13.3857,       14.4620,        0.1370,     2591.9240
    1057.04640,       67.9585,       45.5297,       11.2503,       12.3484,        0.1478,     2565.1240
    1057.19880,       69.4076,       47.5046,        9.1046,       10.0356,        0.1561,     2533.9240
    1057.35120,       71.8535,       48.5652,        7.6735,        8.4998,        0.1717,     2496.9240
    1057.50360,       76.0775,       48.8492,        6.6917,        7.4996,        0.2007,     2463.1240
    1057.65600,       79.2006,       50.5373,        6.0545,        6.8483,        0.2346,     2440.1240
    1057.80840,       82.8125,       51.9244,        5.7785,        6.5647,        0.2546,     2423.3230
    1057.96080,       84.4853,       55.0163,        5.5836,        6.4108,        0.2585,     2415.3240
    1058.11320,       86.1240,       57.1299,        5.3980,        6.2263,        0.2567,     2409.4240
    1058.26560,       86.7636,       58.1523,        5.0390,        5.8598,        0.2604,     2411.0230
    1058.41800,       88.7089,       62.3011,        4.5199,        5.2747,        0.2759,     2414.0240
    1058.57040,       90.5898,       64.4956,        4.1168,        4.7871,        0.2888,     2407.3230
    1058.72280,       93.3589,       66.1839,        3.8056,        4.3958,        0.2960,     2392.7230
    1058.87520,       95.8781,       65.1773,        3.4413,        3.9605,        0.2971,     2367.2240
    1059.02760,       98.6778,       66.6896,        3.1827,        3.6278,        0.3086,     2342.4240
    1059.18000,      101.3320,       70.0188,        3.0949,        3.5008,        0.3358,     2335.3230
    1059.33240,      100.6360,       72.5010,        3.3341,        3.7655,        0.3465,     2355.3230
    1059.48480,       96.7384,       71.2849,        4.0533,        4.5428,        0.3235,     2399.1240
    1059.63720,       90.4154,       67.6584,        4.9202,        5.4585,        0.2756,     2435.0230
    1059.78960,       85.7726,       64.6487,        5.1641,        5.7323,        0.2398,     2445.1240
    1059.94200,       85.7604,       64.8215,        4.4110,        4.9384,        0.2361,     2431.3230
    1060.09440,       90.7271,       66.7077,        3.3804,        3.8333,        0.2610,     2412.8240
    1060.24680,       96.8482,       69.2360,        2.6855,        3.0607,        0.2946,     2402.4240
    1060.39920,      101.3830,       73.6676,        2.4366,        2.7592,        0.3168,     2403.0240
    1060.55160,      103.2260,       76.7618,        2.3659,        2.6389,        0.3211,     2404.7240
    1060.70400,      104.1130,       78.1705,        2.3208,        2.5657,        0.3167,     2403.8230
    1060.85640,      104.4680,       79.2060,        2.2906,        2.5234,        0.3195,     2398.5230
    1061.00880,      104.7800,       80.8476,        2.3424,        2.5655,        0.3318,     2394.7240
    1061.16120,      104.3050,       83.1178,        2.5073,        2.7262,        0.3436,     2395.7240
    1061.31360,      103.4560,       82.2074,        2.6698,        2.8924,        0.3444,     2397.7240
    1061.46600,      102.4610,       80.1882,        2.7859,        3.0070,        0.3370,     2401.7240
    1061.61840,      101.5290,       79.4912,        2.8676,        3.0879,        0.3313,     2405.4240
    1061.77080,      101.0040,       82.0320,        2.8859,        3.1113,        0.3273,     2406.4240
    1061.92320,      101.0360,       85.0103,        2.8277,        3.0536,        0.3243,     2403.1240
    1062.07560,      101.5440,       83.6286,        2.7601,        2.9707,        0.3190,     2400.4240
    1062.22800,      101.9450,       80.2550,        2.7315,        2.9217,        0.3174,     2401.1240
    1062.38040,      102.1400,       78.2800,        2.7348,        2.9093,        0.3272,     2402.1240
    1062.53280,      102.3630,       77.2961,        2.7944,        2.9562,        0.3419,     2400.0240
    1062.68520,      101.9190,       74.7701,        2.8668,        3.0162,        0.3493,     2396.0240
    1062.83760,      101.3560,       72.2642,        2.8684,        3.0133,        0.3393,     2392.3240
    1062.99000,      101.6320,       73.5062,        2.8082,        2.9605,        0.3227,     2391.5230
    1063.14240,      102.0640,       77.3671,        2.7200,        2.8701,        0.3168,     2394.8230
    1063.29480,      102.4410,       80.7628,        2.6439,        2.7831,        0.3232,     2400.3230
    1063.44720,      102.5500,       82.4989,        2.6145,        2.7387,        0.3279,     2406.5240
    1063.59960,      102.5370,       84.8433,        2.6049,        2.7212,        0.3231,     2408.0230
    1063.75200,      102.5390,       88.3355,        2.5897,        2.7075,        0.3154,     2407.0240
    1063.90440,      102.4500,       91.2195,        2.5753,        2.6969,        0.3129,     2409.0240
    1064.05680,      102.5940,       90.3540,        2.5712,        2.6991,        0.3167,     2416.0240
    1064.20920,      102.8730,       85.6213,        2.5889,        2.7154,        0.3191,     2421.5230
