~Version
VERS  .             3.0                                 : CWLS LOG ASCII STANDARD - VERSION 3.0
WRAP  .             NO                                  : One line per depth step
DLM   .             COMMA                               : Delimiter character between data columns
#Delimiting character ( SPACE TAB OR COMMA ).

~Well
#MNEM.UNIT          DATA                                DESCRIPTION
#----- ----        -----------------                   -----------
STRT  .M                  8.22960                       : FIRST INDEX VALUE
STOP  .M               1654.30200                       : LAST INDEX VALUE
STEP  .M                  0.15240                       : STEP OF INDEX
NULL  .             -999.25                             : NULL VALUE
COMP  .                                                 : COMPANY
WELL  .             ATLAS                               : WELL
FLD   .                                                 : FIELD
LOC   .                                                 : LOCATION
SRVC  .                                                 : SERVICE COMPANY
CTRY  .                                                 : COUNTRY
PROV  .                                                 : PROVINCE
UWI   .                                                 : UNIQUE WELL ID
LIC   .                                                 : LICENSE NUMBER
STAT  .                                                 : STATE
CNTY  .                                                 : COUNTY
API   .                                                 : API NUMBER
DATE  .                                                 : LOG DATE
X     .             653523.9460707                      : X OR EAST-WEST COORDINATE
Y     .             8158307.615707                      : Y OR NORTH-SOUTH COORDINATE
HZCS  .                                                 : HORIZONTAL CO-ORDINATE SYSTEM
LATI  .             -16.65267861111                     : LATITUDE
LONG  .             154.43955                           : LONGITUDE
GDAT  .                                                 : GEODETIC DATUM

~TOPS_PARAMETER 
#MNEM.UNIT                    VALUE                        DESCRIPTION
#--------------- ---         ------------                 -----------------

~TOPS_DEFINITION 
#MNEM.UNIT                 LOG CODE                  CURVE DESCRIPTION
#----------- ----         ------------              -----------------
DEPTH       .M                                      :     {F}
TOPS        .                                       : Formation Tops    {S24}

~TOPS_DATA | TOPS_DEFINITION
        4.6619,Doyles Creek Subgroup   
      435.4607,Horseshoe Creek Subgroup
      514.1221,Apple Tree Flat Subgroup
      732.2914,Watts Sandstone         
      743.8090,Denman Fm               
      881.1697,Mt Leonard Fm           
     1001.4479,Althorpe Fm             
     1015.4708,Malabar Fm              
     1056.3090,Mt Ogilvie Fm           
     1104.1063,Milbrodale Fm           
     1133.5950,Mt Thorley Fm           
     1213.0118,Burnamwood Fm           
     1298.6164,Archerfield Sandstone   
     1324.9931,Mulbring Siltstone      
     1401.3447,Muree Sandstone         
     1498.8386,Branxton Fm             
     1548.1308,Greta Coal Measures     
     1583.3733,DALWOOD GROUP           
     1644.8905,                        

~PARAMETER 
#MNEM.UNIT                    VALUE                        DESCRIPTION
#--------------- ---         ------------                 -----------------

~CURVE 
#MNEM.UNIT                 LOG CODE                  CURVE DESCRIPTION
#----------- ----         ------------              -----------------
DEPTH       .M                                      : DEPTH    {F}
DT          .US/F                                   : Sonic    {F}
GR          .GAPI                                   : Gamma Ray    {F}
LLD         .OHMM                                   : LLD Resistivity    {F}
LLS         .OHMM                                   : LLS Resistivity    {F}
NPHI        .V/V                                    : Neutron Porosity    {F}
RHOB        .K/M3                                   : Offset applied to log data.    {F}

~ASCII | CURVE 
# ...
     383.74320,      138.6810,       67.1515,        1.8168,        1.5127,        0.4554,     2159.5240
     383.89560,      136.9160,       68.3664,        1.8974,        1.5640,        0.4624,     2144.6240
     384.04800,      135.3910,       69.8028,        1.9962,        1.6287,        0.4618,     2125.0230
     384.20040,      134.1910,       71.0305,        2.0539,        1.6689,        0.4499,     2113.3240
     384.35280,      133.7220,       72.9463,        2.0603,        1.6729,        0.4249,     2109.1240
     384.50520,      133.9710,       75.1129,        2.0589,        1.6502,        0.4050,     2106.5240
     384.65760,      134.2060,       75.2531,        2.0683,        1.6409,        0.3994,     2105.4240
     384.81000,      133.8190,       72.6828,        2.1027,        1.6465,        0.3996,     2106.0230
     384.96240,      132.7780,       69.9145,        2.1481,        1.6522,        0.4000,     2104.5240
     385.11480,      131.4440,       69.2574,        2.1764,        1.6527,        0.3967,     2101.4240
     385.26720,      130.4210,       70.2439,        2.2045,        1.6422,        0.3963,     2099.7240
     385.41960,      129.9770,       69.8636,        2.2461,        1.6455,        0.3963,     2098.7240
     385.57200,      129.3300,       67.4755,        2.2699,        1.6572,        0.3888,     2097.1240
     385.72440,      128.1710,       64.3613,        2.2747,        1.6551,        0.3764,     2097.1240
     385.87680,      127.2940,       61.4196,        2.2670,        1.6427,        0.3660,     2100.1240
     386.02920,      126.9590,       61.1895,        2.2204,        1.6140,        0.3650,     2100.7240
     386.18160,      126.8760,       64.0330,        2.1455,        1.5753,        0.3673,     2095.7240
     386.33400,      127.8440,       67.2006,        2.0982,        1.5513,        0.3667,     2089.4240
     386.48640,      128.7190,       67.2455,        2.0772,        1.5406,        0.3667,     2089.4240
     386.63880,      128.4330,       63.1519,        2.0558,        1.5333,        0.3724,     2094.5240
     386.79120,      129.0740,       60.7108,        2.0405,        1.5425,        0.3852,     2100.5240
     386.94360,      128.9120,       62.7839,        2.0118,        1.5644,        0.3934,     2100.4240
     387.09600,      128.6260,       65.6340,        2.0096,        1.5788,        0.3991,     2096.0230
     387.24840,      128.5390,       67.0695,        2.0504,        1.6081,        0.3989,     2096.5240
     387.40080,      128.3460,       65.3001,        2.1249,        1.6993,        0.3952,     2102.9240
     387.55320,      127.4620,       65.3882,        2.1773,        1.7744,        0.3885,     2110.9240
     387.70560,      126.8820,       64.6445,        2.2098,        1.8003,        0.3804,     2114.8230
     387.85800,      126.7370,       62.9516,        2.1458,        1.7559,        0.3717,     2117.5240
     388.01040,      125.0420,       61.6686,        1.9978,        1.6524,        0.3620,     2115.6240
     388.16280,      119.0350,       59.5871,        2.0000,        1.6367,        0.3702,     2126.3240
     388.31520,      110.1950,       56.7131,        2.4340,        1.9201,        0.3962,     2175.8240
     388.46760,       97.9186,       53.4244,        3.5397,        2.6480,        0.3859,     2281.5240
     388.62000,       85.4427,       52.2908,        5.8533,        4.1835,        0.3226,     2406.9240
     388.77240,       76.5846,       51.0725,        9.5620,        6.8624,        0.2472,     2499.0240
     388.92480,       72.1062,       48.7283,       11.9299,        9.1574,        0.2081,     2535.7240
     389.07720,       71.0002,       44.4392,       11.3281,        9.3705,        0.1960,     2552.2240
     389.22960,       69.0924,       43.6676,       10.5003,        9.5868,        0.1789,     2557.1240
     389.38200,       71.9677,       45.4367,        7.7968,        7.8611,        0.1679,     2505.3230
     389.53440,       84.5037,       49.7629,        4.5676,        4.7830,        0.1849,     2380.8230
     389.68680,      100.4460,       53.0479,        2.8473,        3.0046,        0.2328,     2237.9240
     389.83920,      114.7260,       57.3012,        2.1107,        2.2587,        0.3058,     2145.3240
     389.99160,      124.9100,       62.6756,        1.9685,        2.0098,        0.3608,     2110.7240
     390.14400,      128.2890,       66.1682,        2.1702,        2.1275,        0.3877,     2109.8240
     390.29640,      127.9770,       64.8647,        2.4030,        2.3373,        0.3826,     2108.4240
     390.44880,      125.8810,       60.3551,        2.4741,        2.4187,        0.3805,     2109.6240
     390.60120,      119.0970,       58.3194,        2.5043,        2.4436,        0.3989,     2128.3230
     390.75360,      108.6230,       59.8005,        2.8441,        2.6964,        0.4222,     2190.5240
     390.90600,       97.1129,       62.4234,        3.8508,        3.4805,        0.4085,     2295.7240
     391.05840,       84.8102,       60.0585,        6.2911,        5.1982,        0.3425,     2417.7240
     391.21080,       80.3182,       54.9289,        9.3580,        7.5111,        0.2565,     2505.8230
     391.36320,       84.5707,       50.8530,        8.8141,        7.5957,        0.2070,     2499.4240
     391.51560,       96.7201,       54.5136,        5.4833,        4.9852,        0.2086,     2400.9240
     391.66800,      111.2320,       62.7862,        3.2413,        3.0373,        0.2540,     2267.1240
     391.82040,      123.1740,       68.7939,        2.3169,        2.1979,        0.3191,     2167.0240
     391.97280,      128.3770,       70.7042,        2.0632,        1.9224,        0.3734,     2124.1240
     392.12520,      130.4710,       69.6381,        2.1211,        1.9200,        0.4020,     2117.4240
     392.27760,      130.8290,       68.7138,        2.1795,        1.9627,        0.4062,     2116.6240
     392.43000,      131.8350,       67.5303,        2.1253,        1.9394,        0.4076,     2113.3240
     392.58240,      132.8270,       67.0060,        2.0182,        1.8755,        0.4150,     2110.1240
     392.73480,      133.5590,       68.0391,        1.9516,        1.7959,        0.4295,     2114.1240
     392.88720,      133.8440,       68.7797,        1.9157,        1.7294,        0.4291,     2121.7240
     393.03960,      134.0760,       70.5673,        1.8870,        1.7010,        0.4107,     2130.5240
     393.19200,      134.9180,       73.2291,        1.8620,        1.6575,        0.3981,     2138.7240
     393.34440,      136.3260,       74.6274,        1.8396,        1.5939,        0.4063,     2143.6240
     393.49680,      137.5820,       72.1415,        1.8167,        1.5649,        0.4209,     2143.6240
     393.64920,      139.3200,       67.6564,        1.8064,        1.5570,        0.4296,     2141.0240
     393.80160,      140.5000,       64.4195,        1.8002,        1.5384,        0.4334,     2140.4240
     393.95400,      140.5110,       63.4457,        1.7709,        1.5268,        0.4412,     2142.0230
     394.10640,      140.2760,       63.9968,        1.7423,        1.5234,        0.4470,     2141.6240
     394.25880,      139.4180,       66.0610,        1.7402,        1.5222,        0.4448,     2139.0230
     394.41120,      138.4960,       68.9746,        1.7605,        1.5333,        0.4399,     2136.8230
     394.56360,      138.0940,       71.2567,        1.7943,        1.5661,        0.4341,     2134.8230
     394.71600,      137.7980,       72.9103,        1.8247,        1.5991,        0.4314,     2132.8240
     394.86840,      137.5790,       74.4809,        1.8398,        1.6148,        0.4269,     2134.9240
     395.02080,      137.4390,       75.4147,        1.8338,        1.6269,        0.4112,     2142.8240
     395.17320,      137.5160,       74.5988,        1.8073,        1.6224,        0.3989,     2151.8240
     395.32560,      138.0290,       72.1217,        1.7871,        1.6086,        0.4061,     2157.5240
