~Version
VERS  .             3.0                                 : CWLS LOG ASCII STANDARD - VERSION 3.0
WRAP  .             NO                                  : One line per depth step
DLM   .             COMMA                               : Delimiter character between data columns
#Delimiting character ( SPACE TAB OR COMMA ).

~Well
#MNEM.UNIT          DATA                                DESCRIPTION
#----- ----        -----------------                   -----------
STRT  .M                  8.22960                       : FIRST INDEX VALUE
STOP  .M               1654.30200                       : LAST INDEX VALUE
STEP  .M                  0.15240                       : STEP OF INDEX
NULL  .             -999.25                             : NULL VALUE
COMP  .                                                 : COMPANY
WELL  .             ATLAS                               : WELL
FLD   .                                                 : FIELD
LOC   .                                                 : LOCATION
SRVC  .                                                 : SERVICE COMPANY
CTRY  .                                                 : COUNTRY
PROV  .                                                 : PROVINCE
UWI   .                                                 : UNIQUE WELL ID
LIC   .                                                 : LICENSE NUMBER
STAT  .                                                 : STATE
CNTY  .                                                 : COUNTY
API   .                                                 : API NUMBER
DATE  .                                                 : LOG DATE
X     .             653523.9460707                      : X OR EAST-WEST COORDINATE
Y     .             8158307.615707                      : Y OR NORTH-SOUTH COORDINATE
HZCS  .                                                 : HORIZONTAL CO-ORDINATE SYSTEM
LATI  .             -16.65267861111                     : LATITUDE
LONG  .             154.43955                           : LONGITUDE
GDAT  .                                                 : GEODETIC DATUM

~TOPS_PARAMETER 
#MNEM.UNIT                    VALUE                        DESCRIPTION
#--------------- ---         ------------                 -----------------

~TOPS_DEFINITION 
#MNEM.UNIT                 LOG CODE                  CURVE DESCRIPTION
#----------- ----         ------------              -----------------
DEPTH       .M                                      :     {F}
TOPS        .                                       : Formation Tops    {S24}

~TOPS_DATA | TOPS_DEFINITION
        4.6619,Doyles Creek Subgroup   
      435.4607,Horseshoe Creek Subgroup
      514.1221,Apple Tree Flat Subgroup
      732.2914,Watts Sandstone         
      743.8090,Denman Fm               
      881.1697,Mt Leonard Fm           
     1001.4479,Althorpe Fm             
     1015.4708,Malabar Fm              
     1056.3090,Mt Ogilvie Fm           
     1104.1063,Milbrodale Fm           
     1133.5950,Mt Thorley Fm           
     1213.0118,Burnamwood Fm           
     1298.6164,Archerfield Sandstone   
     1324.9931,Mulbring Siltstone      
     1401.3447,Muree Sandstone         
     1498.8386,Branxton Fm             
     1548.1308,Greta Coal Measures     
     1583.3733,DALWOOD GROUP           
     1644.8905,                        

~PARAMETER 
#MNEM.UNIT                    VALUE                        DESCRIPTION
#--------------- ---         ------------                 -----------------

~CURVE 
#MNEM.UNIT                 LOG CODE                  CURVE DESCRIPTION
#----------- ----         ------------              -----------------
DEPTH       .M                                      : DEPTH    {F}
DT          .US/F                                   : Sonic    {F}
GR          .GAPI                                   : Gamma Ray    {F}
LLD         .OHMM                                   : LLD Resistivity    {F}
LLS         .OHMM                                   : LLS Resistivity    {F}
NPHI        .V/V                                    : Neutron Porosity    {F}
RHOB        .K/M3                                   : Offset applied to log data.    {F}

~ASCII | CURVE 
# ...
    1439.87520,       81.7500,       62.3035,       27.6626,        9.5158,        0.1816,     2351.1240
    1440.02760,       81.9538,       57.2606,       27.4684,        9.6020,        0.1908,     2338.4240
    1440.18000,       82.2070,       49.1380,       25.7510,        9.4080,        0.1960,     2321.4240
    1440.33240,       81.9910,       46.5020,       24.9790,        9.1140,        0.1880,     2312.4240
    1440.48480,       81.6570,       44.5860,       25.1060,        9.1110,        0.1800,     2307.4240
    1440.63720,       81.3320,       41.5940,       25.0190,        9.1700,        0.1760,     2298.4240
    1440.78960,       81.0450,       40.4090,       25.5680,        9.2840,        0.1770,     2296.4240
    1440.94200,       80.5630,       42.3610,       26.1730,        9.2890,        0.1750,     2308.4240
    1441.09440,       80.2610,       45.6490,       25.1940,        8.9490,        0.1690,     2329.4240
    1441.24680,       80.1140,       48.3720,       23.0140,        8.5420,        0.1600,     2345.4240
    1441.39920,       80.0600,       49.2670,       20.5290,        8.1330,        0.1550,     2349.4240
    1441.55160,       79.9590,       49.4030,       19.3360,        7.8340,        0.1580,     2345.4240
    1441.70400,       79.7600,       48.9110,       20.1780,        7.9810,        0.1640,     2342.4240
    1441.85640,       79.6540,       49.5510,       22.4350,        8.5770,        0.1680,     2342.4240
    1442.00880,       79.8020,       51.9770,       25.2840,        9.3720,        0.1670,     2343.4240
    1442.16120,       80.6230,       55.6870,       26.8210,        9.6130,        0.1640,     2341.4240
    1442.31360,       82.2040,       56.3390,       25.9640,        9.0180,        0.1650,     2326.4240
    1442.46600,       83.8280,       51.4070,       24.2290,        8.3090,        0.1690,     2300.4240
    1442.61840,       84.5820,       43.5910,       22.6020,        7.8170,        0.1770,     2275.4240
    1442.77080,       84.4760,       38.3650,       21.5250,        7.5670,        0.1850,     2262.4240
    1442.92320,       83.5410,       37.9920,       22.1370,        7.8760,        0.1900,     2264.4240
    1443.07560,       82.1890,       39.9220,       24.3280,        8.6310,        0.1900,     2277.4240
    1443.22800,       81.3110,       41.1890,       26.4610,        9.1170,        0.1840,     2292.4240
    1443.38040,       80.8480,       40.6360,       27.7500,        9.1420,        0.1740,     2302.4240
    1443.53280,       80.7510,       39.3730,       28.0840,        8.9800,        0.1670,     2305.4240
    1443.68520,       80.9220,       38.3190,       27.1350,        8.5420,        0.1630,     2307.4240
    1443.83760,       80.9680,       38.2440,       26.1100,        8.0360,        0.1650,     2309.4240
    1443.99000,       80.9000,       37.9570,       25.8450,        7.8470,        0.1660,     2307.4240
    1444.14240,       80.9060,       38.9260,       25.8630,        7.9850,        0.1660,     2303.4240
    1444.29480,       81.0050,       42.4710,       25.6930,        8.1230,        0.1650,     2302.4240
    1444.44720,       81.0720,       46.1140,       25.1160,        8.0840,        0.1680,     2306.4240
    1444.59960,       81.1080,       48.7470,       24.8110,        8.1020,        0.1730,     2313.4240
    1444.75200,       81.3330,       50.5240,       24.6480,        8.0820,        0.1750,     2320.4240
    1444.90440,       81.5040,       51.9870,       25.3090,        8.0020,        0.1690,     2329.4240
    1445.05680,       81.6030,       54.1680,       26.1010,        7.8380,        0.1620,     2330.4240
    1445.20920,       81.6490,       54.7130,       26.3860,        7.7790,        0.1600,     2331.4240
    1445.36160,       81.6840,       55.0170,       25.8980,        7.7350,        0.1650,     2327.4240
    1445.51400,       81.4940,       54.4890,       24.1250,        7.4200,        0.1670,     2332.4240
    1445.66640,       81.0810,       53.2090,       23.6140,        7.3800,        0.1650,     2331.4240
    1445.81880,       80.0190,       56.1920,       24.7310,        7.7160,        0.1610,     2334.4240
    1445.97120,       79.1480,       55.3560,       26.4530,        7.9830,        0.1630,     2349.4240
    1446.12360,       79.0760,       54.6520,       28.0100,        7.9890,        0.1630,     2355.4240
    1446.27600,       78.9340,       49.8300,       28.7350,        8.0250,        0.1630,     2348.4240
    1446.42840,       79.1400,       47.0100,       28.0470,        7.8620,        0.1600,     2336.4240
    1446.58080,       79.3800,       44.8860,       27.2630,        7.5790,        0.1550,     2337.4240
    1446.73320,       78.7720,       42.3000,       27.3080,        7.5030,        0.1570,     2351.4240
    1446.88560,       79.4720,       43.5280,       27.8690,        7.6180,        0.1730,     2340.4240
    1447.03800,       80.0110,       45.4780,       28.0540,        7.7560,        0.1770,     2333.4240
    1447.19040,       80.7380,       46.7590,       28.0300,        7.8800,        0.1750,     2324.4240
    1447.34280,       81.3360,       46.4490,       28.8450,        8.1450,        0.1610,     2322.4240
    1447.49520,       80.8830,       47.2500,       29.3430,        8.4440,        0.1600,     2322.4240
    1447.64760,       80.5060,       44.6700,       30.5940,        8.8900,        0.1600,     2324.4240
    1447.80000,       80.0100,       43.9510,       32.3230,        9.5360,        0.1570,     2341.4240
    1447.95240,       79.2720,       41.4180,       32.8310,        9.8440,        0.1560,     2337.4240
    1448.10480,       79.0240,       42.6890,       33.1930,       10.1320,        0.1600,     2327.4240
    1448.25720,       79.4600,       38.4050,       33.7240,       10.3910,        0.1640,     2306.4240
    1448.40960,       79.2570,       34.0420,       34.3750,       10.6540,        0.1650,     2294.4240
    1448.56200,       79.0300,       30.6090,       34.8810,       11.4420,        0.1650,     2279.4240
    1448.71440,       79.1120,       30.3580,       32.1960,       12.0150,        0.1620,     2272.4240
    1448.86680,       79.0850,       30.8500,       25.6250,       11.2810,        0.1630,     2271.4240
    1449.01920,       78.5000,       31.8880,       20.3050,        9.8370,        0.1590,     2272.4240
    1449.17160,       76.6390,       33.6250,       19.0900,        9.3010,        0.1550,     2303.4240
    1449.32400,       74.9870,       34.9770,       21.0750,        9.6700,        0.1400,     2348.4240
    1449.47640,       73.6980,       38.5590,       25.3600,       10.4560,        0.1190,     2398.4240
    1449.62880,       72.9130,       44.4080,       31.1800,       12.3580,        0.1020,     2416.4240
    1449.78120,       74.0090,       50.4090,       33.0180,       14.2720,        0.1040,     2418.4240
    1449.93360,       74.9270,       58.0950,       30.2240,       14.2700,        0.1190,     2414.4240
    1450.08600,       76.0170,       60.2020,       26.9820,       13.2180,        0.1330,     2409.4240
    1450.23840,       76.9890,       60.5270,       24.0670,       12.0040,        0.1410,     2393.4240
    1450.39080,       77.6920,       55.9410,       22.1830,       11.1810,        0.1500,     2374.4240
    1450.54320,       78.4920,       55.6480,       20.9290,       10.5150,        0.1570,     2357.4240
    1450.69560,       78.8550,       58.8800,       19.9570,        9.8740,        0.1590,     2349.4240
    1450.84800,       79.4170,       59.2500,       19.5290,        9.4430,        0.1600,     2348.4240
    1451.00040,       80.2840,       57.2300,       18.5180,        8.7710,        0.1640,     2346.4240
    1451.15280,       80.5740,       54.1540,       17.5770,        8.1290,        0.1700,     2340.4240
    1451.30520,       79.9080,       55.4120,       18.3000,        8.1000,        0.1700,     2342.4240
    1451.45760,       78.9440,       59.8610,       20.0890,        8.4240,        0.1650,     2351.4240
