~Version
VERS  .             3.0                                 : CWLS LOG ASCII STANDARD - VERSION 3.0
WRAP  .             NO                                  : One line per depth step
DLM   .             COMMA                               : Delimiter character between data columns
#Delimiting character ( SPACE TAB OR COMMA ).

~Well
#MNEM.UNIT          DATA                                DESCRIPTION
#----- ----        -----------------                   -----------
STRT  .M                  8.22960                       : FIRST INDEX VALUE
STOP  .M               1654.30200                       : LAST INDEX VALUE
STEP  .M                  0.15240                       : STEP OF INDEX
NULL  .             -999.25                             : NULL VALUE
COMP  .                                                 : COMPANY
WELL  .             ATLAS                               : WELL
FLD   .                                                 : FIELD
LOC   .                                                 : LOCATION
SRVC  .                                                 : SERVICE COMPANY
CTRY  .                                                 : COUNTRY
PROV  .                                                 : PROVINCE
UWI   .                                                 : UNIQUE WELL ID
LIC   .                                                 : LICENSE NUMBER
STAT  .                                                 : STATE
CNTY  .                                                 : COUNTY
API   .                                                 : API NUMBER
DATE  .                                                 : LOG DATE
X     .             653523.9460707                      : X OR EAST-WEST COORDINATE
Y     .             8158307.615707                      : Y OR NORTH-SOUTH COORDINATE
HZCS  .                                                 : HORIZONTAL CO-ORDINATE SYSTEM
LATI  .             -16.65267861111                     : LATITUDE
LONG  .             154.43955                           : LONGITUDE
GDAT  .                                                 : GEODETIC DATUM

~TOPS_PARAMETER 
#MNEM.UNIT                    VALUE                        DESCRIPTION
#--------------- ---         ------------                 -----------------

~TOPS_DEFINITION 
#MNEM.UNIT                 LOG CODE                  CURVE DESCRIPTION
#----------- ----         ------------              -----------------
DEPTH       .M                                      :     {F}
TOPS        .                                       : Formation Tops    {S24}

~TOPS_DATA | TOPS_DEFINITION
        4.6619,Doyles Creek Subgroup   
      435.4607,Horseshoe Creek Subgroup
      514.1221,Apple Tree Flat Subgroup
      732.2914,Watts Sandstone         
      743.8090,Denman Fm               
      881.1697,Mt Leonard Fm           
     1001.4479,Althorpe Fm             
     1015.4708,Malabar Fm              
     1056.3090,Mt Ogilvie Fm           
     1104.1063,Milbrodale Fm           
     1133.5950,Mt Thorley Fm           
     1213.0118,Burnamwood Fm           
     1298.6164,Archerfield Sandstone   
     1324.9931,Mulbring Siltstone      
     1401.3447,Muree Sandstone         
     1498.8386,Branxton Fm             
     1548.1308,Greta Coal Measures     
     1583.3733,DALWOOD GROUP           
     1644.8905,                        

~PARAMETER 
#MNEM.UNIT                    VALUE                        DESCRIPTION
#--------------- ---         ------------                 -----------------

~CURVE 
#MNEM.UNIT                 LOG CODE                  CURVE DESCRIPTION
#----------- ----         ------------              -----------------
DEPTH       .M                                      : DEPTH    {F}
DT          .US/F                                   : Sonic    {F}
GR          .GAPI                                   : Gamma Ray    {F}
LLD         .OHMM                                   : LLD Resistivity    {F}
LLS         .OHMM                                   : LLS Resistivity    {F}
NPHI        .V/V                                    : Neutron Porosity    {F}
RHOB        .K/M3                                   : Offset applied to log data.    {F}

~ASCII | CURVE 
# ...
    1545.48840,       80.0688,      126.0130,        9.9345,       10.1336,        0.1817,     2559.0230
    1545.64080,       80.2363,      120.1290,        9.9762,       10.3170,        0.1736,     2595.3230
    1545.79320,       81.2812,      117.2990,        9.5665,       10.0021,        0.1796,     2629.6240
    1545.94560,       82.1960,      119.0300,        9.1222,        9.5861,        0.1948,     2647.7240
    1546.09800,       81.7698,      120.6840,        9.1728,        9.6437,        0.2084,     2645.8240
    1546.25040,       80.1477,      118.8620,        9.7901,       10.2897,        0.2113,     2626.6240
    1546.40280,       77.7815,      110.8890,       10.6208,       11.1191,        0.2026,     2592.7240
    1546.55520,       75.3294,       98.0755,       10.6152,       11.0948,        0.1863,     2548.3230
    1546.70760,       73.4429,       83.7722,        9.7256,       10.1535,        0.1682,     2501.8230
    1546.86000,       71.6525,       70.4511,        9.3401,        9.6383,        0.1452,     2467.8240
    1547.01240,       69.6222,       60.9131,       10.1870,       10.2232,        0.1130,     2458.0230
    1547.16480,       67.3790,       55.1806,       14.5751,       13.8728,        0.0758,     2469.6240
    1547.31720,       66.4581,       55.9512,       21.3326,       20.4507,        0.0463,     2495.2240
    1547.46960,       69.5865,       69.4559,       21.7720,       21.8053,        0.0376,     2523.6240
    1547.62200,       74.9939,       95.5209,       15.5039,       16.2564,        0.0616,     2547.3240
    1547.77440,       79.8732,      124.8480,       10.2753,       11.2062,        0.1153,     2564.3230
    1547.92680,       84.1171,      147.3140,        7.8747,        8.7531,        0.1743,     2573.5240
    1548.07920,       85.5032,      156.0060,        7.3562,        8.1517,        0.2163,     2579.1240
    1548.23160,       83.4028,      147.2050,        7.9436,        8.7727,        0.2333,     2573.8240
    1548.38400,       80.3733,      125.7830,        8.9581,        9.8115,        0.2286,     2554.4240
    1548.53640,       77.3028,      102.4380,       10.5841,       11.3082,        0.2016,     2531.4240
    1548.68880,       74.7618,       86.2166,       12.1616,       12.6971,        0.1655,     2518.7240
    1548.84120,       74.0351,       81.1679,       12.3715,       12.8173,        0.1404,     2517.1240
    1548.99360,       74.8253,       85.9177,       11.7856,       12.1757,        0.1365,     2521.9240
    1549.14600,       75.2695,       98.8552,       11.2442,       11.5706,        0.1423,     2527.2240
    1549.29840,       74.9943,      110.0590,       11.4158,       11.6363,        0.1448,     2529.2240
    1549.45080,       74.6678,      108.6420,       11.9363,       12.0571,        0.1450,     2529.4240
    1549.60320,       74.7039,       99.1359,       12.1081,       12.1151,        0.1450,     2529.4240
    1549.75560,       74.8939,       90.5251,       11.9448,       11.8817,        0.1465,     2532.4240
    1549.90800,       75.7511,       95.3090,       11.3978,       11.3356,        0.1546,     2545.6240
    1550.06040,       77.1223,      104.5700,       10.7684,       10.7257,        0.1608,     2560.9240
    1550.21280,       77.2935,      108.5080,       10.4394,       10.4014,        0.1612,     2567.5240
    1550.36520,       77.6376,      106.2880,       10.2159,       10.1594,        0.1625,     2562.2240
    1550.51760,       78.1959,      103.7870,        9.9061,        9.8665,        0.1684,     2546.5230
    1550.67000,       78.4640,      109.5000,        9.6102,        9.6005,        0.1739,     2528.4240
    1550.82240,       78.2243,      116.0160,        9.5275,        9.5308,        0.1758,     2518.9240
    1550.97480,       78.5742,      120.8340,        9.5580,        9.4981,        0.1807,     2509.6240
    1551.12720,       78.3577,      122.4720,        9.6378,        9.5088,        0.1851,     2505.8230
    1551.27960,       77.4464,      123.1180,        9.7491,        9.6053,        0.1876,     2503.0240
    1551.43200,       77.1113,      123.7280,        9.9714,        9.7848,        0.1825,     2505.6240
    1551.58440,       76.9518,      120.9050,       10.2476,       10.0543,        0.1731,     2510.4240
    1551.73680,       77.0261,      115.0100,       10.4937,       10.2889,        0.1758,     2518.6240
    1551.88920,       76.7185,      114.4300,       10.7516,       10.5061,        0.1794,     2529.2240
    1552.04160,       76.0290,      110.3720,       11.0674,       10.7052,        0.1848,     2531.4240
    1552.19400,       74.7586,      104.6390,       11.6578,       11.2166,        0.1788,     2528.2240
    1552.34640,       73.3318,       93.1609,       12.7973,       12.2909,        0.1697,     2519.3230
    1552.49880,       72.2573,       87.5346,       14.1763,       13.5676,        0.1632,     2507.7230
    1552.65120,       71.8751,       88.4801,       14.7702,       14.1127,        0.1604,     2502.2240
    1552.80360,       72.2828,       93.5367,       14.1437,       13.6813,        0.1567,     2493.3230
    1552.95600,       73.3083,      102.2280,       13.1512,       12.8764,        0.1438,     2487.3240
    1553.10840,       73.7476,      103.3230,       12.4975,       12.2856,        0.1279,     2483.1240
    1553.26080,       73.6232,      100.1020,       12.2790,       12.0855,        0.1135,     2489.8230
    1553.41320,       73.3798,       95.3307,       12.0603,       11.9476,        0.1069,     2498.0240
    1553.56560,       73.2046,       98.4477,       11.9363,       11.9007,        0.1093,     2506.8230
    1553.71800,       73.4845,      104.0990,       11.5592,       11.5860,        0.1191,     2517.5240
    1553.87040,       74.3353,      110.5020,       11.0577,       11.1280,        0.1260,     2521.1240
    1554.02280,       75.0591,      116.1080,       10.6789,       10.7651,        0.1253,     2524.7230
    1554.17520,       75.5870,      118.1140,       10.0686,       10.1909,        0.1217,     2526.2240
    1554.32760,       75.2835,      115.7100,        9.8527,        9.9557,        0.1202,     2534.8230
    1554.48000,       74.3733,      110.7740,       10.0929,       10.1682,        0.1225,     2550.7230
    1554.63240,       73.6144,      109.3820,       10.5417,       10.6051,        0.1255,     2567.8230
    1554.78480,       73.4116,      111.0560,       10.7862,       10.8821,        0.1311,     2580.6240
    1554.93720,       74.0695,      116.7790,       10.4104,       10.5651,        0.1448,     2601.1240
    1555.08960,       75.1758,      125.3410,        9.8728,       10.0538,        0.1623,     2618.0240
    1555.24200,       76.0296,      133.5550,        9.4858,        9.6869,        0.1718,     2625.5230
    1555.39440,       76.1965,      139.6780,        9.4211,        9.5874,        0.1670,     2625.5230
    1555.54680,       75.8348,      139.9060,        9.6566,        9.7460,        0.1539,     2619.4240
    1555.69920,       75.7465,      136.6730,        9.8815,        9.9267,        0.1468,     2609.8240
    1555.85160,       75.6745,      133.0850,       10.1145,       10.1311,        0.1495,     2600.6240
    1556.00400,       75.0804,      132.0480,       10.4638,       10.4664,        0.1552,     2594.2240
    1556.15640,       74.0900,      131.3260,       11.0040,       10.9630,        0.1570,     2588.4240
    1556.30880,       73.4850,      126.5770,       11.5040,       11.4120,        0.1530,     2586.4240
    1556.46120,       73.3490,      119.9730,       11.6800,       11.5880,        0.1470,     2584.4240
    1556.61360,       73.6010,      118.7120,       11.5000,       11.4210,        0.1380,     2579.4240
    1556.76600,       74.3460,      125.1070,       11.0210,       11.0150,        0.1300,     2568.4240
    1556.91840,       76.0500,      132.9520,       10.1500,       10.2330,        0.1250,     2557.4240
    1557.07080,       78.2740,      138.6460,        9.0940,        9.2040,        0.1210,     2551.4240
