~Version
VERS  .             3.0                                 : CWLS LOG ASCII STANDARD - VERSION 3.0
WRAP  .             NO                                  : One line per depth step
DLM   .             COMMA                               : Delimiter character between data columns
#Delimiting character ( SPACE TAB OR COMMA ).

~Well
#MNEM.UNIT          DATA                                DESCRIPTION
#----- ----        -----------------                   -----------
STRT  .M                  8.22960                       : FIRST INDEX VALUE
STOP  .M               1654.30200                       : LAST INDEX VALUE
STEP  .M                  0.15240                       : STEP OF INDEX
NULL  .             -999.25                             : NULL VALUE
COMP  .                                                 : COMPANY
WELL  .             ATLAS                               : WELL
FLD   .                                                 : FIELD
LOC   .                                                 : LOCATION
SRVC  .                                                 : SERVICE COMPANY
CTRY  .                                                 : COUNTRY
PROV  .                                                 : PROVINCE
UWI   .                                                 : UNIQUE WELL ID
LIC   .                                                 : LICENSE NUMBER
STAT  .                                                 : STATE
CNTY  .                                                 : COUNTY
API   .                                                 : API NUMBER
DATE  .                                                 : LOG DATE
X     .             653523.9460707                      : X OR EAST-WEST COORDINATE
Y     .             8158307.615707                      : Y OR NORTH-SOUTH COORDINATE
HZCS  .                                                 : HORIZONTAL CO-ORDINATE SYSTEM
LATI  .             -16.65267861111                     : LATITUDE
LONG  .             154.43955                           : LONGITUDE
GDAT  .                                                 : GEODETIC DATUM

~TOPS_PARAMETER 
#MNEM.UNIT                    VALUE                        DESCRIPTION
#--------------- ---         ------------                 -----------------

~TOPS_DEFINITION 
#MNEM.UNIT                 LOG CODE                  CURVE DESCRIPTION
#----------- ----         ------------              -----------------
DEPTH       .M                                      :     {F}
TOPS        .                                       : Formation Tops    {S24}

~TOPS_DATA | TOPS_DEFINITION
        4.6619,Doyles Creek Subgroup   
      435.4607,Horseshoe Creek Subgroup
      514.1221,Apple Tree Flat Subgroup
      732.2914,Watts Sandstone         
      743.8090,Denman Fm               
      881.1697,Mt Leonard Fm           
     1001.4479,Althorpe Fm             
     1015.4708,Malabar Fm              
     1056.3090,Mt Ogilvie Fm           
     1104.1063,Milbrodale Fm           
     1133.5950,Mt Thorley Fm           
     1213.0118,Burnamwood Fm           
     1298.6164,Archerfield Sandstone   
     1324.9931,Mulbring Siltstone      
     1401.3447,Muree Sandstone         
     1498.8386,Branxton Fm             
     1548.1308,Greta Coal Measures     
     1583.3733,DALWOOD GROUP           
     1644.8905,                        

~PARAMETER 
#MNEM.UNIT                    VALUE                        DESCRIPTION
#--------------- ---         ------------                 -----------------

~CURVE 
#MNEM.UNIT                 LOG CODE                  CURVE DESCRIPTION
#----------- ----         ------------              -----------------
DEPTH       .M                                      : DEPTH    {F}
DT          .US/F                                   : Sonic    {F}
GR          .GAPI                                   : Gamma Ray    {F}
LLD         .OHMM                                   : LLD Resistivity    {F}
LLS         .OHMM                                   : LLS Resistivity    {F}
NPHI        .V/V                                    : Neutron Porosity    {F}
RHOB        .K/M3                                   : Offset applied to log data.    {F}

~ASCII | CURVE 
# ...
    1158.24000,       88.7880,       71.9770,        7.2760,        5.2540,        0.2390,     2354.4240
    1158.39240,       88.2590,       78.3990,        7.7400,        5.5760,        0.2300,     2387.4240
    1158.54480,       87.8410,       86.1310,        9.0070,        6.5010,        0.2260,     2419.4240
    1158.69720,       87.9470,       88.0740,        9.4500,        6.9850,        0.2290,     2426.4240
    1158.84960,       88.8870,       87.0100,        8.3880,        6.3560,        0.2390,     2407.4240
    1159.00200,       89.7460,       84.0080,        7.1580,        5.5330,        0.2490,     2378.4240
    1159.15440,       89.7820,       82.9060,        6.5820,        5.1740,        0.2540,     2361.4240
    1159.30680,       89.2700,       82.8840,        6.4620,        5.0870,        0.2450,     2364.4240
    1159.45920,       88.9160,       84.9570,        6.3990,        5.0410,        0.2320,     2374.4240
    1159.61160,       89.3800,       85.5000,        6.1640,        4.8780,        0.2300,     2369.4240
    1159.76400,       90.1640,       82.2910,        5.9810,        4.7860,        0.2400,     2347.4240
    1159.91640,       91.7580,       82.8880,        6.0310,        4.8360,        0.2530,     2353.4240
    1160.06880,       92.8570,       92.3590,        6.4470,        5.0920,        0.2620,     2390.4240
    1160.22120,       94.4100,      107.3530,        7.2640,        5.7190,        0.2720,     2450.4240
    1160.37360,       94.6290,      115.8280,        7.5330,        6.0290,        0.2840,     2469.4240
    1160.52600,       94.9010,      116.6720,        7.3320,        5.9120,        0.2990,     2470.4240
    1160.67840,       94.7520,      112.1690,        7.2840,        5.8040,        0.3090,     2456.4240
    1160.83080,       93.5700,      108.1400,        7.5150,        5.8620,        0.3090,     2443.4240
    1160.98320,       92.0930,      103.5380,        7.6910,        5.9320,        0.3060,     2429.4240
    1161.13560,       90.6840,       96.4510,        8.0420,        6.0740,        0.2970,     2407.4240
    1161.28800,       90.2320,       93.9670,        8.5880,        6.2070,        0.2930,     2384.4240
    1161.44040,       89.4470,       85.7200,        8.2810,        5.7410,        0.2870,     2343.4240
    1161.59280,       88.8100,       81.0060,        8.1320,        5.4570,        0.2730,     2312.4240
    1161.74520,       88.6260,       74.2160,        7.8460,        5.2420,        0.2700,     2289.4240
    1161.89760,       88.0510,       73.2290,        7.3370,        4.8630,        0.2630,     2286.4240
    1162.05000,       88.4600,       77.5570,        7.7120,        5.0320,        0.2590,     2279.4240
    1162.20240,       88.3850,       74.6650,        8.3480,        5.3130,        0.2500,     2288.4240
    1162.35480,       88.8330,       71.1740,        8.8580,        5.4920,        0.2480,     2285.4240
    1162.50720,       88.9880,       70.7080,        9.3210,        5.5780,        0.2390,     2294.4240
    1162.65960,       88.4310,       70.6890,        9.6950,        5.6510,        0.2450,     2294.4240
    1162.81200,       88.8270,       71.9320,        9.8580,        5.6260,        0.2350,     2305.4240
    1162.96440,       88.2040,       68.4390,        9.7600,        5.5150,        0.2410,     2313.4240
    1163.11680,       88.0100,       68.3810,        9.7560,        5.4720,        0.2410,     2319.4240
    1163.26920,       87.7880,       72.4650,        9.8390,        5.5390,        0.2430,     2331.4240
    1163.42160,       87.8450,       74.0120,       10.0830,        5.5850,        0.2380,     2343.4240
    1163.57400,       87.6790,       72.8470,       10.2910,        5.6250,        0.2280,     2339.4240
    1163.72640,       87.8480,       69.5990,       10.2410,        5.6010,        0.2210,     2330.4240
    1163.87880,       88.0610,       67.1470,       10.0500,        5.4940,        0.2200,     2328.4240
    1164.03120,       87.9340,       67.9450,       10.0760,        5.5050,        0.2200,     2328.4240
    1164.18360,       87.9190,       69.4420,       10.3500,        5.6010,        0.2170,     2334.4240
    1164.33600,       87.4860,       70.3110,       10.6020,        5.6910,        0.2240,     2349.4240
    1164.48840,       87.1420,       70.1390,       10.9900,        5.8780,        0.2300,     2365.4240
    1164.64080,       86.8380,       70.1360,       11.3630,        6.1230,        0.2340,     2372.4240
    1164.79320,       86.7800,       68.8640,       11.7360,        6.2600,        0.2270,     2363.4240
    1164.94560,       86.9520,       67.0830,       12.1130,        6.3210,        0.2180,     2359.4240
    1165.09800,       87.2070,       61.9770,       11.8160,        6.1190,        0.2170,     2346.4240
    1165.25040,       87.9330,       55.9160,       11.0250,        5.7620,        0.2230,     2326.4240
    1165.40280,       88.9890,       50.7900,        9.9250,        5.2500,        0.2300,     2296.4240
    1165.55520,       89.7510,       46.4090,        9.2400,        5.0130,        0.2330,     2272.4240
    1165.70760,       90.0280,       45.0770,        9.4780,        5.2630,        0.2270,     2257.4240
    1165.86000,       89.5522,       45.8537,       10.2246,        5.6775,        0.2217,     2253.1240
    1166.01240,       89.0087,       48.5580,       10.7178,        5.8565,        0.2197,     2258.1240
    1166.16480,       88.7519,       50.2110,       10.6834,        5.7761,        0.2181,     2262.5240
    1166.31720,       88.6324,       50.6959,       10.3684,        5.5832,        0.2190,     2263.8240
    1166.46960,       88.5702,       51.6264,       10.1952,        5.3773,        0.2197,     2267.7230
    1166.62200,       88.6503,       54.4195,       10.1725,        5.2085,        0.2256,     2276.7240
    1166.77440,       88.7958,       58.7622,       10.4252,        5.2613,        0.2365,     2285.4240
    1166.92680,       88.7654,       62.7292,       10.6072,        5.4099,        0.2457,     2292.6240
    1167.07920,       88.3985,       64.1925,       10.4046,        5.4094,        0.2489,     2301.1240
    1167.23160,       87.7130,       62.6531,       10.6119,        5.5675,        0.2413,     2312.6240
    1167.38400,       86.9945,       60.6796,       11.2210,        5.9299,        0.2304,     2325.8230
    1167.53640,       86.7754,       59.6378,       11.4445,        6.0752,        0.2212,     2333.2240
    1167.68880,       87.2395,       58.3203,       11.3530,        6.0786,        0.2167,     2330.1240
    1167.84120,       87.9787,       55.5867,       10.8846,        5.9784,        0.2148,     2314.8230
    1167.99360,       88.6402,       53.0453,       10.0144,        5.6183,        0.2138,     2292.9240
    1168.14600,       89.1696,       52.1740,        9.3154,        5.2403,        0.2137,     2272.5240
    1168.29840,       89.7997,       52.6757,        9.1385,        5.0973,        0.2182,     2255.1240
    1168.45080,       90.8130,       55.0149,        9.6306,        5.2852,        0.2263,     2236.2240
    1168.60320,       91.7770,       60.1195,       10.6201,        5.6901,        0.2406,     2221.2240
    1168.75560,       91.7585,       65.8744,       11.7083,        6.1785,        0.2610,     2224.6240
    1168.90800,       90.7839,       68.8706,       12.2057,        6.5807,        0.2807,     2249.3230
    1169.06040,       89.5592,       67.6964,       11.5994,        6.5378,        0.2850,     2278.6240
    1169.21280,       89.3598,       65.0877,       11.1544,        6.3900,        0.2680,     2289.6240
    1169.36520,       90.8751,       64.0336,       11.7898,        6.4581,        0.2510,     2272.0240
    1169.51760,       92.2884,       66.6930,       12.7021,        6.4481,        0.2537,     2245.9240
    1169.67000,       92.7248,       68.1690,       12.6579,        6.1929,        0.2652,     2232.0240
    1169.82240,       92.2652,       64.7294,       11.3858,        5.8128,        0.2626,     2235.8230
