~Version
VERS  .             3.0                                 : CWLS LOG ASCII STANDARD - VERSION 3.0
WRAP  .             NO                                  : One line per depth step
DLM   .             COMMA                               : Delimiter character between data columns
#Delimiting character ( SPACE TAB OR COMMA ).

~Well
#MNEM.UNIT          DATA                                DESCRIPTION
#----- ----        -----------------                   -----------
STRT  .M                  8.22960                       : FIRST INDEX VALUE
STOP  .M               1654.30200                       : LAST INDEX VALUE
STEP  .M                  0.15240                       : STEP OF INDEX
NULL  .             -999.25                             : NULL VALUE
COMP  .                                                 : COMPANY
WELL  .             ATLAS                               : WELL
FLD   .                                                 : FIELD
LOC   .                                                 : LOCATION
SRVC  .                                                 : SERVICE COMPANY
CTRY  .                                                 : COUNTRY
PROV  .                                                 : PROVINCE
UWI   .                                                 : UNIQUE WELL ID
LIC   .                                                 : LICENSE NUMBER
STAT  .                                                 : STATE
CNTY  .                                                 : COUNTY
API   .                                                 : API NUMBER
DATE  .                                                 : LOG DATE
X     .             653523.9460707                      : X OR EAST-WEST COORDINATE
Y     .             8158307.615707                      : Y OR NORTH-SOUTH COORDINATE
HZCS  .                                                 : HORIZONTAL CO-ORDINATE SYSTEM
LATI  .             -16.65267861111                     : LATITUDE
LONG  .             154.43955                           : LONGITUDE
GDAT  .                                                 : GEODETIC DATUM

~TOPS_PARAMETER 
#MNEM.UNIT                    VALUE                        DESCRIPTION
#--------------- ---         ------------                 -----------------

~TOPS_DEFINITION 
#MNEM.UNIT                 LOG CODE                  CURVE DESCRIPTION
#----------- ----         ------------              -----------------
DEPTH       .M                                      :     {F}
TOPS        .                                       : Formation Tops    {S24}

~TOPS_DATA | TOPS_DEFINITION
        4.6619,Doyles Creek Subgroup   
      435.4607,Horseshoe Creek Subgroup
      514.1221,Apple Tree Flat Subgroup
      732.2914,Watts Sandstone         
      743.8090,Denman Fm               
      881.1697,Mt Leonard Fm           
     1001.4479,Althorpe Fm             
     1015.4708,Malabar Fm              
     1056.3090,Mt Ogilvie Fm           
     1104.1063,Milbrodale Fm           
     1133.5950,Mt Thorley Fm           
     1213.0118,Burnamwood Fm           
     1298.6164,Archerfield Sandstone   
     1324.9931,Mulbring Siltstone      
     1401.3447,Muree Sandstone         
     1498.8386,Branxton Fm             
     1548.1308,Greta Coal Measures     
     1583.3733,DALWOOD GROUP           
     1644.8905,                        

~PARAMETER 
#MNEM.UNIT                    VALUE                        DESCRIPTION
#--------------- ---         ------------                 -----------------

~CURVE 
#MNEM.UNIT                 LOG CODE                  CURVE DESCRIPTION
#----------- ----         ------------              -----------------
DEPTH       .M                                      : DEPTH    {F}
DT          .US/F                                   : Sonic    {F}
GR          .GAPI                                   : Gamma Ray    {F}
LLD         .OHMM                                   : LLD Resistivity    {F}
LLS         .OHMM                                   : LLS Resistivity    {F}
NPHI        .V/V                                    : Neutron Porosity    {F}
RHOB        .K/M3                                   : Offset applied to log data.    {F}

~ASCII | CURVE 
# ...
     958.74840,      115.7770,       64.8032,        1.4917,        1.6735,        0.3264,     2346.7230
     958.90080,      118.4270,       68.2561,        1.4109,        1.5866,        0.3379,     2340.3240
     959.05320,      119.5710,       71.5230,        1.3792,        1.5468,        0.3388,     2338.8230
     959.20560,      119.5740,       72.7766,        1.3713,        1.5426,        0.3347,     2341.8230
     959.35800,      119.8520,       71.8658,        1.3632,        1.5356,        0.3290,     2349.5230
     959.51040,      120.2420,       71.1516,        1.3716,        1.5294,        0.3266,     2356.8240
     959.66280,      120.3110,       73.1625,        1.4037,        1.5473,        0.3287,     2357.1240
     959.81520,      120.1980,       74.4571,        1.4269,        1.5707,        0.3403,     2349.7240
     959.96760,      120.1190,       71.7218,        1.4360,        1.5832,        0.3526,     2339.6240
     960.12000,      120.1210,       68.3868,        1.4361,        1.5922,        0.3589,     2336.0230
     960.27240,      119.9980,       68.7273,        1.4450,        1.6030,        0.3523,     2337.6240
     960.42480,      119.6910,       71.3248,        1.4583,        1.6051,        0.3402,     2339.0230
     960.57720,      119.2510,       70.8997,        1.4796,        1.6300,        0.3325,     2337.1240
     960.72960,      118.6680,       67.8984,        1.5179,        1.6785,        0.3282,     2337.2230
     960.88200,      117.6290,       67.4278,        1.5893,        1.7648,        0.3205,     2343.1240
     961.03440,      115.6500,       69.2223,        1.6736,        1.8582,        0.3035,     2349.4240
     961.18680,      113.7540,       69.6876,        1.6970,        1.8701,        0.2872,     2350.8230
     961.33920,      113.7480,       67.4131,        1.6610,        1.8098,        0.2844,     2346.8240
     961.49160,      115.0280,       66.2105,        1.5880,        1.7223,        0.3005,     2339.0230
     961.64400,      116.7330,       67.1178,        1.5342,        1.6662,        0.3197,     2332.4240
     961.79640,      117.8290,       69.4686,        1.5664,        1.7123,        0.3357,     2332.8240
     961.94880,      117.4100,       67.9594,        1.6908,        1.8611,        0.3414,     2342.3230
     962.10120,      115.4190,       65.2681,        1.8789,        2.0761,        0.3392,     2367.0240
     962.25360,      111.6240,       63.1402,        2.0538,        2.2735,        0.3220,     2397.3230
     962.40600,      108.0230,       61.6534,        2.0771,        2.3171,        0.3009,     2409.0240
     962.55840,      107.5670,       58.6041,        1.9606,        2.2260,        0.2934,     2390.1240
     962.71080,      109.5580,       55.6850,        1.7833,        2.0399,        0.3055,     2362.2240
     962.86320,      113.5090,       57.0462,        1.6045,        1.8113,        0.3243,     2346.1240
     963.01560,      117.3870,       61.3950,        1.4995,        1.6734,        0.3360,     2341.1240
     963.16800,      119.2000,       65.0046,        1.4586,        1.6228,        0.3415,     2336.0230
     963.32040,      119.7290,       66.2495,        1.4369,        1.5989,        0.3411,     2330.9240
     963.47280,      119.9290,       67.5239,        1.4268,        1.5933,        0.3349,     2328.8230
     963.62520,      120.0620,       68.9135,        1.4346,        1.6004,        0.3262,     2331.0240
     963.77760,      120.1850,       67.9899,        1.4657,        1.6233,        0.3230,     2338.8230
     963.93000,      119.8930,       64.2152,        1.5077,        1.6649,        0.3269,     2347.6240
     964.08240,      119.1160,       59.4349,        1.5502,        1.7221,        0.3284,     2350.4240
     964.23480,      118.3480,       56.4847,        1.5949,        1.7797,        0.3241,     2348.5230
     964.38720,      117.7650,       56.4358,        1.6365,        1.8218,        0.3227,     2346.1240
     964.53960,      117.4710,       57.8652,        1.6749,        1.8530,        0.3263,     2344.1240
     964.69200,      117.2370,       58.8088,        1.7058,        1.8841,        0.3273,     2342.1240
     964.84440,      116.8670,       58.7252,        1.7361,        1.9128,        0.3217,     2340.1240
     964.99680,      116.8090,       60.2891,        1.7696,        1.9432,        0.3197,     2339.4240
     965.14920,      116.8460,       64.3228,        1.7797,        1.9607,        0.3307,     2338.7240
     965.30160,      116.9580,       67.9909,        1.7623,        1.9526,        0.3400,     2336.4240
     965.45400,      117.4810,       67.4322,        1.7399,        1.9336,        0.3373,     2333.4240
     965.60640,      118.1600,       64.0166,        1.7451,        1.9270,        0.3276,     2329.0230
     965.75880,      118.5200,       60.7415,        1.7726,        1.9446,        0.3247,     2326.0230
     965.91120,      118.3340,       58.5424,        1.8007,        1.9686,        0.3284,     2327.4240
     966.06360,      117.9540,       56.6789,        1.8185,        1.9855,        0.3286,     2334.5240
     966.21600,      117.7050,       56.8282,        1.8168,        1.9838,        0.3259,     2341.5240
     966.36840,      117.3560,       59.1811,        1.8044,        1.9741,        0.3236,     2342.7240
     966.52080,      117.1560,       60.8397,        1.7979,        1.9793,        0.3230,     2341.0240
     966.67320,      117.1970,       60.5197,        1.8018,        1.9941,        0.3188,     2341.8230
     966.82560,      117.0360,       61.1407,        1.8360,        2.0310,        0.3114,     2345.9240
     966.97800,      116.3620,       63.7921,        1.9149,        2.1015,        0.3083,     2346.7230
     967.13040,      115.0460,       65.4989,        1.9717,        2.1491,        0.3052,     2343.6240
     967.28280,      114.0390,       64.7739,        1.9496,        2.1400,        0.3012,     2337.5240
     967.43520,      113.9160,       63.3902,        1.8913,        2.0988,        0.2986,     2332.6240
     967.58760,      114.2370,       65.4667,        1.8249,        2.0241,        0.3001,     2329.3230
     967.74000,      115.2500,       66.4493,        1.7730,        1.9592,        0.3095,     2325.6240
     967.89240,      116.5210,       65.1202,        1.7586,        1.9394,        0.3159,     2325.1240
     968.04480,      117.0820,       61.0188,        1.7516,        1.9437,        0.3184,     2325.4240
     968.19720,      117.3330,       58.5704,        1.7440,        1.9467,        0.3240,     2327.6240
     968.34960,      117.2980,       58.0992,        1.7391,        1.9535,        0.3310,     2330.6240
     968.50200,      116.7790,       58.2025,        1.7633,        1.9676,        0.3381,     2335.7240
     968.65440,      115.5190,       58.9589,        1.7563,        1.9582,        0.3349,     2339.6240
     968.80680,      115.3090,       59.9314,        1.7019,        1.8918,        0.3315,     2343.3240
     968.95920,      115.8840,       63.4656,        1.6145,        1.8061,        0.3303,     2343.7230
     969.11160,      117.1180,       63.5294,        1.5515,        1.7235,        0.3337,     2339.7240
     969.26400,      118.5590,       66.8736,        1.5336,        1.6946,        0.3357,     2337.7240
     969.41640,      118.7530,       67.3494,        1.5727,        1.7297,        0.3286,     2332.2240
     969.56880,      118.5030,       70.9110,        1.6137,        1.7868,        0.3171,     2331.1240
     969.72120,      118.2570,       72.5370,        1.6349,        1.8102,        0.3125,     2324.7240
     969.87360,      118.0870,       72.8926,        1.6308,        1.8048,        0.3157,     2322.4240
     970.02600,      118.1160,       74.1993,        1.5958,        1.7788,        0.3297,     2317.9240
     970.17840,      117.8430,       72.8216,        1.5790,        1.7733,        0.3348,     2317.9240
     970.33080,      117.7100,       73.6197,        1.5853,        1.7884,        0.3350,     2322.2240
