~Version
VERS  .             3.0                                 : CWLS LOG ASCII STANDARD - VERSION 3.0
WRAP  .             NO                                  : One line per depth step
DLM   .             COMMA                               : Delimiter character between data columns
#Delimiting character ( SPACE TAB OR COMMA ).

~Well
#MNEM.UNIT          DATA                                DESCRIPTION
#----- ----        -----------------                   -----------
STRT  .M                  8.22960                       : FIRST INDEX VALUE
STOP  .M               1654.30200                       : LAST INDEX VALUE
STEP  .M                  0.15240                       : STEP OF INDEX
NULL  .             -999.25                             : NULL VALUE
COMP  .                                                 : COMPANY
WELL  .             ATLAS                               : WELL
FLD   .                                                 : FIELD
LOC   .                                                 : LOCATION
SRVC  .                                                 : SERVICE COMPANY
CTRY  .                                                 : COUNTRY
PROV  .                                                 : PROVINCE
UWI   .                                                 : UNIQUE WELL ID
LIC   .                                                 : LICENSE NUMBER
STAT  .                                                 : STATE
CNTY  .                                                 : COUNTY
API   .                                                 : API NUMBER
DATE  .                                                 : LOG DATE
X     .             653523.9460707                      : X OR EAST-WEST COORDINATE
Y     .             8158307.615707                      : Y OR NORTH-SOUTH COORDINATE
HZCS  .                                                 : HORIZONTAL CO-ORDINATE SYSTEM
LATI  .             -16.65267861111                     : LATITUDE
LONG  .             154.43955                           : LONGITUDE
GDAT  .                                                 : GEODETIC DATUM

~TOPS_PARAMETER 
#MNEM.UNIT                    VALUE                        DESCRIPTION
#--------------- ---         ------------                 -----------------

~TOPS_DEFINITION 
#MNEM.UNIT                 LOG CODE                  CURVE DESCRIPTION
#----------- ----         ------------              -----------------
DEPTH       .M                                      :     {F}
TOPS        .                                       : Formation Tops    {S24}

~TOPS_DATA | TOPS_DEFINITION
        4.6619,Doyles Creek Subgroup   
      435.4607,Horseshoe Creek Subgroup
      514.1221,Apple Tree Flat Subgroup
      732.2914,Watts Sandstone         
      743.8090,Denman Fm               
      881.1697,Mt Leonard Fm           
     1001.4479,Althorpe Fm             
     1015.4708,Malabar Fm              
     1056.3090,Mt Ogilvie Fm           
     1104.1063,Milbrodale Fm           
     1133.5950,Mt Thorley Fm           
     1213.0118,Burnamwood Fm           
     1298.6164,Archerfield Sandstone   
     1324.9931,Mulbring Siltstone      
     1401.3447,Muree Sandstone         
     1498.8386,Branxton Fm             
     1548.1308,Greta Coal Measures     
     1583.3733,DALWOOD GROUP           
     1644.8905,                        

~PARAMETER 
#MNEM.UNIT                    VALUE                        DESCRIPTION
#--------------- ---         ------------                 -----------------

~CURVE 
#MNEM.UNIT                 LOG CODE                  CURVE DESCRIPTION
#----------- ----         ------------              -----------------
DEPTH       .M                                      : DEPTH    {F}
DT          .US/F                                   : Sonic    {F}
GR          .GAPI                                   : Gamma Ray    {F}
LLD         .OHMM                                   : LLD Resistivity    {F}
LLS         .OHMM                                   : LLS Resistivity    {F}
NPHI        .V/V                                    : Neutron Porosity    {F}
RHOB        .K/M3                                   : Offset applied to log data.    {F}

~ASCII | CURVE 
# ...
     278.13000,      139.0050,       66.1712,        1.6909,        1.5536,        0.3850,     2106.2240
     278.28240,      139.5150,       63.5602,        1.5726,        1.4941,        0.4005,     2107.8230
     278.43480,      140.0530,       62.7897,        1.4997,        1.4539,        0.4292,     2109.2240
     278.58720,      140.2970,       63.2949,        1.4767,        1.4308,        0.4391,     2111.8230
     278.73960,      140.6380,       64.8816,        1.4821,        1.4229,        0.4213,     2113.2230
     278.89200,      140.7240,       64.5055,        1.5093,        1.4342,        0.4088,     2111.8230
     279.04440,      140.1530,       61.8266,        1.5306,        1.4468,        0.4127,     2110.6240
     279.19680,      140.1360,       59.2415,        1.5192,        1.4301,        0.4222,     2104.7240
     279.34920,      142.4720,       57.0026,        1.4427,        1.3502,        0.4191,     2074.6240
     279.50160,      146.9330,       55.8305,        1.3022,        1.2299,        0.4081,     2012.2240
     279.65400,      151.2770,       56.3198,        1.1948,        1.1508,        0.4168,     1958.1240
     279.80640,      150.3940,       59.3314,        1.1913,        1.1623,        0.4498,     1954.4240
     279.95880,      142.9700,       63.0313,        1.2958,        1.2721,        0.4869,     2004.6240
     280.11120,      134.9320,       64.4670,        1.4683,        1.4353,        0.4938,     2071.3230
     280.26360,      131.1320,       63.8720,        1.6256,        1.5654,        0.4671,     2109.3240
     280.41600,      132.3130,       62.7089,        1.6744,        1.6204,        0.4435,     2113.6240
     280.56840,      135.6730,       62.2553,        1.6309,        1.6050,        0.4366,     2105.0240
     280.72080,      137.7910,       62.4553,        1.5839,        1.5569,        0.4419,     2094.9240
     280.87320,      138.3260,       62.5289,        1.5710,        1.5192,        0.4362,     2085.7240
     281.02560,      137.7730,       62.2799,        1.5777,        1.5021,        0.4214,     2080.1240
     281.17800,      135.4000,       62.4644,        1.5739,        1.4914,        0.4104,     2083.7230
     281.33040,      129.4920,       62.9972,        1.6013,        1.5097,        0.4159,     2107.6240
     281.48280,      123.3330,       61.2811,        1.8384,        1.7049,        0.4377,     2164.8230
     281.63520,      115.3230,       55.9902,        2.3352,        2.1347,        0.4350,     2250.2240
     281.78760,      101.1730,       50.8106,        2.9231,        2.6274,        0.3812,     2336.8240
     281.94000,       96.6220,       49.5130,        3.3410,        3.0400,        0.2860,     2373.4240
     282.09240,      106.1130,       50.1020,        2.9310,        2.8690,        0.2410,     2309.4240
     282.24480,      116.2270,       50.6450,        2.1290,        2.1480,        0.2780,     2214.4240
     282.39720,      123.1830,       52.2330,        1.6910,        1.6870,        0.3550,     2145.4240
     282.54960,      129.0740,       55.8440,        1.5740,        1.5390,        0.4190,     2117.4240
     282.70200,      132.2630,       60.2790,        1.5570,        1.4920,        0.4400,     2115.4240
     282.85440,      130.5150,       64.1420,        1.5940,        1.5270,        0.4370,     2115.4240
     283.00680,      130.1740,       67.5000,        1.6530,        1.5980,        0.4240,     2122.4240
     283.15920,      130.9960,       66.0430,        1.6670,        1.6250,        0.4100,     2112.4240
     283.31160,      132.4590,       61.7360,        1.6660,        1.6480,        0.4040,     2096.4240
     283.46400,      134.8320,       59.0980,        1.7210,        1.7020,        0.3930,     2056.4240
     283.61640,      138.4910,       62.0010,        1.8500,        1.8050,        0.4150,     1989.4240
     283.76880,      139.0860,       65.1620,        1.9710,        1.9100,        0.4480,     1924.4240
     283.92120,      141.0000,       65.7160,        2.0280,        1.9450,        0.4930,     1903.4240
     284.07360,      144.6300,       64.3680,        1.8500,        1.7600,        0.4600,     1919.4240
     284.22600,      147.8120,       61.0820,        1.5310,        1.5090,        0.4380,     1971.4240
     284.37840,      146.9160,       59.3420,        1.3320,        1.3480,        0.4220,     2036.4240
     284.53080,      146.3860,       60.6400,        1.3290,        1.3080,        0.4520,     2093.4240
     284.68320,      138.2880,       61.6220,        1.4040,        1.3580,        0.4460,     2134.4240
     284.83560,      136.6780,       67.0510,        1.5130,        1.4280,        0.4140,     2144.4240
     284.98800,      138.2310,       68.2490,        1.5570,        1.5080,        0.3990,     2149.4240
     285.14040,      138.0190,       74.4590,        1.5460,        1.4730,        0.3920,     2144.4240
     285.29280,      138.3730,       75.3940,        1.5840,        1.5400,        0.3990,     2138.4240
     285.44520,      140.1000,       73.1490,        1.5730,        1.5450,        0.4030,     2138.4240
     285.59760,      141.5480,       73.3910,        1.5950,        1.5400,        0.4450,     2142.4240
     285.75000,      142.3940,       72.3890,        1.5990,        1.5460,        0.4600,     2143.4240
     285.90240,      144.3640,       80.0960,        1.5880,        1.5460,        0.4560,     2129.4240
     286.05480,      143.0230,       76.4070,        1.5850,        1.5300,        0.4160,     2109.4240
     286.20720,      140.2120,       72.5730,        1.6480,        1.5510,        0.4190,     2139.4240
     286.35960,      138.2720,       59.4610,        1.6600,        1.5420,        0.4280,     2169.4240
     286.51200,      135.7730,       59.5500,        1.6620,        1.5740,        0.4420,     2204.4240
     286.66440,      136.3480,       64.3690,        1.6790,        1.5830,        0.4350,     2194.4240
     286.81680,      138.3660,       69.8710,        1.6280,        1.5700,        0.4350,     2192.4240
     286.96920,      136.9530,       68.9890,        1.6210,        1.5890,        0.4290,     2179.4240
     287.12160,      137.6020,       68.4940,        1.6200,        1.6110,        0.4290,     2166.4240
     287.27400,      137.8320,       68.2540,        1.6450,        1.6140,        0.4220,     2163.4240
     287.42640,      138.1380,       68.6480,        1.6620,        1.6260,        0.4240,     2159.4240
     287.57880,      137.9470,       67.6200,        1.6530,        1.6260,        0.4210,     2156.4240
     287.73120,      137.2530,       71.0200,        1.6280,        1.5920,        0.4200,     2145.4240
     287.88360,      135.9470,       73.6600,        1.6100,        1.5800,        0.4180,     2139.4240
     288.03600,      135.1890,       72.0920,        1.6260,        1.5920,        0.4200,     2143.4240
     288.18840,      135.8110,       70.5360,        1.6660,        1.6020,        0.4270,     2148.4240
     288.34080,      139.9850,       70.2950,        1.6690,        1.6210,        0.4270,     2134.4240
     288.49320,      143.8280,       69.5520,        1.6990,        1.6600,        0.4380,     2071.4240
     288.64560,      143.5140,       64.3960,        1.8090,        1.7670,        0.4630,     1967.4240
     288.79800,      137.0440,       57.6600,        1.9690,        1.8920,        0.4880,     1878.4240
     288.95040,      127.3060,       54.4220,        2.1890,        2.0930,        0.5000,     1857.4240
     289.10280,      113.7480,       56.5660,        2.3710,        2.2940,        0.4940,     1927.4240
     289.25520,      106.6840,       60.4100,        2.3860,        2.3270,        0.4780,     2038.4240
     289.40760,      108.5620,       62.4590,        2.2990,        2.2440,        0.4480,     2112.4240
     289.56000,      116.4690,       62.1800,        2.1340,        2.1240,        0.4180,     2127.4240
     289.71240,      127.0560,       62.2160,        1.9420,        1.9590,        0.4090,     2113.4240
