~Version
VERS  .             3.0                                 : CWLS LOG ASCII STANDARD - VERSION 3.0
WRAP  .             NO                                  : One line per depth step
DLM   .             COMMA                               : Delimiter character between data columns
#Delimiting character ( SPACE TAB OR COMMA ).

~Well
#MNEM.UNIT          DATA                                DESCRIPTION
#----- ----        -----------------                   -----------
STRT  .M                  8.22960                       : FIRST INDEX VALUE
STOP  .M               1654.30200                       : LAST INDEX VALUE
STEP  .M                  0.15240                       : STEP OF INDEX
NULL  .             -999.25                             : NULL VALUE
COMP  .                                                 : COMPANY
WELL  .             ATLAS                               : WELL
FLD   .                                                 : FIELD
LOC   .                                                 : LOCATION
SRVC  .                                                 : SERVICE COMPANY
CTRY  .                                                 : COUNTRY
PROV  .                                                 : PROVINCE
UWI   .                                                 : UNIQUE WELL ID
LIC   .                                                 : LICENSE NUMBER
STAT  .                                                 : STATE
CNTY  .                                                 : COUNTY
API   .                                                 : API NUMBER
DATE  .                                                 : LOG DATE
X     .             653523.9460707                      : X OR EAST-WEST COORDINATE
Y     .             8158307.615707                      : Y OR NORTH-SOUTH COORDINATE
HZCS  .                                                 : HORIZONTAL CO-ORDINATE SYSTEM
LATI  .             -16.65267861111                     : LATITUDE
LONG  .             154.43955                           : LONGITUDE
GDAT  .                                                 : GEODETIC DATUM

~TOPS_PARAMETER 
#MNEM.UNIT                    VALUE                        DESCRIPTION
#--------------- ---         ------------                 -----------------

~TOPS_DEFINITION 
#MNEM.UNIT                 LOG CODE                  CURVE DESCRIPTION
#----------- ----         ------------              -----------------
DEPTH       .M                                      :     {F}
TOPS        .                                       : Formation Tops    {S24}

~TOPS_DATA | TOPS_DEFINITION
        4.6619,Doyles Creek Subgroup   
      435.4607,Horseshoe Creek Subgroup
      514.1221,Apple Tree Flat Subgroup
      732.2914,Watts Sandstone         
      743.8090,Denman Fm               
      881.1697,Mt Leonard Fm           
     1001.4479,Althorpe Fm             
     1015.4708,Malabar Fm              
     1056.3090,Mt Ogilvie Fm           
     1104.1063,Milbrodale Fm           
     1133.5950,Mt Thorley Fm           
     1213.0118,Burnamwood Fm           
     1298.6164,Archerfield Sandstone   
     1324.9931,Mulbring Siltstone      
     1401.3447,Muree Sandstone         
     1498.8386,Branxton Fm             
     1548.1308,Greta Coal Measures     
     1583.3733,DALWOOD GROUP           
     1644.8905,                        

~PARAMETER 
#MNEM.UNIT                    VALUE                        DESCRIPTION
#--------------- ---         ------------                 -----------------

~CURVE 
#MNEM.UNIT                 LOG CODE                  CURVE DESCRIPTION
#----------- ----         ------------              -----------------
DEPTH       .M                                      : DEPTH    {F}
DT          .US/F                                   : Sonic    {F}
GR          .GAPI                                   : Gamma Ray    {F}
LLD         .OHMM                                   : LLD Resistivity    {F}
LLS         .OHMM                                   : LLS Resistivity    {F}
NPHI        .V/V                                    : Neutron Porosity    {F}
RHOB        .K/M3                                   : Offset applied to log data.    {F}

~ASCII | CURVE 
# ...
     770.99160,      114.9830,       72.2954,        1.9792,        2.1751,        0.3666,     2320.3240
     771.14400,      116.9450,       71.3726,        1.8805,        2.0663,        0.3683,     2306.7240
     771.29640,      117.7730,       73.0930,        1.8635,        2.0137,        0.3671,     2294.2230
     771.44880,      117.6990,       75.2784,        1.8915,        2.0325,        0.3662,     2290.0230
     771.60120,      116.8750,       76.7825,        1.9929,        2.1201,        0.3733,     2293.0230
     771.75360,      115.3990,       78.4753,        2.1568,        2.2410,        0.3750,     2295.4240
     771.90600,      114.4050,       80.2945,        2.2318,        2.3208,        0.3727,     2293.1240
     772.05840,      113.8960,       77.6147,        2.1622,        2.3132,        0.3630,     2293.7240
     772.21080,      114.0940,       73.3818,        2.0643,        2.2263,        0.3593,     2301.1240
     772.36320,      114.0700,       69.2383,        2.0545,        2.1921,        0.3563,     2313.4240
     772.51560,      113.0380,       68.2522,        2.1177,        2.2585,        0.3553,     2319.1240
     772.66800,      111.1480,       68.2096,        2.2489,        2.3878,        0.3541,     2317.4240
     772.82040,      110.3700,       70.0504,        2.3205,        2.4303,        0.3611,     2316.4240
     772.97280,      111.8070,       74.5007,        2.1792,        2.2938,        0.3653,     2318.1240
     773.12520,      114.4800,       77.4962,        2.0102,        2.1279,        0.3561,     2317.7240
     773.27760,      116.4410,       78.7389,        1.8689,        2.0217,        0.3436,     2320.2230
     773.43000,      117.6910,       78.9886,        1.8064,        1.9875,        0.3453,     2327.3240
     773.58240,      118.1050,       78.7249,        1.8064,        1.9677,        0.3616,     2334.0240
     773.73480,      117.9930,       76.3699,        1.8544,        1.9908,        0.3795,     2327.3240
     773.88720,      117.9300,       74.3319,        1.9085,        2.0155,        0.3851,     2314.2230
     774.03960,      118.3760,       73.4408,        1.8721,        2.0075,        0.3811,     2310.4240
     774.19200,      118.9520,       74.4020,        1.8252,        1.9936,        0.3644,     2316.7240
     774.34440,      118.9250,       75.3953,        1.8121,        1.9879,        0.3500,     2329.3230
     774.49680,      118.3830,       77.7290,        1.8345,        2.0003,        0.3480,     2330.9240
     774.64920,      117.7980,       79.7677,        1.8301,        2.0085,        0.3579,     2323.9240
     774.80160,      117.5820,       79.0632,        1.8414,        1.9983,        0.3690,     2310.7230
     774.95400,      116.8420,       77.1630,        1.8993,        2.0276,        0.3763,     2299.9240
     775.10640,      114.9880,       74.4592,        2.0172,        2.1305,        0.3769,     2299.7240
     775.25880,      112.8260,       71.8104,        2.1804,        2.2975,        0.3635,     2307.7240
     775.41120,      111.2340,       68.3072,        2.3020,        2.4294,        0.3410,     2314.4240
     775.56360,      110.6990,       66.4877,        2.3174,        2.4499,        0.3274,     2310.1240
     775.71600,      111.7190,       67.2688,        2.2470,        2.3757,        0.3355,     2299.8240
     775.86840,      113.8130,       68.5107,        2.1587,        2.2805,        0.3549,     2291.6240
     776.02080,      115.1790,       69.2098,        2.1426,        2.2694,        0.3714,     2287.0230
     776.17320,      115.3220,       69.9176,        2.1771,        2.3079,        0.3792,     2288.0240
     776.32560,      115.3740,       70.7043,        2.1728,        2.3199,        0.3778,     2294.9240
     776.47800,      115.6110,       71.1156,        2.1290,        2.3009,        0.3714,     2306.7240
     776.63040,      115.7260,       70.4018,        2.0975,        2.2808,        0.3715,     2319.3230
     776.78280,      115.5240,       70.1006,        2.1068,        2.2807,        0.3742,     2328.1240
     776.93520,      115.1970,       71.1451,        2.1262,        2.2793,        0.3684,     2328.7240
     777.08760,      115.1240,       72.8599,        2.1117,        2.2669,        0.3599,     2322.6240
     777.24000,      114.9820,       73.5296,        2.0751,        2.2490,        0.3650,     2317.8230
     777.39240,      113.7200,       70.8846,        2.1018,        2.2888,        0.3836,     2327.7240
     777.54480,      110.2430,       66.5286,        2.2348,        2.4386,        0.3850,     2350.2230
     777.69720,      106.1970,       62.9336,        2.3669,        2.5787,        0.3576,     2367.3230
     777.84960,      104.3750,       61.8521,        2.4523,        2.6564,        0.3310,     2365.5230
     778.00200,      105.1040,       63.3904,        2.4613,        2.6817,        0.3265,     2348.6240
     778.15440,      108.0260,       65.6032,        2.3254,        2.5622,        0.3341,     2332.3230
     778.30680,      111.4400,       65.7829,        2.1891,        2.4115,        0.3345,     2319.6240
     778.45920,      113.6160,       64.4648,        2.1118,        2.3364,        0.3273,     2306.3230
     778.61160,      115.5890,       64.4972,        2.0235,        2.2535,        0.3244,     2292.5240
     778.76400,      117.5890,       66.7688,        1.9808,        2.1784,        0.3232,     2286.8240
     778.91640,      118.5100,       70.2766,        1.9951,        2.1529,        0.3152,     2291.0240
     779.06880,      118.8190,       72.9346,        2.0124,        2.1667,        0.3062,     2296.8240
     779.22120,      119.2990,       75.6312,        1.9625,        2.1514,        0.3099,     2298.9240
     779.37360,      119.7310,       78.8283,        1.9062,        2.1193,        0.3294,     2299.9240
     779.52600,      119.4930,       80.3568,        1.9349,        2.1353,        0.3518,     2301.8230
     779.67840,      118.3890,       78.9172,        2.0016,        2.1793,        0.3596,     2303.4240
     779.83080,      117.1450,       74.7134,        2.0491,        2.2240,        0.3543,     2302.0240
     779.98320,      116.0260,       71.5132,        2.0658,        2.2615,        0.3481,     2306.0230
     780.13560,      115.1930,       71.6427,        2.0714,        2.2690,        0.3446,     2321.8230
     780.28800,      114.6000,       73.4714,        2.0617,        2.2462,        0.3435,     2337.1240
     780.44040,      114.6440,       74.4014,        2.0366,        2.2067,        0.3459,     2338.1240
     780.59280,      115.9120,       72.8022,        1.9727,        2.1263,        0.3509,     2325.3230
     780.74520,      117.4810,       70.7707,        1.8727,        2.0357,        0.3603,     2310.1240
     780.89760,      118.1850,       70.8655,        1.8231,        1.9889,        0.3704,     2300.5240
     781.05000,      118.3750,       71.7978,        1.8463,        1.9970,        0.3730,     2297.9240
     781.20240,      118.5560,       71.3776,        1.9356,        2.0635,        0.3676,     2301.8230
     781.35480,      118.6910,       70.5870,        2.0158,        2.1322,        0.3605,     2310.3240
     781.50720,      119.0000,       71.1402,        1.9899,        2.1327,        0.3664,     2318.9240
     781.65960,      119.4970,       72.2656,        1.9012,        2.0687,        0.3815,     2322.9240
     781.81200,      120.1900,       71.9695,        1.8080,        1.9925,        0.3925,     2322.9240
     781.96440,      120.7230,       71.6595,        1.7399,        1.9369,        0.3945,     2320.4240
     782.11680,      120.7320,       72.8737,        1.7306,        1.8978,        0.3869,     2317.4240
     782.26920,      120.5700,       73.9431,        1.7323,        1.8627,        0.3779,     2312.3230
     782.42160,      120.4380,       73.3447,        1.6913,        1.8327,        0.3714,     2307.4240
     782.57400,      120.7250,       72.1415,        1.6476,        1.8035,        0.3705,     2305.4240
