~Version
VERS  .             3.0                                 : CWLS LOG ASCII STANDARD - VERSION 3.0
WRAP  .             NO                                  : One line per depth step
DLM   .             COMMA                               : Delimiter character between data columns
#Delimiting character ( SPACE TAB OR COMMA ).

~Well
#MNEM.UNIT          DATA                                DESCRIPTION
#----- ----        -----------------                   -----------
STRT  .M                  8.22960                       : FIRST INDEX VALUE
STOP  .M               1654.30200                       : LAST INDEX VALUE
STEP  .M                  0.15240                       : STEP OF INDEX
NULL  .             -999.25                             : NULL VALUE
COMP  .                                                 : COMPANY
WELL  .             ATLAS                               : WELL
FLD   .                                                 : FIELD
LOC   .                                                 : LOCATION
SRVC  .                                                 : SERVICE COMPANY
CTRY  .                                                 : COUNTRY
PROV  .                                                 : PROVINCE
UWI   .                                                 : UNIQUE WELL ID
LIC   .                                                 : LICENSE NUMBER
STAT  .                                                 : STATE
CNTY  .                                                 : COUNTY
API   .                                                 : API NUMBER
DATE  .                                                 : LOG DATE
X     .             653523.9460707                      : X OR EAST-WEST COORDINATE
Y     .             8158307.615707                      : Y OR NORTH-SOUTH COORDINATE
HZCS  .                                                 : HORIZONTAL CO-ORDINATE SYSTEM
LATI  .             -16.65267861111                     : LATITUDE
LONG  .             154.43955                           : LONGITUDE
GDAT  .                                                 : GEODETIC DATUM

~TOPS_PARAMETER 
#MNEM.UNIT                    VALUE                        DESCRIPTION
#--------------- ---         ------------                 -----------------

~TOPS_DEFINITION 
#MNEM.UNIT                 LOG CODE                  CURVE DESCRIPTION
#----------- ----         ------------              -----------------
DEPTH       .M                                      :     {F}
TOPS        .                                       : Formation Tops    {S24}

~TOPS_DATA | TOPS_DEFINITION
        4.6619,Doyles Creek Subgroup   
      435.4607,Horseshoe Creek Subgroup
      514.1221,Apple Tree Flat Subgroup
      732.2914,Watts Sandstone         
      743.8090,Denman Fm               
      881.1697,Mt Leonard Fm           
     1001.4479,Althorpe Fm             
     1015.4708,Malabar Fm              
     1056.3090,Mt Ogilvie Fm           
     1104.1063,Milbrodale Fm           
     1133.5950,Mt Thorley Fm           
     1213.0118,Burnamwood Fm           
     1298.6164,Archerfield Sandstone   
     1324.9931,Mulbring Siltstone      
     1401.3447,Muree Sandstone         
     1498.8386,Branxton Fm             
     1548.1308,Greta Coal Measures     
     1583.3733,DALWOOD GROUP           
     1644.8905,                        

~PARAMETER 
#MNEM.UNIT                    VALUE                        DESCRIPTION
#--------------- ---         ------------                 -----------------

~CURVE 
#MNEM.UNIT                 LOG CODE                  CURVE DESCRIPTION
#----------- ----         ------------              -----------------
DEPTH       .M                                      : DEPTH    {F}
DT          .US/F                                   : Sonic    {F}
GR          .GAPI                                   : Gamma Ray    {F}
LLD         .OHMM                                   : LLD Resistivity    {F}
LLS         .OHMM                                   : LLS Resistivity    {F}
NPHI        .V/V                                    : Neutron Porosity    {F}
RHOB        .K/M3                                   : Offset applied to log data.    {F}

~ASCII | CURVE 
# ...
     665.37840,      131.0750,       67.5932,        1.4172,        1.5715,        0.3532,     2262.9240
     665.53080,      130.8360,       66.3293,        1.4001,        1.5533,        0.3494,     2261.9240
     665.68320,      130.9380,       65.8416,        1.3791,        1.5142,        0.3694,     2260.4240
     665.83560,      131.3650,       66.2296,        1.3680,        1.4960,        0.3940,     2256.9240
     665.98800,      131.7460,       68.3566,        1.3735,        1.5040,        0.4005,     2253.4240
     666.14040,      131.9870,       70.2191,        1.3850,        1.5150,        0.3864,     2252.9240
     666.29280,      131.8690,       69.7673,        1.4031,        1.5326,        0.3669,     2256.4240
     666.44520,      131.2030,       68.6142,        1.4079,        1.5587,        0.3580,     2260.9240
     666.59760,      130.7500,       68.3303,        1.4081,        1.5700,        0.3626,     2265.0240
     666.75000,      130.8120,       69.2670,        1.4443,        1.5834,        0.3675,     2266.9240
     666.90240,      130.8730,       71.1199,        1.4931,        1.6145,        0.3726,     2269.5230
     667.05480,      130.8130,       72.0341,        1.5214,        1.6523,        0.3822,     2274.5240
     667.20720,      130.4950,       71.0698,        1.5294,        1.6923,        0.3917,     2272.2240
     667.35960,      129.9420,       70.2235,        1.5034,        1.6859,        0.3939,     2263.7240
     667.51200,      129.8440,       71.8693,        1.4657,        1.6319,        0.3862,     2255.7240
     667.66440,      130.1800,       74.5686,        1.4452,        1.5871,        0.3815,     2248.2230
     667.81680,      130.4290,       76.1731,        1.4262,        1.5613,        0.3863,     2247.1240
     667.96920,      130.4220,       75.5612,        1.4167,        1.5660,        0.3943,     2256.3230
     668.12160,      129.5630,       73.8876,        1.4571,        1.6058,        0.4001,     2274.2230
     668.27400,      127.7990,       71.8646,        1.5229,        1.6484,        0.3998,     2294.6240
     668.42640,      126.2610,       69.8639,        1.5797,        1.6927,        0.3915,     2311.5240
     668.57880,      125.6940,       67.7149,        1.6236,        1.7389,        0.3795,     2321.7240
     668.73120,      125.7640,       65.5030,        1.6334,        1.7689,        0.3663,     2320.0230
     668.88360,      125.6450,       64.4811,        1.6137,        1.7725,        0.3562,     2306.0230
     669.03600,      125.4630,       64.7799,        1.5727,        1.7448,        0.3569,     2289.7240
     669.18840,      125.8730,       66.8751,        1.5279,        1.7038,        0.3633,     2290.6240
     669.34080,      126.6070,       70.5144,        1.4993,        1.6603,        0.3699,     2308.1240
     669.49320,      127.5130,       75.0544,        1.4732,        1.6277,        0.3758,     2326.4240
     669.64560,      128.3450,       77.7426,        1.4707,        1.6343,        0.3853,     2328.3230
     669.79800,      128.5570,       77.4058,        1.4994,        1.6612,        0.3893,     2311.9240
     669.95040,      128.3790,       76.4051,        1.5218,        1.6800,        0.3772,     2291.0240
     670.10280,      127.7010,       75.7523,        1.5367,        1.7008,        0.3553,     2274.4240
     670.25520,      126.8360,       75.0707,        1.5492,        1.7120,        0.3433,     2265.5240
     670.40760,      126.4980,       73.7788,        1.5369,        1.7022,        0.3541,     2265.7240
     670.56000,      126.5620,       72.8071,        1.5105,        1.6857,        0.3763,     2274.9240
     670.71240,      126.1330,       73.0111,        1.5157,        1.6941,        0.3895,     2292.0240
     670.86480,      124.9110,       74.6578,        1.5679,        1.7348,        0.3797,     2312.1240
     671.01720,      123.7350,       77.3230,        1.6246,        1.7812,        0.3569,     2325.1240
     671.16960,      123.1570,       79.8920,        1.6717,        1.8232,        0.3458,     2326.6240
     671.32200,      123.2780,       80.0740,        1.7017,        1.8507,        0.3527,     2327.2230
     671.47440,      124.0130,       77.3613,        1.6870,        1.8467,        0.3628,     2332.0230
     671.62680,      124.6670,       73.9412,        1.6583,        1.8145,        0.3684,     2335.0240
     671.77920,      124.6040,       73.2336,        1.6418,        1.7878,        0.3724,     2333.0230
     671.93160,      123.3720,       76.3852,        1.6448,        1.7991,        0.3728,     2336.8240
     672.08400,      121.5520,       77.2921,        1.6754,        1.8388,        0.3714,     2353.7240
     672.23640,      120.5970,       73.6955,        1.7266,        1.8959,        0.3753,     2364.2240
     672.38880,      120.4160,       68.8969,        1.7698,        1.9424,        0.3927,     2353.2230
     672.54120,      121.3440,       67.3194,        1.7468,        1.9302,        0.4155,     2335.0240
     672.69360,      123.0730,       69.4768,        1.7012,        1.8980,        0.4160,     2321.6240
     672.84600,      124.0680,       71.6410,        1.7043,        1.8967,        0.4073,     2316.8240
     672.99840,      124.1980,       75.0305,        1.7336,        1.9175,        0.3957,     2312.7240
     673.15080,      124.1740,       77.0933,        1.7668,        1.9463,        0.3856,     2309.8240
     673.30320,      124.4370,       75.6058,        1.7781,        1.9718,        0.3780,     2306.9240
     673.45560,      124.7610,       70.5056,        1.7569,        1.9618,        0.3725,     2306.0230
     673.60800,      125.2100,       68.0229,        1.7242,        1.9365,        0.3792,     2308.9240
     673.76040,      125.9000,       69.5607,        1.6911,        1.8918,        0.3783,     2309.8240
     673.91280,      126.1740,       74.1227,        1.6866,        1.8576,        0.3674,     2306.9240
     674.06520,      126.4280,       78.2223,        1.6705,        1.8455,        0.3617,     2303.5230
     674.21760,      126.6180,       78.2500,        1.6282,        1.8302,        0.3700,     2304.3240
     674.37000,      126.2870,       75.0235,        1.6207,        1.8307,        0.3879,     2316.4240
     674.52240,      124.9080,       72.3223,        1.7108,        1.9224,        0.3924,     2338.6240
     674.67480,      121.3550,       72.9014,        1.8792,        2.0980,        0.3735,     2363.6240
     674.82720,      116.1420,       75.4629,        1.9953,        2.2179,        0.3372,     2375.7240
     674.97960,      113.9040,       74.4777,        1.9958,        2.2240,        0.3178,     2360.4240
     675.13200,      114.8060,       73.1280,        1.8741,        2.1183,        0.3288,     2335.6240
     675.28440,      118.1850,       73.3898,        1.6773,        1.9316,        0.3571,     2319.5230
     675.43680,      122.0920,       76.1789,        1.5871,        1.8172,        0.3819,     2318.7240
     675.58920,      123.5620,       75.9109,        1.6093,        1.7963,        0.3963,     2319.7240
     675.74160,      124.2100,       75.5312,        1.6283,        1.8030,        0.4040,     2317.4240
     675.89400,      125.2680,       76.9272,        1.6360,        1.8120,        0.4080,     2321.8230
     676.04640,      125.8350,       80.8040,        1.6491,        1.8211,        0.4002,     2325.1240
     676.19880,      125.7520,       84.6572,        1.6675,        1.8314,        0.3859,     2325.4240
     676.35120,      125.2830,       83.9587,        1.6821,        1.8479,        0.3729,     2317.3240
     676.50360,      124.8760,       79.3788,        1.6812,        1.8608,        0.3622,     2313.4240
     676.65600,      125.2370,       70.9419,        1.6872,        1.8729,        0.3569,     2308.6240
     676.80840,      125.2800,       64.9389,        1.6972,        1.8852,        0.3519,     2300.2240
     676.96080,      125.6320,       64.2420,        1.6979,        1.8573,        0.3507,     2296.0230
