~Version
VERS  .             3.0                                 : CWLS LOG ASCII STANDARD - VERSION 3.0
WRAP  .             NO                                  : One line per depth step
DLM   .             COMMA                               : Delimiter character between data columns
#Delimiting character ( SPACE TAB OR COMMA ).

~Well
#MNEM.UNIT          DATA                                DESCRIPTION
#----- ----        -----------------                   -----------
STRT  .M                  8.22960                       : FIRST INDEX VALUE
STOP  .M               1654.30200                       : LAST INDEX VALUE
STEP  .M                  0.15240                       : STEP OF INDEX
NULL  .             -999.25                             : NULL VALUE
COMP  .                                                 : COMPANY
WELL  .             ATLAS                               : WELL
FLD   .                                                 : FIELD
LOC   .                                                 : LOCATION
SRVC  .                                                 : SERVICE COMPANY
CTRY  .                                                 : COUNTRY
PROV  .                                                 : PROVINCE
UWI   .                                                 : UNIQUE WELL ID
LIC   .                                                 : LICENSE NUMBER
STAT  .                                                 : STATE
CNTY  .                                                 : COUNTY
API   .                                                 : API NUMBER
DATE  .                                                 : LOG DATE
X     .             653523.9460707                      : X OR EAST-WEST COORDINATE
Y     .             8158307.615707                      : Y OR NORTH-SOUTH COORDINATE
HZCS  .                                                 : HORIZONTAL CO-ORDINATE SYSTEM
LATI  .             -16.65267861111                     : LATITUDE
LONG  .             154.43955                           : LONGITUDE
GDAT  .                                                 : GEODETIC DATUM

~TOPS_PARAMETER 
#MNEM.UNIT                    VALUE                        DESCRIPTION
#--------------- ---         ------------                 -----------------

~TOPS_DEFINITION 
#MNEM.UNIT                 LOG CODE                  CURVE DESCRIPTION
#----------- ----         ------------              -----------------
DEPTH       .M                                      :     {F}
TOPS        .                                       : Formation Tops    {S24}

~TOPS_DATA | TOPS_DEFINITION
        4.6619,Doyles Creek Subgroup   
      435.4607,Horseshoe Creek Subgroup
      514.1221,Apple Tree Flat Subgroup
      732.2914,Watts Sandstone         
      743.8090,Denman Fm               
      881.1697,Mt Leonard Fm           
     1001.4479,Althorpe Fm             
     1015.4708,Malabar Fm              
     1056.3090,Mt Ogilvie Fm           
     1104.1063,Milbrodale Fm           
     1133.5950,Mt Thorley Fm           
     1213.0118,Burnamwood Fm           
     1298.6164,Archerfield Sandstone   
     1324.9931,Mulbring Siltstone      
     1401.3447,Muree Sandstone         
     1498.8386,Branxton Fm             
     1548.1308,Greta Coal Measures     
     1583.3733,DALWOOD GROUP           
     1644.8905,                        

~PARAMETER 
#MNEM.UNIT                    VALUE                        DESCRIPTION
#--------------- ---         ------------                 -----------------

~CURVE 
#MNEM.UNIT                 LOG CODE                  CURVE DESCRIPTION
#----------- ----         ------------              -----------------
DEPTH       .M                                      : DEPTH    {F}
DT          .US/F                                   : Sonic    {F}
GR          .GAPI                                   : Gamma Ray    {F}
LLD         .OHMM                                   : LLD Resistivity    {F}
LLS         .OHMM                                   : LLS Resistivity    {F}
NPHI        .V/V                                    : Neutron Porosity    {F}
RHOB        .K/M3                                   : Offset applied to log data.    {F}

~ASCII | CURVE 
# ...
    1252.11840,       82.2700,      113.4520,       14.0053,       12.7000,        0.2001,     2476.0240
    1252.27080,       82.3301,      110.7510,       13.6760,       12.3233,        0.2009,     2490.0230
    1252.42320,       82.7632,      112.5300,       13.4435,       11.8965,        0.2101,     2492.0240
    1252.57560,       83.2943,      114.2510,       12.7440,       11.0510,        0.2269,     2458.0230
    1252.72800,       84.1638,      111.8530,       11.1622,        9.6523,        0.2403,     2401.5230
    1252.88040,       85.1710,      104.3530,        9.6459,        8.4265,        0.2421,     2361.0240
    1253.03280,       85.6912,       96.8067,        9.2768,        8.1179,        0.2372,     2353.6240
    1253.18520,       85.6259,       96.0145,       10.4266,        8.9154,        0.2356,     2370.7240
    1253.33760,       85.1193,      103.6750,       12.2520,       10.1820,        0.2386,     2388.4240
    1253.49000,       84.9003,      112.4030,       13.0943,       10.7147,        0.2426,     2386.3240
    1253.64240,       85.2017,      114.3260,       12.3234,       10.0752,        0.2421,     2368.2240
    1253.79480,       85.4263,      109.0270,       10.8328,        8.8909,        0.2404,     2349.4240
    1253.94720,       85.5139,      103.2500,       10.1191,        8.2544,        0.2393,     2346.7230
    1254.09960,       85.1973,      101.2440,       10.9194,        8.8094,        0.2390,     2364.8230
    1254.25200,       84.8566,      104.6780,       12.5156,       10.0373,        0.2416,     2387.2240
    1254.40440,       85.7430,      109.3730,       13.1235,       10.4544,        0.2476,     2393.1240
    1254.55680,       87.0580,      110.9310,       12.2649,        9.8237,        0.2560,     2373.2230
    1254.70920,       88.3543,      106.4880,       10.5715,        8.7180,        0.2550,     2342.1240
    1254.86160,       89.1816,      100.6900,        9.7696,        8.1379,        0.2510,     2332.7240
    1255.01400,       89.0332,      100.1630,        9.8724,        8.1004,        0.2480,     2349.5230
    1255.16640,       88.4370,      100.7980,       10.4576,        8.4643,        0.2504,     2373.6240
    1255.31880,       88.3217,      100.6150,       10.7278,        8.7958,        0.2527,     2388.8240
    1255.47120,       88.9572,       97.2781,       10.3989,        8.6554,        0.2571,     2387.6240
    1255.62360,       89.9176,       95.2650,       10.3731,        8.6301,        0.2610,     2397.0240
    1255.77600,       90.4348,       96.7350,       10.5253,        8.6807,        0.2641,     2412.0230
    1255.92840,       90.2540,      101.6110,       10.6389,        8.8286,        0.2712,     2421.2240
    1256.08080,       88.7829,      109.7750,       10.8568,        9.1550,        0.2761,     2420.0240
    1256.23320,       87.0641,      115.0520,       10.8888,        9.2806,        0.2735,     2416.3230
    1256.38560,       85.5049,      115.5030,       10.9924,        9.3820,        0.2602,     2414.7240
    1256.53800,       85.0586,      109.0020,       11.1024,        9.4487,        0.2487,     2399.1240
    1256.69040,       85.7740,       99.3132,       10.4830,        9.0395,        0.2446,     2376.3240
    1256.84280,       86.3143,       92.2845,        9.8313,        8.5592,        0.2377,     2365.9240
    1256.99520,       85.9360,       90.6980,       10.2872,        8.9223,        0.2301,     2378.5230
    1257.14760,       85.4805,       94.6495,       11.7102,       10.0130,        0.2280,     2399.3240
    1257.30000,       85.2997,       98.7077,       13.3322,       11.3614,        0.2394,     2410.4240
    1257.45240,       85.1606,      104.0880,       13.8324,       11.9914,        0.2540,     2410.3230
    1257.60480,       85.5075,      109.5320,       13.0653,       11.5904,        0.2616,     2405.8240
    1257.75720,       86.0061,      112.1840,       11.9529,       10.7327,        0.2601,     2406.6240
    1257.90960,       85.7977,      112.1610,       11.5248,       10.3028,        0.2547,     2414.6240
    1258.06200,       85.5289,      112.4310,       11.8016,       10.5286,        0.2508,     2413.1240
    1258.21440,       85.6012,      112.8400,       11.8572,       10.6756,        0.2493,     2409.2230
    1258.36680,       85.7151,      113.6270,       11.9341,       10.8487,        0.2468,     2410.6240
    1258.51920,       85.5009,      113.7540,       12.0532,       11.0740,        0.2453,     2418.7240
    1258.67160,       85.0562,      115.4650,       12.2342,       11.3002,        0.2450,     2433.1240
    1258.82400,       85.0264,      116.4520,       12.7317,       11.8174,        0.2472,     2447.7240
    1258.97640,       85.0198,      117.4450,       13.0010,       12.1852,        0.2561,     2464.0230
    1259.12880,       84.1849,      119.6260,       13.0927,       12.3127,        0.2709,     2487.7240
    1259.28120,       82.2952,      122.9460,       13.6894,       12.7867,        0.2802,     2516.0240
    1259.43360,       80.2422,      122.4910,       14.1149,       13.0668,        0.2663,     2526.4240
    1259.58600,       78.9535,      115.9660,       13.9414,       12.7939,        0.2347,     2505.6240
    1259.73840,       78.4788,      109.5500,       13.6586,       12.6100,        0.2132,     2466.8230
    1259.89080,       79.4163,      109.1620,       13.0760,       12.2446,        0.2173,     2435.2240
    1260.04320,       81.3601,      113.1690,       12.4518,       11.7263,        0.2344,     2423.9240
    1260.19560,       82.7614,      115.5250,       12.1403,       11.4942,        0.2428,     2425.4240
    1260.34800,       83.6469,      115.5240,       12.0186,       11.5032,        0.2448,     2431.7240
    1260.50040,       84.4198,      116.7430,       12.2052,       11.7809,        0.2511,     2438.0230
    1260.65280,       84.8965,      119.1910,       12.5573,       12.0988,        0.2645,     2442.5240
    1260.80520,       85.0114,      118.4050,       12.3849,       11.8716,        0.2703,     2443.4240
    1260.95760,       85.0748,      113.6420,       11.4323,       10.9468,        0.2633,     2438.0230
    1261.11000,       85.2548,      108.2150,       10.3093,        9.8571,        0.2540,     2432.5240
    1261.26240,       85.7056,      104.6750,        9.7949,        9.2904,        0.2489,     2433.0240
    1261.41480,       86.0935,      103.6200,       10.2335,        9.6148,        0.2511,     2440.4240
    1261.56720,       86.1653,      103.7300,       11.1021,       10.3918,        0.2559,     2447.1240
    1261.71960,       86.1679,      105.2790,       11.7819,       11.0642,        0.2594,     2445.3240
    1261.87200,       86.1493,      110.2170,       12.2208,       11.5737,        0.2639,     2442.0240
    1262.02440,       85.9611,      117.7120,       12.2056,       11.6605,        0.2666,     2441.4240
    1262.17680,       85.4245,      123.7730,       11.4508,       11.0064,        0.2670,     2438.2240
    1262.32920,       84.9598,      122.8070,       10.2371,        9.8570,        0.2606,     2428.6240
    1262.48160,       84.9972,      115.7380,        9.2114,        8.8384,        0.2494,     2418.4240
    1262.63400,       85.4023,      110.7870,        8.7630,        8.3424,        0.2454,     2416.4240
    1262.78640,       86.1895,      110.6670,        9.2256,        8.6753,        0.2498,     2421.2240
    1262.93880,       86.9010,      112.0490,       10.3719,        9.7388,        0.2591,     2428.1240
    1263.09120,       87.2107,      109.9970,       10.9495,       10.4372,        0.2659,     2432.6240
    1263.24360,       87.5264,      106.4510,       10.8270,       10.4477,        0.2662,     2438.3240
    1263.39600,       87.5392,      105.1050,       10.5811,       10.2463,        0.2619,     2446.7240
    1263.54840,       87.4216,      109.0410,       10.4648,       10.1020,        0.2577,     2452.5240
    1263.70080,       87.0705,      114.1810,       10.5639,       10.1225,        0.2521,     2454.2240
