~Version
VERS  .             3.0                                 : CWLS LOG ASCII STANDARD - VERSION 3.0
WRAP  .             NO                                  : One line per depth step
DLM   .             COMMA                               : Delimiter character between data columns
#Delimiting character ( SPACE TAB OR COMMA ).

~Well
#MNEM.UNIT          DATA                                DESCRIPTION
#----- ----        -----------------                   -----------
STRT  .M                  8.22960                       : FIRST INDEX VALUE
STOP  .M               1654.30200                       : LAST INDEX VALUE
STEP  .M                  0.15240                       : STEP OF INDEX
NULL  .             -999.25                             : NULL VALUE
COMP  .                                                 : COMPANY
WELL  .             ATLAS                               : WELL
FLD   .                                                 : FIELD
LOC   .                                                 : LOCATION
SRVC  .                                                 : SERVICE COMPANY
CTRY  .                                                 : COUNTRY
PROV  .                                                 : PROVINCE
UWI   .                                                 : UNIQUE WELL ID
LIC   .                                                 : LICENSE NUMBER
STAT  .                                                 : STATE
CNTY  .                                                 : COUNTY
API   .                                                 : API NUMBER
DATE  .                                                 : LOG DATE
X     .             653523.9460707                      : X OR EAST-WEST COORDINATE
Y     .             8158307.615707                      : Y OR NORTH-SOUTH COORDINATE
HZCS  .                                                 : HORIZONTAL CO-ORDINATE SYSTEM
LATI  .             -16.65267861111                     : LATITUDE
LONG  .             154.43955                           : LONGITUDE
GDAT  .                                                 : GEODETIC DATUM

~TOPS_PARAMETER 
#MNEM.UNIT                    VALUE                        DESCRIPTION
#--------------- ---         ------------                 -----------------

~TOPS_DEFINITION 
#MNEM.UNIT                 LOG CODE                  CURVE DESCRIPTION
#----------- ----         ------------              -----------------
DEPTH       .M                                      :     {F}
TOPS        .                                       : Formation Tops    {S24}

~TOPS_DATA | TOPS_DEFINITION
        4.6619,Doyles Creek Subgroup   
      435.4607,Horseshoe Creek Subgroup
      514.1221,Apple Tree Flat Subgroup
      732.2914,Watts Sandstone         
      743.8090,Denman Fm               
      881.1697,Mt Leonard Fm           
     1001.4479,Althorpe Fm             
     1015.4708,Malabar Fm              
     1056.3090,Mt Ogilvie Fm           
     1104.1063,Milbrodale Fm           
     1133.5950,Mt Thorley Fm           
     1213.0118,Burnamwood Fm           
     1298.6164,Archerfield Sandstone   
     1324.9931,Mulbring Siltstone      
     1401.3447,Muree Sandstone         
     1498.8386,Branxton Fm             
     1548.1308,Greta Coal Measures     
     1583.3733,DALWOOD GROUP           
     1644.8905,                        

~PARAMETER 
#MNEM.UNIT                    VALUE                        DESCRIPTION
#--------------- ---         ------------                 -----------------

~CURVE 
#MNEM.UNIT                 LOG CODE                  CURVE DESCRIPTION
#----------- ----         ------------              -----------------
DEPTH       .M                                      : DEPTH    {F}
DT          .US/F                                   : Sonic    {F}
GR          .GAPI                                   : Gamma Ray    {F}
LLD         .OHMM                                   : LLD Resistivity    {F}
LLS         .OHMM                                   : LLS Resistivity    {F}
NPHI        .V/V                                    : Neutron Porosity    {F}
RHOB        .K/M3                                   : Offset applied to log data.    {F}

~ASCII | CURVE 
# ...
     571.50000,      131.7860,       66.8618,        1.5527,        1.5837,        0.3977,     2244.7230
     571.65240,      131.0150,       61.6290,        1.5580,        1.5870,        0.4150,     2224.4240
     571.80480,      131.0000,       60.7780,        1.5490,        1.6100,        0.4140,     2214.4240
     571.95720,      131.1610,       66.0120,        1.5620,        1.5900,        0.3890,     2205.4240
     572.10960,      131.9860,       71.0180,        1.5620,        1.5570,        0.3790,     2203.4240
     572.26200,      132.0090,       73.3140,        1.5750,        1.5760,        0.3840,     2206.4240
     572.41440,      131.0050,       67.5860,        1.6020,        1.6130,        0.3930,     2221.4240
     572.56680,      130.3490,       64.4540,        1.6530,        1.6430,        0.3790,     2231.4240
     572.71920,      129.6010,       63.6110,        1.6780,        1.6830,        0.3590,     2233.4240
     572.87160,      129.8170,       65.7260,        1.6650,        1.6940,        0.3540,     2225.4240
     573.02400,      130.8740,       65.7530,        1.6350,        1.6800,        0.3570,     2217.4240
     573.17640,      131.3300,       67.5800,        1.6080,        1.6380,        0.3660,     2213.4240
     573.32880,      131.6230,       69.1590,        1.6290,        1.6340,        0.3620,     2211.4240
     573.48120,      131.5960,       72.0310,        1.6400,        1.6470,        0.3720,     2208.4240
     573.63360,      131.7110,       71.5570,        1.6380,        1.6480,        0.3750,     2208.4240
     573.78600,      131.6260,       70.2870,        1.6670,        1.6720,        0.3780,     2207.4240
     573.93840,      131.3340,       68.9350,        1.6640,        1.6790,        0.3660,     2201.4240
     574.09080,      131.6330,       68.8750,        1.6300,        1.6530,        0.3600,     2193.4240
     574.24320,      132.7360,       69.7860,        1.5670,        1.6000,        0.3630,     2191.4240
     574.39560,      133.7590,       69.2890,        1.5030,        1.5530,        0.3800,     2196.4240
     574.54800,      134.4220,       69.7850,        1.4620,        1.5200,        0.4090,     2199.4240
     574.70040,      134.5670,       70.9390,        1.4620,        1.5030,        0.4280,     2199.4240
     574.85280,      134.5530,       71.5900,        1.4680,        1.5040,        0.4370,     2200.4240
     575.00520,      134.7770,       71.5850,        1.4390,        1.4980,        0.4460,     2199.4240
     575.15760,      134.7350,       72.1860,        1.4410,        1.4850,        0.4530,     2198.4240
     575.31000,      134.2810,       73.3370,        1.4710,        1.4900,        0.4500,     2197.4240
     575.46240,      133.7850,       74.3610,        1.4860,        1.5080,        0.4280,     2196.4240
     575.61480,      133.6270,       73.1790,        1.4860,        1.5060,        0.4030,     2194.4240
     575.76720,      133.6910,       70.6050,        1.4590,        1.4990,        0.3890,     2189.4240
     575.91960,      133.8890,       68.3020,        1.4290,        1.4920,        0.3930,     2184.4240
     576.07200,      134.1350,       67.8060,        1.4110,        1.4600,        0.4090,     2184.4240
     576.22440,      134.2540,       68.6730,        1.3950,        1.4250,        0.4090,     2190.4240
     576.37680,      134.1120,       68.8630,        1.3720,        1.4090,        0.3880,     2198.4240
     576.52920,      134.0650,       68.1480,        1.3460,        1.3900,        0.3750,     2198.4240
     576.68160,      134.4530,       67.7280,        1.3310,        1.3680,        0.3820,     2192.4240
     576.83400,      135.6010,       67.4220,        1.3140,        1.3530,        0.3970,     2188.4240
     576.98640,      136.8750,       66.4570,        1.3020,        1.3540,        0.4080,     2192.4240
     577.13880,      136.8630,       64.3220,        1.3420,        1.3890,        0.4170,     2200.4240
     577.29120,      135.6730,       62.5930,        1.4230,        1.4620,        0.4180,     2206.4240
     577.44360,      133.6430,       64.6640,        1.5260,        1.5640,        0.3990,     2213.4240
     577.59600,      131.4930,       67.6880,        1.6150,        1.6510,        0.3750,     2219.4240
     577.74840,      130.3180,       69.5930,        1.6670,        1.7100,        0.3640,     2228.4240
     577.90080,      129.9250,       68.4510,        1.6730,        1.7320,        0.3810,     2238.4240
     578.05320,      128.4560,       67.7950,        1.6760,        1.7390,        0.3970,     2256.4240
     578.20560,      125.4230,       67.2010,        1.6900,        1.7540,        0.3950,     2275.4240
     578.35800,      123.0750,       65.6590,        1.6880,        1.7510,        0.3770,     2286.4240
     578.51040,      122.4210,       64.6500,        1.6900,        1.7380,        0.3700,     2275.4240
     578.66280,      122.1050,       64.3130,        1.6740,        1.7180,        0.3670,     2254.4240
     578.81520,      124.2800,       64.4210,        1.6470,        1.7050,        0.3690,     2235.4240
     578.96760,      126.2880,       66.9160,        1.6360,        1.7080,        0.3650,     2229.4240
     579.12000,      127.0930,       71.5120,        1.6510,        1.7290,        0.3670,     2232.4240
     579.27240,      127.1800,       73.7850,        1.6600,        1.7260,        0.3750,     2236.4240
     579.42480,      127.9550,       71.4420,        1.6820,        1.7300,        0.3730,     2233.4240
     579.57720,      128.6190,       68.4100,        1.7230,        1.7710,        0.3780,     2232.4240
     579.72960,      128.6940,       69.6510,        1.7340,        1.7680,        0.3830,     2232.4240
     579.88200,      129.8250,       70.8350,        1.7310,        1.7760,        0.3790,     2235.4240
     580.03440,      129.9150,       71.4140,        1.7400,        1.8030,        0.3750,     2228.4240
     580.18680,      129.1680,       69.1090,        1.7330,        1.7930,        0.3580,     2223.4240
     580.33920,      129.8850,       68.1540,        1.6910,        1.7410,        0.3630,     2225.4240
     580.49160,      129.5040,       65.9390,        1.6730,        1.7590,        0.3510,     2231.4240
     580.64400,      128.7980,       67.0280,        1.6950,        1.7420,        0.3540,     2234.4240
     580.79640,      128.7500,       70.5100,        1.7020,        1.7920,        0.3490,     2238.4240
     580.94880,      128.7510,       71.5280,        1.6670,        1.7940,        0.3650,     2244.4240
     581.10120,      129.2290,       72.1020,        1.5770,        1.6970,        0.3850,     2245.4240
     581.25360,      130.4450,       70.1530,        1.5800,        1.7030,        0.3800,     2244.4240
     581.40600,      130.9770,       73.9920,        1.5710,        1.6810,        0.3690,     2238.4240
     581.55840,      130.2960,       82.5930,        1.5600,        1.6690,        0.3760,     2243.4240
     581.71080,      130.2620,       79.8620,        1.5900,        1.7020,        0.3840,     2235.4240
     581.86320,      130.7400,       80.1740,        1.5460,        1.6400,        0.4020,     2234.4240
     582.01560,      131.6690,       73.1210,        1.5470,        1.6800,        0.3900,     2237.4240
     582.16800,      132.1340,       74.2740,        1.5290,        1.6570,        0.3780,     2246.4240
     582.32040,      131.3970,       73.1020,        1.5750,        1.6800,        0.3620,     2252.4240
     582.47280,      131.4650,       74.9220,        1.6090,        1.6930,        0.3580,     2257.4240
     582.62520,      131.5650,       77.4050,        1.6060,        1.7050,        0.3770,     2263.4240
     582.77760,      132.1500,       74.7940,        1.5800,        1.6650,        0.4070,     2269.4240
     582.93000,      132.5080,       72.6830,        1.5710,        1.6590,        0.4130,     2271.4240
     583.08240,      132.9900,       69.1630,        1.5400,        1.6340,        0.4030,     2261.4240
