~Version
VERS  .             3.0                                 : CWLS LOG ASCII STANDARD - VERSION 3.0
WRAP  .             NO                                  : One line per depth step
DLM   .             COMMA                               : Delimiter character between data columns
#Delimiting character ( SPACE TAB OR COMMA ).

~Well
#MNEM.UNIT          DATA                                DESCRIPTION
#----- ----        -----------------                   -----------
STRT  .M                  8.22960                       : FIRST INDEX VALUE
STOP  .M               1654.30200                       : LAST INDEX VALUE
STEP  .M                  0.15240                       : STEP OF INDEX
NULL  .             -999.25                             : NULL VALUE
COMP  .                                                 : COMPANY
WELL  .             ATLAS                               : WELL
FLD   .                                                 : FIELD
LOC   .                                                 : LOCATION
SRVC  .                                                 : SERVICE COMPANY
CTRY  .                                                 : COUNTRY
PROV  .                                                 : PROVINCE
UWI   .                                                 : UNIQUE WELL ID
LIC   .                                                 : LICENSE NUMBER
STAT  .                                                 : STATE
CNTY  .                                                 : COUNTY
API   .                                                 : API NUMBER
DATE  .                                                 : LOG DATE
X     .             653523.9460707                      : X OR EAST-WEST COORDINATE
Y     .             8158307.615707                      : Y OR NORTH-SOUTH COORDINATE
HZCS  .                                                 : HORIZONTAL CO-ORDINATE SYSTEM
LATI  .             -16.65267861111                     : LATITUDE
LONG  .             154.43955                           : LONGITUDE
GDAT  .                                                 : GEODETIC DATUM

~TOPS_PARAMETER 
#MNEM.UNIT                    VALUE                        DESCRIPTION
#--------------- ---         ------------                 -----------------

~TOPS_DEFINITION 
#MNEM.UNIT                 LOG CODE                  CURVE DESCRIPTION
#----------- ----         ------------              -----------------
DEPTH       .M                                      :     {F}
TOPS        .                                       : Formation Tops    {S24}

~TOPS_DATA | TOPS_DEFINITION
        4.6619,Doyles Creek Subgroup   
      435.4607,Horseshoe Creek Subgroup
      514.1221,Apple Tree Flat Subgroup
      732.2914,Watts Sandstone         
      743.8090,Denman Fm               
      881.1697,Mt Leonard Fm           
     1001.4479,Althorpe Fm             
     1015.4708,Malabar Fm              
     1056.3090,Mt Ogilvie Fm           
     1104.1063,Milbrodale Fm           
     1133.5950,Mt Thorley Fm           
     1213.0118,Burnamwood Fm           
     1298.6164,Archerfield Sandstone   
     1324.9931,Mulbring Siltstone      
     1401.3447,Muree Sandstone         
     1498.8386,Branxton Fm             
     1548.1308,Greta Coal Measures     
     1583.3733,DALWOOD GROUP           
     1644.8905,                        

~PARAMETER 
#MNEM.UNIT                    VALUE                        DESCRIPTION
#--------------- ---         ------------                 -----------------

~CURVE 
#MNEM.UNIT                 LOG CODE                  CURVE DESCRIPTION
#----------- ----         ------------              -----------------
DEPTH       .M                                      : DEPTH    {F}
DT          .US/F                                   : Sonic    {F}
GR          .GAPI                                   : Gamma Ray    {F}
LLD         .OHMM                                   : LLD Resistivity    {F}
LLS         .OHMM                                   : LLS Resistivity    {F}
NPHI        .V/V                                    : Neutron Porosity    {F}
RHOB        .K/M3                                   : Offset applied to log data.    {F}

~ASCII | CURVE 
# ...
     864.87000,      119.7360,       91.3090,        1.6130,        1.7460,        0.3700,     2363.4240
     865.02240,      119.1480,       90.0450,        1.6130,        1.7430,        0.3700,     2362.4240
     865.17480,      119.5240,       88.2110,        1.5830,        1.7330,        0.3600,     2370.4240
     865.32720,      120.1170,       89.1620,        1.5670,        1.6580,        0.3660,     2374.4240
     865.47960,      121.2210,       88.7950,        1.5230,        1.5880,        0.3570,     2361.4240
     865.63200,      121.8460,       91.2830,        1.4300,        1.5870,        0.3630,     2353.4240
     865.78440,      122.8750,       88.4790,        1.4650,        1.5870,        0.3640,     2345.4240
     865.93680,      122.1300,       90.6690,        1.5700,        1.6900,        0.3650,     2359.4240
     866.08920,      120.3290,       90.8070,        1.7150,        1.7570,        0.3700,     2369.4240
     866.24160,      120.7880,       87.8210,        1.6590,        1.8020,        0.3460,     2382.4240
     866.39400,      121.7780,       86.9950,        1.5740,        1.7190,        0.3380,     2374.4240
     866.54640,      122.7830,       84.7480,        1.4440,        1.6100,        0.3440,     2363.4240
     866.69880,      124.0280,       86.9460,        1.3910,        1.5360,        0.3740,     2359.4240
     866.85120,      125.0650,       85.1310,        1.4090,        1.5280,        0.3880,     2375.4240
     867.00360,      120.8110,       82.8970,        1.5820,        1.7050,        0.3860,     2404.4240
     867.15600,      114.7410,       81.7110,        1.6050,        1.7640,        0.3650,     2428.4240
     867.30840,      113.4690,       79.4590,        1.5920,        1.7890,        0.3760,     2422.4240
     867.46080,      113.2650,       78.7530,        1.5630,        1.7410,        0.3890,     2391.4240
     867.61320,      122.4310,       81.3910,        1.4410,        1.6310,        0.3930,     2368.4240
     867.76560,      124.5490,       89.7840,        1.4340,        1.5460,        0.3780,     2361.4240
     867.91800,      124.2490,       98.1700,        1.4020,        1.5460,        0.3630,     2361.4240
     868.07040,      123.9340,       96.6640,        1.3970,        1.5400,        0.3680,     2357.4240
     868.22280,      124.6810,       92.9430,        1.4100,        1.5330,        0.3750,     2349.4240
     868.37520,      125.2820,       84.7580,        1.3830,        1.5500,        0.3780,     2350.4240
     868.52760,      126.0670,       81.5390,        1.3940,        1.5530,        0.3800,     2359.4240
     868.68000,      127.1200,       82.8240,        1.3950,        1.5560,        0.3820,     2368.4240
     868.83240,      127.3380,       89.5730,        1.4150,        1.5630,        0.3800,     2368.4240
     868.98480,      126.2040,       98.4660,        1.4330,        1.5790,        0.3790,     2373.4240
     869.13720,      126.0220,      101.4090,        1.4170,        1.5790,        0.3840,     2370.4240
     869.28960,      125.6520,      102.6880,        1.3850,        1.5930,        0.3840,     2360.4240
     869.44200,      125.2210,      102.1330,        1.4060,        1.5830,        0.3660,     2355.4240
     869.59440,      123.5630,       99.8640,        1.4600,        1.6250,        0.3450,     2358.4240
     869.74680,      122.1680,       95.4130,        1.4890,        1.6500,        0.3450,     2365.4240
     869.89920,      124.3970,       95.6700,        1.5100,        1.6450,        0.3620,     2366.4240
     870.05160,      124.1620,       96.8170,        1.5070,        1.6540,        0.3780,     2358.4240
     870.20400,      123.8780,       98.8150,        1.4790,        1.6580,        0.3860,     2352.4240
     870.35640,      125.4200,       99.2570,        1.4760,        1.6680,        0.3840,     2350.4240
     870.50880,      125.9500,       99.9510,        1.5070,        1.6730,        0.3730,     2354.4240
     870.66120,      124.8570,       99.2810,        1.5180,        1.6720,        0.3620,     2361.4240
     870.81360,      123.8930,       96.2400,        1.5060,        1.6830,        0.3600,     2369.4240
     870.96600,      123.6210,       97.3990,        1.5040,        1.6870,        0.3670,     2375.4240
     871.11840,      123.4660,      100.5390,        1.4970,        1.6730,        0.3800,     2378.4240
     871.27080,      123.0770,      100.2210,        1.4880,        1.6700,        0.3880,     2373.4240
     871.42320,      122.8230,       96.1330,        1.4960,        1.6870,        0.3840,     2370.4240
     871.57560,      122.5300,       92.7790,        1.5210,        1.6940,        0.3730,     2371.4240
     871.72800,      122.0320,       92.3460,        1.5610,        1.7050,        0.3690,     2375.4240
     871.88040,      121.6400,       93.5410,        1.5880,        1.7160,        0.3660,     2380.4240
     872.03280,      121.4470,       95.4800,        1.5760,        1.7080,        0.3600,     2383.4240
     872.18520,      121.1100,       97.9100,        1.5520,        1.7010,        0.3610,     2384.4240
     872.33760,      120.3240,       97.9540,        1.5590,        1.7080,        0.3790,     2383.4240
     872.49000,      119.4280,       94.7380,        1.5890,        1.7380,        0.4000,     2382.4240
     872.64240,      118.9400,       91.0370,        1.6170,        1.7710,        0.4020,     2380.4240
     872.79480,      118.7330,       89.8100,        1.6740,        1.8130,        0.3900,     2381.4240
     872.94720,      117.8440,       90.9870,        1.7540,        1.8670,        0.3820,     2384.4240
     873.09960,      116.2280,       92.3330,        1.7960,        1.9170,        0.3820,     2385.4240
     873.25200,      115.4780,       92.0550,        1.8290,        1.9620,        0.3810,     2389.4240
     873.40440,      115.7420,       90.8540,        1.8910,        2.0150,        0.3780,     2415.4240
     873.55680,      113.8370,       90.9140,        1.9660,        2.0930,        0.3540,     2462.4240
     873.70920,      108.9650,       88.6950,        2.0060,        2.1330,        0.3130,     2500.4240
     873.86160,      105.5950,       84.2480,        2.0440,        2.1620,        0.2820,     2490.4240
     874.01400,      104.8060,       81.4540,        2.0170,        2.1660,        0.2890,     2453.4240
     874.16640,      107.5270,       83.2880,        1.9050,        2.0690,        0.3250,     2424.4240
     874.31880,      110.5010,       88.4400,        1.8510,        1.9870,        0.3500,     2417.4240
     874.47120,      112.0490,       88.1860,        1.8080,        1.9310,        0.3630,     2420.4240
     874.62360,      112.9730,       84.9360,        1.7320,        1.8670,        0.3750,     2412.4240
     874.77600,      113.8630,       83.0510,        1.6860,        1.8140,        0.3780,     2401.4240
     874.92840,      113.4660,       84.8040,        1.6550,        1.7770,        0.3710,     2391.4240
     875.08080,      113.4260,       89.9860,        1.6390,        1.7800,        0.3460,     2356.4240
     875.23320,      115.1170,       91.3030,        1.6210,        1.7410,        0.3370,     2341.4240
     875.38560,      118.1420,       92.0970,        1.6200,        1.7650,        0.3490,     2324.4240
     875.53800,      119.5390,       89.7640,        1.6330,        1.7930,        0.3790,     2356.4240
     875.69040,      119.1990,       90.7250,        1.6620,        1.8170,        0.3840,     2366.4240
     875.84280,      116.3920,       95.3040,        1.7410,        1.8770,        0.3720,     2386.4240
     875.99520,      111.9760,       96.2330,        1.7120,        1.9030,        0.3510,     2397.4240
     876.14760,      110.8200,       98.3950,        1.7380,        1.9090,        0.3510,     2408.4240
     876.30000,      110.3210,       90.4520,        1.7620,        1.9610,        0.3460,     2413.4240
     876.45240,      111.7360,       94.7958,        1.7765,        1.9275,        0.3274,     2406.8230
