~Version
VERS  .             3.0                                 : CWLS LOG ASCII STANDARD - VERSION 3.0
WRAP  .             NO                                  : One line per depth step
DLM   .             COMMA                               : Delimiter character between data columns
#Delimiting character ( SPACE TAB OR COMMA ).

~Well
#MNEM.UNIT          DATA                                DESCRIPTION
#----- ----        -----------------                   -----------
STRT  .M                  8.22960                       : FIRST INDEX VALUE
STOP  .M               1654.30200                       : LAST INDEX VALUE
STEP  .M                  0.15240                       : STEP OF INDEX
NULL  .             -999.25                             : NULL VALUE
COMP  .                                                 : COMPANY
WELL  .             ATLAS                               : WELL
FLD   .                                                 : FIELD
LOC   .                                                 : LOCATION
SRVC  .                                                 : SERVICE COMPANY
CTRY  .                                                 : COUNTRY
PROV  .                                                 : PROVINCE
UWI   .                                                 : UNIQUE WELL ID
LIC   .                                                 : LICENSE NUMBER
STAT  .                                                 : STATE
CNTY  .                                                 : COUNTY
API   .                                                 : API NUMBER
DATE  .                                                 : LOG DATE
X     .             653523.9460707                      : X OR EAST-WEST COORDINATE
Y     .             8158307.615707                      : Y OR NORTH-SOUTH COORDINATE
HZCS  .                                                 : HORIZONTAL CO-ORDINATE SYSTEM
LATI  .             -16.65267861111                     : LATITUDE
LONG  .             154.43955                           : LONGITUDE
GDAT  .                                                 : GEODETIC DATUM

~TOPS_PARAMETER 
#MNEM.UNIT                    VALUE                        DESCRIPTION
#--------------- ---         ------------                 -----------------

~TOPS_DEFINITION 
#MNEM.UNIT                 LOG CODE                  CURVE DESCRIPTION
#----------- ----         ------------              -----------------
DEPTH       .M                                      :     {F}
TOPS        .                                       : Formation Tops    {S24}

~TOPS_DATA | TOPS_DEFINITION
        4.6619,Doyles Creek Subgroup   
      435.4607,Horseshoe Creek Subgroup
      514.1221,Apple Tree Flat Subgroup
      732.2914,Watts Sandstone         
      743.8090,Denman Fm               
      881.1697,Mt Leonard Fm           
     1001.4479,Althorpe Fm             
     1015.4708,Malabar Fm              
     1056.3090,Mt Ogilvie Fm           
     1104.1063,Milbrodale Fm           
     1133.5950,Mt Thorley Fm           
     1213.0118,Burnamwood Fm           
     1298.6164,Archerfield Sandstone   
     1324.9931,Mulbring Siltstone      
     1401.3447,Muree Sandstone         
     1498.8386,Branxton Fm             
     1548.1308,Greta Coal Measures     
     1583.3733,DALWOOD GROUP           
     1644.8905,                        

~PARAMETER 
#MNEM.UNIT                    VALUE                        DESCRIPTION
#--------------- ---         ------------                 -----------------

~CURVE 
#MNEM.UNIT                 LOG CODE                  CURVE DESCRIPTION
#----------- ----         ------------              -----------------
DEPTH       .M                                      : DEPTH    {F}
DT          .US/F                                   : Sonic    {F}
GR          .GAPI                                   : Gamma Ray    {F}
LLD         .OHMM                                   : LLD Resistivity    {F}
LLS         .OHMM                                   : LLS Resistivity    {F}
NPHI        .V/V                                    : Neutron Porosity    {F}
RHOB        .K/M3                                   : Offset applied to log data.    {F}

~ASCII | CURVE 
# ...
    1639.36680,       63.0379,       35.9988,       15.2721,       15.6074,       15.6074,     2539.1240
    1639.51920,       62.7802,       35.3005,       13.9595,       14.4185,       14.4185,     2523.2240
    1639.67160,       62.2817,       34.1444,       13.4407,       13.9481,       13.9481,     2509.7240
    1639.82400,       62.6061,       34.0397,       13.1756,       13.7625,       13.7625,     2512.0240
    1639.97640,       63.6583,       35.3377,       12.3203,       12.9758,       12.9758,     2510.6240
    1640.12880,       64.7506,       35.3901,       11.4725,       12.0820,       12.0820,     2498.5240
    1640.28120,       65.6348,       35.1006,       11.1845,       11.7181,       11.7181,     2495.0240
    1640.43360,       65.9813,       35.3217,       11.2822,       11.7516,       11.7516,     2499.3230
    1640.58600,       66.3978,       35.7893,       11.4200,       11.8722,       11.8722,     2509.4240
    1640.73840,       67.3240,       35.5725,       11.3112,       11.7010,       11.7010,     2522.0240
    1640.89080,       67.9928,       34.9838,       10.9889,       11.2479,       11.2479,     2531.4240
    1641.04320,       67.8569,       34.2327,       11.1340,       11.1471,       11.1471,     2532.7240
    1641.19560,       66.7820,       33.5470,       12.6540,       12.3129,       12.3129,     2535.7240
    1641.34800,       65.5947,       32.9126,       15.4607,       14.6395,       14.6395,     2539.8230
    1641.50040,       64.8638,       32.4545,       17.4769,       16.1854,       16.1854,     2542.6240
    1641.65280,       65.3689,       32.2819,       15.7088,       14.3988,       14.3988,     2533.0230
    1641.80520,       66.6406,       32.5642,       11.2006,       10.3184,       10.3184,     2530.1240
    1641.95760,       68.1284,       33.9123,        7.5158,        6.9984,        6.9984,     2539.0240
    1642.11000,       69.8924,       34.7106,        5.5854,        5.2306,        5.2306,     2546.9240
    1642.26240,       71.0612,       33.9440,        4.6756,        4.3898,        4.3898,     2533.1240
    1642.41480,       71.4447,       32.0979,        4.2835,        4.0217,        4.0217,     2504.5240
    1642.56720,       71.9899,       31.2583,        4.0546,        3.8093,        3.8093,     2473.9240
    1642.71960,       73.0013,       31.7960,        3.7370,        3.5316,        3.5316,     2454.5230
    1642.87200,       74.1199,       32.2054,        3.4051,        3.2286,        3.2286,     2447.9240
    1643.02440,       74.9980,       31.9571,        3.2428,        3.0493,        3.0493,     2443.9240
    1643.17680,       75.4710,       31.6235,        3.1975,        2.9679,        2.9679,     2435.4240
    1643.32920,       75.5207,       31.9047,        3.1202,        2.8640,        2.8640,     2419.0240
    1643.48160,       75.3673,       32.7691,        3.0028,        2.7333,        2.7333,     2406.9240
    1643.63400,       75.0667,       33.9343,        2.9320,        2.6569,        2.6569,     2404.8230
    1643.78640,       74.2244,       35.1466,        3.0537,        2.7403,        2.7403,     2404.2240
    1643.93880,       73.4746,       35.8494,        3.4480,        3.0109,        3.0109,     2398.9240
    1644.09120,       73.5833,       36.0960,        3.8335,        3.2462,        3.2462,     2394.2240
    1644.24360,       74.1281,       36.3006,        3.8055,        3.2000,        3.2000,     2403.6240
    1644.39600,       74.7995,       36.7713,        3.3729,        2.9130,        2.9130,     2426.7240
    1644.54840,       75.2254,       37.5528,        2.9112,        2.6026,        2.6026,     2441.6240
    1644.70080,       75.4732,       37.5452,        2.7082,        2.4480,        2.4480,     2425.2240
    1644.85320,       75.8894,       36.0472,        2.6928,        2.4286,        2.4286,     2391.9240
    1645.00560,       76.4885,       28.5658,        2.6899,        2.4212,        2.4212,     2390.2240
    1645.15800,       77.0746,     -999.2500,        2.6803,        2.4184,        2.4184,     2427.6240
    1645.31040,       77.2218,     -999.2500,        2.6754,        2.4148,        2.4148,     2468.0230
    1645.46280,       77.0325,     -999.2500,        2.6719,        2.4142,        2.4142,     2497.8240
    1645.61520,       76.8120,     -999.2500,        2.6627,        2.4160,        2.4160,     2508.4240
    1645.76760,       76.5387,     -999.2500,        2.6601,        2.4173,        2.4173,     2505.1240
    1645.92000,       76.2079,     -999.2500,        2.6668,        2.4169,        2.4169,     2498.3240
    1646.07240,       75.7569,     -999.2500,        2.6712,        2.4119,        2.4119,     2499.6240
    1646.22480,       75.1356,     -999.2500,        2.6670,        2.4099,        2.4099,     2516.9240
    1646.37720,       74.7070,     -999.2500,        2.6677,        2.4127,        2.4127,     2543.1240
    1646.52960,       74.7049,     -999.2500,        2.6757,        2.4150,        2.4150,     2564.7240
    1646.68200,       74.7768,     -999.2500,        2.6793,        2.4176,        2.4176,     2589.6240
    1646.83440,       74.6640,     -999.2500,        2.6740,        2.4184,        2.4184,     2632.1240
    1646.98680,       74.5342,     -999.2500,        2.6632,        2.4146,        2.4146,     2680.3230
    1647.13920,       74.4951,     -999.2500,        2.6659,        2.4149,        2.4149,     2712.4240
    1647.29160,       74.3484,     -999.2500,        2.6720,        2.4173,        2.4173,     2722.8230
    1647.44400,       74.0401,     -999.2500,        2.6707,        2.4221,        2.4221,     2722.5240
    1647.59640,       73.9944,     -999.2500,        2.6695,        2.4255,        2.4255,     2720.9240
    1647.74880,       74.2444,     -999.2500,        2.6695,        2.4268,        2.4268,     2716.8230
    1647.90120,       74.3734,     -999.2500,        2.6731,        2.4244,        2.4244,     2705.6240
    1648.05360,       74.3750,     -999.2500,        2.6762,        2.4172,        2.4172,     2692.4240
    1648.20600,       74.3128,     -999.2500,        2.6703,        2.4155,        2.4155,     2687.3230
    1648.35840,       74.2534,     -999.2500,        2.6646,        2.4160,        2.4160,     2693.0240
    1648.51080,       74.2821,     -999.2500,        2.0172,        2.4109,        2.4109,     2697.5230
    1648.66320,       74.2450,     -999.2500,        0.7882,        2.3998,        2.3998,     2691.7240
    1648.81560,       74.2251,     -999.2500,        0.1844,        2.3935,        2.3935,     2684.0230
    1648.96800,       74.2481,     -999.2500,        0.1310,        2.3930,        2.3930,     2682.8230
    1649.12040,       74.1836,     -999.2500,        0.1310,        2.3930,        2.3930,     2686.3230
    1649.27280,       74.0987,     -999.2500,        0.1310,        2.3930,        2.3930,     2690.3230
    1649.42520,       74.0656,     -999.2500,        0.1310,        2.3930,        2.3930,     2699.6240
    1649.57760,       74.0624,     -999.2500,        0.1310,        2.3930,        2.3930,     2714.2240
    1649.73000,       74.0621,     -999.2500,        0.1310,        2.3930,        2.3930,     2722.4240
    1649.88240,       74.1642,     -999.2500,        0.1310,        2.3930,        2.3930,     2723.9240
    1650.03480,       74.2388,     -999.2500,        0.1310,        2.3930,        2.3930,     2724.9240
    1650.18720,       74.1819,     -999.2500,        0.1310,        2.3930,        2.3930,     2721.4240
    1650.33960,       74.1330,     -999.2500,        0.1310,        2.3930,        2.3930,     2709.9240
    1650.49200,       74.1250,     -999.2500,        0.1310,        2.3930,        2.3930,     2697.9240
    1650.64440,       74.1250,     -999.2500,        0.1310,        2.3930,        2.3930,     2693.4240
    1650.79680,       74.1250,     -999.2500,        0.1310,        2.3930,        2.3930,     2693.9240
    1650.94920,       74.1250,     -999.2500,        0.1310,        2.3930,        2.3930,     2698.0230
