~Version
VERS  .             3.0                                 : CWLS LOG ASCII STANDARD - VERSION 3.0
WRAP  .             NO                                  : One line per depth step
DLM   .             COMMA                               : Delimiter character between data columns
#Delimiting character ( SPACE TAB OR COMMA ).

~Well
#MNEM.UNIT          DATA                                DESCRIPTION
#----- ----        -----------------                   -----------
STRT  .M                457.96200                       : FIRST INDEX VALUE
STOP  .M               1608.73440                       : LAST INDEX VALUE
STEP  .M                  0.15240                       : STEP OF INDEX
NULL  .             -999.25                             : NULL VALUE
COMP  .                                                 : COMPANY
WELL  .             BOTEIN                              : WELL
FLD   .                                                 : FIELD
LOC   .                                                 : LOCATION
SRVC  .                                                 : SERVICE COMPANY
CTRY  .                                                 : COUNTRY
PROV  .                                                 : PROVINCE
UWI   .                                                 : UNIQUE WELL ID
LIC   .                                                 : LICENSE NUMBER
STAT  .                                                 : STATE
CNTY  .                                                 : COUNTY
API   .                                                 : API NUMBER
DATE  .                                                 : LOG DATE
X     .             652587.7147133                      : X OR EAST-WEST COORDINATE
Y     .             8157411.965436                      : Y OR NORTH-SOUTH COORDINATE
HZCS  .                                                 : HORIZONTAL CO-ORDINATE SYSTEM
LATI  .             -16.66083333333                     : LATITUDE
LONG  .             154.4308333333                      : LONGITUDE
GDAT  .                                                 : GEODETIC DATUM

~TOPS_PARAMETER 
#MNEM.UNIT                    VALUE                        DESCRIPTION
#--------------- ---         ------------                 -----------------

~TOPS_DEFINITION 
#MNEM.UNIT                 LOG CODE                  CURVE DESCRIPTION
#----------- ----         ------------              -----------------
DEPTH       .M                                      :     {F}
TOPS        .                                       : Formation Tops    {S24}

~TOPS_DATA | TOPS_DEFINITION
      458.3276,Horseshoe Creek Subgroup
      505.0000,Apple Tree Flat Subgroup
      740.7975,Watts Sandstone         
      753.0000,Denman Fm               
      851.4292,Mt Leonard Fm           
      989.0000,Althorpe Fm             
      996.7500,Malabar Fm              
     1037.4525,Mt Ogilvie Fm           
     1080.0000,Milbrodale Fm           
     1145.2545,Mt Thorley Fm           
     1194.8500,Burnamwood Fm           
     1309.0875,Archerfield Sandstone   
     1321.0000,Mulbring Siltstone      
     1390.0000,Muree Sandstone         
     1502.0000,Branxton Fm             
     1564.4045,Greta Coal Measures     
     1583.3452,Dalwood Group           
     1587.8602,Dalwood Group           

~PARAMETER 
#MNEM.UNIT                    VALUE                        DESCRIPTION
#--------------- ---         ------------                 -----------------

~CURVE 
#MNEM.UNIT                 LOG CODE                  CURVE DESCRIPTION
#----------- ----         ------------              -----------------
DEPTH       .M                                      : Copied from set DDBHC1.    {F}
DT          .US/F                                   : Loaded from LIS tape.  Reversed.    {F}
GR          .GAPI                                   : Split GR_1 from 1502.50 to 5228.01    {F}
LLD         .OHMM                                   : Loaded from LIS tape.  Reversed.    {F}
LLS         .OHMM                                   : Loaded from LIS tape.  Reversed.    {F}
NPHI        .V/V                                    : Loaded from LIS tape.  Reversed.    {F}
RHOB        .K/M3                                   : Offset applied to log data.    {F}

~ASCII | CURVE 
# ...
    1338.07200,      100.7500,       96.6250,        3.2452,        3.2823,      0.290527,     2655.8900
    1338.22440,      100.2500,       94.1875,        3.2088,        3.2824,      0.284668,     2653.9900
    1338.37680,       99.2500,       99.4375,        3.2293,        3.2691,      0.283203,     2655.8900
    1338.52920,       98.7500,       98.6875,        3.3185,        3.2899,      0.285645,     2698.8900
    1338.68160,      100.1250,       96.3750,        3.3383,        3.3342,      0.283691,     2741.8900
    1338.83400,       98.1250,       91.1875,        3.2893,        3.2785,      0.264160,     2767.2900
    1338.98640,       96.3750,       90.6875,        3.1844,        3.1427,      0.252930,     2821.9900
    1339.13880,       96.1250,       93.8750,        2.9945,        2.9400,      0.243164,     2876.5900
    1339.29120,       97.8750,       94.5000,        2.8846,        2.7690,      0.253418,     2806.2900
    1339.44360,      100.1250,       94.5000,        2.9093,        2.8043,      0.267090,     2640.2900
    1339.59600,      101.7500,       97.2500,        3.0642,        2.9228,      0.267578,     2577.7900
    1339.74840,       98.6250,       92.8125,        3.3340,        3.1627,      0.256836,     2579.7900
    1339.90080,       97.0000,       90.3125,        3.4625,        3.2710,      0.245117,     2622.6900
    1340.05320,       94.3750,       90.0625,        3.4757,        3.3051,      0.248047,     2640.2900
    1340.20560,       92.2500,       93.3750,        3.4185,        3.3026,      0.246582,     2642.2900
    1340.35800,       95.7500,       96.6250,        3.3156,        3.2005,      0.235840,     2618.7900
    1340.51040,       96.7500,       95.0000,        3.4107,        3.2336,      0.247070,     2605.1900
    1340.66280,      100.7500,       93.6875,        3.3092,        3.1552,      0.253418,     2601.2910
    1340.81520,       98.8750,       94.5625,        3.2520,        3.1232,      0.261719,     2616.8900
    1340.96760,       98.1250,       97.5625,        3.2152,        3.0849,      0.249512,     2616.8900
    1341.12000,       98.5000,      101.5620,        3.1422,        3.0766,      0.248047,     2609.0900
    1341.27240,       99.1250,       96.7500,        3.2569,        3.1262,      0.260254,     2607.0900
    1341.42480,       99.8750,       92.0625,        3.3766,        3.2520,      0.278809,     2609.0900
    1341.57720,       99.2500,       88.5625,        3.4842,        3.3472,      0.290527,     2616.8900
    1341.72960,       97.5000,       87.5625,        3.6531,        3.4949,      0.271973,     2607.0900
    1341.88200,       96.8750,       83.2500,        3.9118,        3.7974,      0.255371,     2609.0900
    1342.03440,       97.0000,       80.7500,        4.2352,        4.1211,      0.244141,     2610.9900
    1342.18680,       95.8750,       77.5000,        4.7038,        4.6161,      0.244629,     2620.7900
    1342.33920,       94.7500,       80.5625,        5.3993,        5.2630,      0.240234,     2618.7900
    1342.49160,       93.8750,       74.0000,        6.0399,        5.9219,      0.237305,     2605.1900
    1342.64400,       92.5000,       74.5000,        6.6854,        6.5080,      0.232910,     2595.3900
    1342.79640,       93.1250,       71.6875,        6.7650,        6.5922,      0.229004,     2597.3900
    1342.94880,       91.6250,       73.5625,        6.5375,        6.4646,      0.218750,     2597.3900
    1343.10120,       93.2500,       70.8750,        6.1403,        6.1483,      0.231934,     2585.5900
    1343.25360,       93.2500,       70.0625,        5.8574,        5.9433,      0.246582,     2568.0900
    1343.40600,       94.5000,       73.4375,        5.9865,        6.0937,      0.254883,     2569.9900
    1343.55840,       95.5000,       76.9375,        6.0310,        6.2034,      0.262695,     2571.9900
    1343.71080,       93.7500,       71.8125,        6.4292,        6.6471,      0.243652,     2579.7900
    1343.86320,       94.7500,       70.6250,        7.0821,        7.2395,      0.244629,     2577.7900
    1344.01560,       94.2500,       66.9375,        7.7705,        7.9328,      0.218750,     2581.6900
    1344.16800,       93.2500,       65.4375,        8.5781,        8.8042,      0.221680,     2577.7900
    1344.32040,       92.1250,       58.4062,        9.2766,        9.4875,      0.213867,     2577.7900
    1344.47280,       92.0000,       56.7500,        9.8918,       10.0915,      0.217773,     2577.7900
    1344.62520,       90.6250,       58.7500,       10.2030,       10.4295,      0.213867,     2581.6900
    1344.77760,       89.7500,       59.6250,       10.4075,       10.6442,      0.214844,     2573.8900
    1344.93000,       90.0000,       54.0000,       10.6617,       10.8743,      0.219727,     2560.1900
    1345.08240,       89.5000,       50.4688,       11.0350,       11.1785,      0.225098,     2550.4900
    1345.23480,       89.2500,       49.4688,       11.2626,       11.4617,      0.220215,     2548.4900
    1345.38720,       89.3750,       53.3750,       11.4243,       11.6177,      0.214844,     2546.5900
    1345.53960,       89.1250,       57.5312,       11.4448,       11.6861,      0.213867,     2548.4900
    1345.69200,       89.7500,       60.3125,       11.3868,       11.7123,      0.218750,     2548.4900
    1345.84440,       89.8750,       58.1875,       11.2631,       11.6629,      0.225098,     2538.7910
    1345.99680,       91.0000,       59.2500,       11.1642,       11.5364,      0.222168,     2536.7900
    1346.14920,       90.6250,       58.6875,       11.0708,       11.4820,      0.228027,     2525.0900
    1346.30160,       91.2500,       61.6250,       10.9024,       11.2258,      0.224609,     2534.8900
    1346.45400,       91.0000,       57.5312,       11.1343,       11.4623,      0.225586,     2540.6900
    1346.60640,       90.3750,       55.7500,       12.8850,       13.1089,      0.222656,     2546.5900
    1346.75880,       89.7500,       56.2188,       14.9900,       15.2882,      0.217773,     2546.5900
    1346.91120,       87.8750,       54.0312,       15.8465,       16.1651,      0.207520,     2560.1900
    1347.06360,       85.1250,       54.6562,       15.1922,       15.5629,      0.190430,     2568.0900
    1347.21600,       83.3750,       57.1875,       12.7244,       13.3313,      0.188477,     2573.8900
    1347.36840,       85.6250,       62.5938,       10.8596,       11.4469,      0.194336,     2566.0900
    1347.52080,       86.6250,       61.2812,       10.1113,       10.6257,      0.214844,     2562.1900
    1347.67320,       88.3750,       58.3750,        9.7281,       10.3097,      0.220703,     2562.1900
    1347.82560,       89.1250,       56.7812,        9.4478,       10.0954,      0.232422,     2581.6900
    1347.97800,       89.7500,       62.1875,        8.9719,        9.6188,      0.229004,     2583.6900
    1348.13040,       89.7500,       64.2500,        8.5773,        9.0961,      0.237793,     2585.5900
    1348.28280,       90.1250,       66.9375,        8.9849,        9.3998,      0.242188,     2564.0900
    1348.43520,       90.7500,       64.5625,        9.6528,        9.9842,      0.237793,     2571.9900
    1348.58760,       90.6250,       60.4062,       10.7098,       10.7438,      0.232422,     2575.8900
    1348.74000,       88.8750,       52.5000,       12.4547,       12.3167,      0.223145,     2573.8900
    1348.89240,       89.1250,       52.0000,       12.5492,       12.4229,      0.215332,     2562.1900
    1349.04480,       88.5000,       53.6250,       11.7817,       11.6454,      0.206055,     2554.3900
    1349.19720,       87.5000,       58.8438,       11.2715,       11.2500,      0.198730,     2558.2900
    1349.34960,       88.2500,       59.6562,       10.8804,       10.9042,      0.210938,     2560.1900
    1349.50200,       88.2500,       57.6562,       11.5903,       11.6444,      0.213379,     2564.0900
    1349.65440,       88.5000,       58.3438,       12.1365,       12.1548,      0.223145,     2571.9900
