~Version
VERS  .             3.0                                 : CWLS LOG ASCII STANDARD - VERSION 3.0
WRAP  .             NO                                  : One line per depth step
DLM   .             COMMA                               : Delimiter character between data columns
#Delimiting character ( SPACE TAB OR COMMA ).

~Well
#MNEM.UNIT          DATA                                DESCRIPTION
#----- ----        -----------------                   -----------
STRT  .M                457.96200                       : FIRST INDEX VALUE
STOP  .M               1608.73440                       : LAST INDEX VALUE
STEP  .M                  0.15240                       : STEP OF INDEX
NULL  .             -999.25                             : NULL VALUE
COMP  .                                                 : COMPANY
WELL  .             BOTEIN                              : WELL
FLD   .                                                 : FIELD
LOC   .                                                 : LOCATION
SRVC  .                                                 : SERVICE COMPANY
CTRY  .                                                 : COUNTRY
PROV  .                                                 : PROVINCE
UWI   .                                                 : UNIQUE WELL ID
LIC   .                                                 : LICENSE NUMBER
STAT  .                                                 : STATE
CNTY  .                                                 : COUNTY
API   .                                                 : API NUMBER
DATE  .                                                 : LOG DATE
X     .             652587.7147133                      : X OR EAST-WEST COORDINATE
Y     .             8157411.965436                      : Y OR NORTH-SOUTH COORDINATE
HZCS  .                                                 : HORIZONTAL CO-ORDINATE SYSTEM
LATI  .             -16.66083333333                     : LATITUDE
LONG  .             154.4308333333                      : LONGITUDE
GDAT  .                                                 : GEODETIC DATUM

~TOPS_PARAMETER 
#MNEM.UNIT                    VALUE                        DESCRIPTION
#--------------- ---         ------------                 -----------------

~TOPS_DEFINITION 
#MNEM.UNIT                 LOG CODE                  CURVE DESCRIPTION
#----------- ----         ------------              -----------------
DEPTH       .M                                      :     {F}
TOPS        .                                       : Formation Tops    {S24}

~TOPS_DATA | TOPS_DEFINITION
      458.3276,Horseshoe Creek Subgroup
      505.0000,Apple Tree Flat Subgroup
      740.7975,Watts Sandstone         
      753.0000,Denman Fm               
      851.4292,Mt Leonard Fm           
      989.0000,Althorpe Fm             
      996.7500,Malabar Fm              
     1037.4525,Mt Ogilvie Fm           
     1080.0000,Milbrodale Fm           
     1145.2545,Mt Thorley Fm           
     1194.8500,Burnamwood Fm           
     1309.0875,Archerfield Sandstone   
     1321.0000,Mulbring Siltstone      
     1390.0000,Muree Sandstone         
     1502.0000,Branxton Fm             
     1564.4045,Greta Coal Measures     
     1583.3452,Dalwood Group           
     1587.8602,Dalwood Group           

~PARAMETER 
#MNEM.UNIT                    VALUE                        DESCRIPTION
#--------------- ---         ------------                 -----------------

~CURVE 
#MNEM.UNIT                 LOG CODE                  CURVE DESCRIPTION
#----------- ----         ------------              -----------------
DEPTH       .M                                      : Copied from set DDBHC1.    {F}
DT          .US/F                                   : Loaded from LIS tape.  Reversed.    {F}
GR          .GAPI                                   : Split GR_1 from 1502.50 to 5228.01    {F}
LLD         .OHMM                                   : Loaded from LIS tape.  Reversed.    {F}
LLS         .OHMM                                   : Loaded from LIS tape.  Reversed.    {F}
NPHI        .V/V                                    : Loaded from LIS tape.  Reversed.    {F}
RHOB        .K/M3                                   : Offset applied to log data.    {F}

~ASCII | CURVE 
# ...
    1291.13280,       84.5000,       90.6250,       17.6435,       13.5548,      0.196777,     2569.9900
    1291.28520,       84.8750,       87.3125,       16.7914,       13.0447,      0.204590,     2573.8900
    1291.43760,       85.0000,       84.0000,       15.1597,       11.9482,      0.211426,     2571.9900
    1291.59000,       84.5000,       88.1875,       14.2438,       11.2236,      0.212402,     2566.0900
    1291.74240,       85.8750,       93.1875,       14.8167,       11.5545,      0.210449,     2562.1900
    1291.89480,       85.5000,      101.8120,       17.1825,       13.0754,      0.200684,     2575.8900
    1292.04720,       85.0000,      110.6250,       20.3913,       15.1219,      0.201660,     2612.9900
    1292.19960,       84.2500,      112.2500,       22.8821,       16.8181,      0.200684,     2636.3900
    1292.35200,       83.8750,      106.6880,       22.3733,       16.7060,      0.210449,     2648.0900
    1292.50440,       83.3750,       98.9375,       19.0202,       14.3806,      0.221680,     2622.6900
    1292.65680,       84.0000,       95.5000,       16.2952,       12.3998,      0.225586,     2601.2910
    1292.80920,       85.3750,       94.0625,       15.2024,       11.6654,      0.229492,     2579.7900
    1292.96160,       84.8750,       93.8125,       15.6669,       11.8414,      0.229004,     2573.8900
    1293.11400,       85.7500,       97.9375,       17.0215,       12.5009,      0.218262,     2577.7900
    1293.26640,       85.2500,       98.7500,       18.4804,       13.2684,      0.208008,     2583.6900
    1293.41880,       84.7500,      107.4380,       19.7024,       13.7230,      0.192871,     2591.4900
    1293.57120,       84.5000,      109.2500,       19.0279,       13.1546,      0.206055,     2587.5900
    1293.72360,       84.0000,      112.8120,       18.9835,       12.8455,      0.201660,     2583.6900
    1293.87600,       85.1250,      106.0000,       19.3232,       12.8797,      0.208984,     2585.5900
    1294.02840,       84.2500,      101.8750,       18.8176,       12.3560,      0.205566,     2589.4900
    1294.18080,       84.5000,      103.3120,       18.1470,       11.6753,      0.215332,     2583.6900
    1294.33320,       83.3750,      106.5000,       17.8595,       11.4562,      0.211426,     2564.0900
    1294.48560,       83.8750,      110.5620,       16.8559,       10.6663,      0.209473,     2550.4900
    1294.63800,       83.0000,      105.7500,       15.9276,        9.9923,      0.203125,     2544.5900
    1294.79040,       82.7500,       95.1250,       15.3506,        9.5917,      0.207031,     2546.5900
    1294.94280,       81.7500,       88.1250,       14.6700,        9.2288,      0.206543,     2538.7910
    1295.09520,       81.3750,       88.3750,       15.1713,        9.2496,      0.200684,     2530.8900
    1295.24760,       82.0000,       94.3750,       16.2509,        9.6499,      0.194824,     2528.9900
    1295.40000,       82.1250,       95.2500,       17.4353,       10.1951,      0.190918,     2532.8900
    1295.55240,       82.7500,       92.8125,       17.9907,       10.3876,      0.190918,     2546.5900
    1295.70480,       82.3750,       87.7500,       16.7884,        9.6243,      0.197266,     2550.4900
    1295.85720,       81.5000,       88.1875,       15.8160,        9.1277,      0.196777,     2556.2900
    1296.00960,       82.3750,       85.6875,       15.6622,        8.9924,      0.193848,     2544.5900
    1296.16200,       81.7500,       86.8125,       15.6790,        8.8043,      0.181641,     2536.7900
    1296.31440,       82.1250,       81.5625,       17.0702,        9.3153,      0.185547,     2526.9900
    1296.46680,       81.6250,       86.3125,       17.9407,        9.7950,      0.189453,     2526.9900
    1296.61920,       81.2500,       85.0625,       17.9424,        9.7714,      0.187988,     2534.8900
    1296.77160,       81.3750,       96.0625,       18.0231,        9.7170,      0.185059,     2534.8900
    1296.92400,       81.2500,       95.0000,       18.9709,       10.1106,      0.185547,     2550.4900
    1297.07640,       81.7500,       97.9375,       19.5934,       10.4531,      0.187012,     2554.3900
    1297.22880,       82.3750,       95.1250,       19.4710,       10.4156,      0.188477,     2575.8900
    1297.38120,       82.2500,       93.5000,       18.6697,       10.0424,      0.196289,     2571.9900
    1297.53360,       81.2500,       91.0625,       17.6484,        9.8081,      0.203613,     2569.9900
    1297.68600,       81.0000,       82.3750,       16.9388,        9.4688,      0.194336,     2560.1900
    1297.83840,       81.3750,       71.1250,       16.7609,        9.3913,      0.179688,     2560.1900
    1297.99080,       81.8750,       63.9688,       16.8460,        9.4690,      0.186523,     2560.1900
    1298.14320,       82.3750,       68.4375,       16.0441,        9.7592,      0.189941,     2562.1900
    1298.29560,       81.8750,       70.8750,       15.7585,        9.8000,      0.185547,     2562.1900
    1298.44800,       81.2500,       68.8750,       15.8352,        9.8672,      0.175781,     2550.4900
    1298.60040,       81.3750,       67.2500,       15.9137,        9.8725,      0.171387,     2540.6900
    1298.75280,       81.5000,       77.6250,       16.0416,       10.0005,      0.177734,     2548.4900
    1298.90520,       82.1250,       83.0000,       17.0466,       10.6155,      0.163086,     2544.5900
    1299.05760,       81.7500,       87.6875,       18.4694,       11.4692,      0.175781,     2548.4900
    1299.21000,       81.8750,       95.3750,       20.2409,       12.6866,      0.183105,     2585.5900
    1299.36240,       81.5000,      107.5620,       22.5820,       14.1722,      0.202148,     2650.0900
    1299.51480,       81.8750,      113.8120,       25.3742,       16.4428,      0.195312,     2683.2900
    1299.66720,       81.8750,      108.2500,       22.0424,       15.3581,      0.196289,     2675.4900
    1299.81960,       80.8750,      101.5000,       18.2862,       13.4129,      0.197266,     2675.4900
    1299.97200,       81.1250,       87.0000,       15.5465,       11.7520,      0.213379,     2626.5900
    1300.12440,       82.3750,       77.2500,       14.3186,       10.8334,      0.226074,     2560.1900
    1300.27680,       84.3750,       74.8750,       15.6532,       11.8133,      0.225586,     2511.3900
    1300.42920,       85.5000,       82.6875,       17.1742,       13.2068,      0.216797,     2523.0900
    1300.58160,       84.3750,       92.0625,       18.6735,       14.8941,      0.201172,     2583.6900
    1300.73400,       82.2500,      101.3120,       18.2835,       15.6237,      0.198730,     2659.8900
    1300.88640,       81.2500,      105.1880,       16.8496,       14.9096,      0.199707,     2722.3900
    1301.03880,       81.0000,      107.1250,       14.9589,       13.6259,      0.207520,     2737.9900
    1301.19120,       80.1250,       98.5625,       13.3627,       12.4156,      0.215820,     2724.2900
    1301.34360,       79.6250,       96.3125,       12.5860,       11.9861,      0.220215,     2679.3900
    1301.49600,       79.0000,      100.7500,       12.0736,       11.6623,      0.200684,     2679.3900
    1301.64840,       80.0000,      114.1880,       12.5187,       11.9831,      0.189453,     2706.6900
    1301.80080,       81.8750,      129.6250,       13.0683,       12.7334,      0.210449,     2769.1900
    1301.95320,       83.0000,      134.8750,       12.6231,       12.5942,      0.266113,     2812.1900
    1302.10560,       84.3750,      139.8750,       12.2501,       12.2082,      0.293945,     2855.1900
    1302.25800,       84.5000,      136.6250,       12.1720,       12.0517,      0.293945,     2896.1900
    1302.41040,       85.8750,      133.3750,       12.7734,       12.6366,      0.289062,     2825.8900
    1302.56280,       86.0000,      131.6250,       14.0561,       13.7472,      0.298828,     2726.2910
    1302.71520,       85.6250,      126.4380,       15.4439,       15.0694,      0.303223,     2679.3900
