~Version
VERS  .             3.0                                 : CWLS LOG ASCII STANDARD - VERSION 3.0
WRAP  .             NO                                  : One line per depth step
DLM   .             COMMA                               : Delimiter character between data columns
#Delimiting character ( SPACE TAB OR COMMA ).

~Well
#MNEM.UNIT          DATA                                DESCRIPTION
#----- ----        -----------------                   -----------
STRT  .M                457.96200                       : FIRST INDEX VALUE
STOP  .M               1608.73440                       : LAST INDEX VALUE
STEP  .M                  0.15240                       : STEP OF INDEX
NULL  .             -999.25                             : NULL VALUE
COMP  .                                                 : COMPANY
WELL  .             BOTEIN                              : WELL
FLD   .                                                 : FIELD
LOC   .                                                 : LOCATION
SRVC  .                                                 : SERVICE COMPANY
CTRY  .                                                 : COUNTRY
PROV  .                                                 : PROVINCE
UWI   .                                                 : UNIQUE WELL ID
LIC   .                                                 : LICENSE NUMBER
STAT  .                                                 : STATE
CNTY  .                                                 : COUNTY
API   .                                                 : API NUMBER
DATE  .                                                 : LOG DATE
X     .             652587.7147133                      : X OR EAST-WEST COORDINATE
Y     .             8157411.965436                      : Y OR NORTH-SOUTH COORDINATE
HZCS  .                                                 : HORIZONTAL CO-ORDINATE SYSTEM
LATI  .             -16.66083333333                     : LATITUDE
LONG  .             154.4308333333                      : LONGITUDE
GDAT  .                                                 : GEODETIC DATUM

~TOPS_PARAMETER 
#MNEM.UNIT                    VALUE                        DESCRIPTION
#--------------- ---         ------------                 -----------------

~TOPS_DEFINITION 
#MNEM.UNIT                 LOG CODE                  CURVE DESCRIPTION
#----------- ----         ------------              -----------------
DEPTH       .M                                      :     {F}
TOPS        .                                       : Formation Tops    {S24}

~TOPS_DATA | TOPS_DEFINITION
      458.3276,Horseshoe Creek Subgroup
      505.0000,Apple Tree Flat Subgroup
      740.7975,Watts Sandstone         
      753.0000,Denman Fm               
      851.4292,Mt Leonard Fm           
      989.0000,Althorpe Fm             
      996.7500,Malabar Fm              
     1037.4525,Mt Ogilvie Fm           
     1080.0000,Milbrodale Fm           
     1145.2545,Mt Thorley Fm           
     1194.8500,Burnamwood Fm           
     1309.0875,Archerfield Sandstone   
     1321.0000,Mulbring Siltstone      
     1390.0000,Muree Sandstone         
     1502.0000,Branxton Fm             
     1564.4045,Greta Coal Measures     
     1583.3452,Dalwood Group           
     1587.8602,Dalwood Group           

~PARAMETER 
#MNEM.UNIT                    VALUE                        DESCRIPTION
#--------------- ---         ------------                 -----------------

~CURVE 
#MNEM.UNIT                 LOG CODE                  CURVE DESCRIPTION
#----------- ----         ------------              -----------------
DEPTH       .M                                      : Copied from set DDBHC1.    {F}
DT          .US/F                                   : Loaded from LIS tape.  Reversed.    {F}
GR          .GAPI                                   : Split GR_1 from 1502.50 to 5228.01    {F}
LLD         .OHMM                                   : Loaded from LIS tape.  Reversed.    {F}
LLS         .OHMM                                   : Loaded from LIS tape.  Reversed.    {F}
NPHI        .V/V                                    : Loaded from LIS tape.  Reversed.    {F}
RHOB        .K/M3                                   : Offset applied to log data.    {F}

~ASCII | CURVE 
# ...
     939.08880,      119.7500,       65.2500,        1.6458,        1.7935,   -999.250000,     -999.2500
     939.24120,      120.0000,       68.6875,        1.5946,        1.7667,   -999.250000,     -999.2500
     939.39360,      118.7500,       69.2500,        1.5667,        1.6925,   -999.250000,     -999.2500
     939.54600,      119.2500,       71.0000,        1.4779,        1.6155,   -999.250000,     -999.2500
     939.69840,      119.5000,       75.8125,        1.3882,        1.5193,   -999.250000,     -999.2500
     939.85080,      121.5000,       75.6875,        1.3706,        1.5188,   -999.250000,     -999.2500
     940.00320,      123.5000,       71.6875,        1.4298,        1.5641,   -999.250000,     -999.2500
     940.15560,      124.5000,       65.5000,        1.4544,        1.5910,   -999.250000,     -999.2500
     940.30800,      122.5000,       63.1875,        1.5052,        1.6275,   -999.250000,     -999.2500
     940.46040,      118.7500,       63.2188,        1.5020,        1.6183,   -999.250000,     -999.2500
     940.61280,      119.7500,       64.3125,        1.4659,        1.5830,   -999.250000,     -999.2500
     940.76520,      120.0000,       67.3125,        1.4346,        1.5748,   -999.250000,     -999.2500
     940.91760,      120.0000,       69.8750,        1.4179,        1.5663,   -999.250000,     -999.2500
     941.07000,      120.5000,       68.3125,        1.4089,        1.5717,   -999.250000,     -999.2500
     941.22240,      120.7500,       67.8750,        1.4475,        1.5617,   -999.250000,     -999.2500
     941.37480,      121.2500,       67.0000,        1.4669,        1.5781,   -999.250000,     -999.2500
     941.52720,      120.0000,       69.6875,        1.4697,        1.5807,   -999.250000,     -999.2500
     941.67960,      119.0000,       67.6250,        1.4355,        1.5650,   -999.250000,     -999.2500
     941.83200,      118.2500,       67.2500,        1.4189,        1.5316,   -999.250000,     -999.2500
     941.98440,      117.2500,       68.8125,        1.4772,        1.5816,   -999.250000,     -999.2500
     942.13680,      115.7500,       70.8125,        1.5412,        1.6667,   -999.250000,     -999.2500
     942.28920,      113.7500,       73.3125,        1.5642,        1.7098,   -999.250000,     -999.2500
     942.44160,      110.7500,       73.8750,        1.5862,        1.7089,   -999.250000,     -999.2500
     942.59400,      109.5000,       73.1250,        1.5055,        1.6671,   -999.250000,     -999.2500
     942.74640,      109.2500,       69.5625,        1.4749,        1.5884,   -999.250000,     -999.2500
     942.89880,      113.2500,       65.0625,        1.3933,        1.5216,   -999.250000,     -999.2500
     943.05120,      117.5000,       67.5625,        1.3798,        1.5066,   -999.250000,     -999.2500
     943.20360,      118.5000,       73.1250,        1.3569,        1.4815,   -999.250000,     -999.2500
     943.35600,      120.7500,       77.0000,        1.2916,        1.4262,   -999.250000,     -999.2500
     943.50840,      121.2500,       76.0000,        1.3110,        1.3769,   -999.250000,     -999.2500
     943.66080,      121.7500,       71.5625,        1.3012,        1.4238,   -999.250000,     -999.2500
     943.81320,      123.0000,       70.6250,        1.3226,        1.4379,   -999.250000,     -999.2500
     943.96560,      123.2500,       64.5000,        1.3969,        1.5314,   -999.250000,     -999.2500
     944.11800,      122.5000,       62.6562,        1.4148,        1.5729,   -999.250000,     -999.2500
     944.27040,      122.2500,       60.0938,        1.4510,        1.5995,   -999.250000,     -999.2500
     944.42280,      121.7500,       62.6875,        1.4459,        1.6019,   -999.250000,     -999.2500
     944.57520,      120.5000,       62.9688,        1.4241,        1.5882,   -999.250000,     -999.2500
     944.72760,      120.7500,       62.2812,        1.4299,        1.5649,   -999.250000,     -999.2500
     944.88000,      119.5000,       62.1875,        1.4653,        1.5962,   -999.250000,     -999.2500
     945.03240,      119.2500,       63.0312,        1.4530,        1.6053,   -999.250000,     -999.2500
     945.18480,      119.0000,       65.3125,        1.4599,        1.5828,   -999.250000,     -999.2500
     945.33720,      119.7500,       67.3125,        1.4445,        1.5484,   -999.250000,     -999.2500
     945.48960,      120.7500,       69.1875,        1.4141,        1.5705,   -999.250000,     -999.2500
     945.64200,      121.0000,       67.8750,        1.4399,        1.5429,   -999.250000,     -999.2500
     945.79440,      121.5000,       69.0625,        1.4274,        1.5293,   -999.250000,     -999.2500
     945.94680,      121.7500,       71.3750,        1.4492,        1.5615,   -999.250000,     -999.2500
     946.09920,      121.7500,       68.5625,        1.4625,        1.5814,   -999.250000,     -999.2500
     946.25160,      121.7500,       65.1250,        1.4820,        1.6022,   -999.250000,     -999.2500
     946.40400,      121.2500,       61.0625,        1.5099,        1.6472,   -999.250000,     -999.2500
     946.55640,      120.7500,       60.9375,        1.5268,        1.6664,   -999.250000,     -999.2500
     946.70880,      120.7500,       57.2812,        1.5319,        1.6531,   -999.250000,     -999.2500
     946.86120,      120.5000,       57.2188,        1.5515,        1.6548,   -999.250000,     -999.2500
     947.01360,      121.0000,       58.5000,        1.5127,        1.6258,   -999.250000,     -999.2500
     947.16600,      121.7500,       60.4062,        1.5162,        1.6254,   -999.250000,     -999.2500
     947.31840,      121.7500,       61.9375,        1.4851,        1.6036,   -999.250000,     -999.2500
     947.47080,      122.0000,       64.1250,        1.5784,        1.7140,   -999.250000,     -999.2500
     947.62320,      122.2500,       70.2500,        1.6350,        1.7949,   -999.250000,     -999.2500
     947.77560,      119.7500,       68.3750,        1.7052,        1.8508,   -999.250000,     -999.2500
     947.92800,      117.5000,       65.5625,        1.7043,        1.8303,   -999.250000,     -999.2500
     948.08040,      116.2500,       61.7812,        1.5697,        1.7184,   -999.250000,     -999.2500
     948.23280,      116.5000,       62.6250,        1.5394,        1.6798,   -999.250000,     -999.2500
     948.38520,      118.7500,       65.1250,        1.5372,        1.6790,   -999.250000,     -999.2500
     948.53760,      120.2500,       67.9375,        1.5668,        1.6651,   -999.250000,     -999.2500
     948.69000,      120.7500,       69.1875,        1.5596,        1.6552,   -999.250000,     -999.2500
     948.84240,      120.7500,       72.8125,        1.5426,        1.6724,   -999.250000,     -999.2500
     948.99480,      120.5000,       71.0625,        1.5314,        1.6695,   -999.250000,     -999.2500
     949.14720,      121.2500,       66.5625,        1.5314,        1.6771,   -999.250000,     -999.2500
     949.29960,      121.0000,       62.0312,        1.5544,        1.6929,   -999.250000,     -999.2500
     949.45200,      120.7500,       65.1875,        1.5980,        1.7465,   -999.250000,     -999.2500
     949.60440,      121.2500,       66.9375,        1.6044,        1.7394,   -999.250000,     -999.2500
     949.75680,      121.2500,       65.3125,        1.5713,        1.7468,   -999.250000,     -999.2500
     949.90920,      120.7500,       61.1562,        1.5508,        1.7182,   -999.250000,     -999.2500
     950.06160,      120.2500,       57.9062,        1.5735,        1.7341,   -999.250000,     -999.2500
     950.21400,      120.0000,       58.1875,        1.6076,        1.8099,   -999.250000,     -999.2500
     950.36640,      120.5000,       54.5625,        1.8406,        2.0183,   -999.250000,     -999.2500
     950.51880,      121.0000,       56.8438,        2.0997,        2.3398,   -999.250000,     -999.2500
     950.67120,      120.7500,       56.2188,        2.1564,        2.3765,   -999.250000,     -999.2500
