~Version
VERS  .             3.0                                 : CWLS LOG ASCII STANDARD - VERSION 3.0
WRAP  .             NO                                  : One line per depth step
DLM   .             COMMA                               : Delimiter character between data columns
#Delimiting character ( SPACE TAB OR COMMA ).

~Well
#MNEM.UNIT          DATA                                DESCRIPTION
#----- ----        -----------------                   -----------
STRT  .M                457.96200                       : FIRST INDEX VALUE
STOP  .M               1608.73440                       : LAST INDEX VALUE
STEP  .M                  0.15240                       : STEP OF INDEX
NULL  .             -999.25                             : NULL VALUE
COMP  .                                                 : COMPANY
WELL  .             BOTEIN                              : WELL
FLD   .                                                 : FIELD
LOC   .                                                 : LOCATION
SRVC  .                                                 : SERVICE COMPANY
CTRY  .                                                 : COUNTRY
PROV  .                                                 : PROVINCE
UWI   .                                                 : UNIQUE WELL ID
LIC   .                                                 : LICENSE NUMBER
STAT  .                                                 : STATE
CNTY  .                                                 : COUNTY
API   .                                                 : API NUMBER
DATE  .                                                 : LOG DATE
X     .             652587.7147133                      : X OR EAST-WEST COORDINATE
Y     .             8157411.965436                      : Y OR NORTH-SOUTH COORDINATE
HZCS  .                                                 : HORIZONTAL CO-ORDINATE SYSTEM
LATI  .             -16.66083333333                     : LATITUDE
LONG  .             154.4308333333                      : LONGITUDE
GDAT  .                                                 : GEODETIC DATUM

~TOPS_PARAMETER 
#MNEM.UNIT                    VALUE                        DESCRIPTION
#--------------- ---         ------------                 -----------------

~TOPS_DEFINITION 
#MNEM.UNIT                 LOG CODE                  CURVE DESCRIPTION
#----------- ----         ------------              -----------------
DEPTH       .M                                      :     {F}
TOPS        .                                       : Formation Tops    {S24}

~TOPS_DATA | TOPS_DEFINITION
      458.3276,Horseshoe Creek Subgroup
      505.0000,Apple Tree Flat Subgroup
      740.7975,Watts Sandstone         
      753.0000,Denman Fm               
      851.4292,Mt Leonard Fm           
      989.0000,Althorpe Fm             
      996.7500,Malabar Fm              
     1037.4525,Mt Ogilvie Fm           
     1080.0000,Milbrodale Fm           
     1145.2545,Mt Thorley Fm           
     1194.8500,Burnamwood Fm           
     1309.0875,Archerfield Sandstone   
     1321.0000,Mulbring Siltstone      
     1390.0000,Muree Sandstone         
     1502.0000,Branxton Fm             
     1564.4045,Greta Coal Measures     
     1583.3452,Dalwood Group           
     1587.8602,Dalwood Group           

~PARAMETER 
#MNEM.UNIT                    VALUE                        DESCRIPTION
#--------------- ---         ------------                 -----------------

~CURVE 
#MNEM.UNIT                 LOG CODE                  CURVE DESCRIPTION
#----------- ----         ------------              -----------------
DEPTH       .M                                      : Copied from set DDBHC1.    {F}
DT          .US/F                                   : Loaded from LIS tape.  Reversed.    {F}
GR          .GAPI                                   : Split GR_1 from 1502.50 to 5228.01    {F}
LLD         .OHMM                                   : Loaded from LIS tape.  Reversed.    {F}
LLS         .OHMM                                   : Loaded from LIS tape.  Reversed.    {F}
NPHI        .V/V                                    : Loaded from LIS tape.  Reversed.    {F}
RHOB        .K/M3                                   : Offset applied to log data.    {F}

~ASCII | CURVE 
# ...
    1115.11080,       92.8750,       77.2500,        6.5008,        5.9751,      0.286621,     2595.3900
    1115.26320,       93.2500,       72.0625,        6.0181,        5.6421,      0.303711,     2575.8900
    1115.41560,       94.7500,       72.1250,        5.7894,        5.4802,      0.299316,     2556.2900
    1115.56800,       94.1250,       79.6250,        5.8949,        5.5515,      0.282227,     2573.8900
    1115.72040,       94.6250,       84.5000,        6.2059,        5.8709,      0.270020,     2605.1900
    1115.87280,       93.6250,       82.3125,        6.2274,        6.0568,      0.276855,     2630.5900
    1116.02520,       94.5000,       83.8750,        5.9245,        5.9256,      0.279785,     2630.5900
    1116.17760,       94.6250,       83.3125,        5.7077,        5.7161,      0.295410,     2628.5900
    1116.33000,       93.1250,       92.8750,        5.5554,        5.5921,      0.305176,     2624.6900
    1116.48240,       94.0000,       93.2500,        5.6415,        5.6814,      0.316895,     2628.5900
    1116.63480,       96.1250,       96.3750,        5.6621,        5.7172,      0.330078,     2622.6900
    1116.78720,       95.6250,       95.3125,        5.8796,        5.8881,      0.318359,     2618.7900
    1116.93960,       96.0000,       94.4375,        5.9960,        5.9578,      0.306152,     2614.8900
    1117.09200,       95.8750,       92.8125,        5.5516,        5.6623,      0.299805,     2610.9900
    1117.24440,       95.2500,       80.7500,        5.2503,        5.2709,      0.327637,     2587.5900
    1117.39680,       94.6250,       66.3125,        5.9726,        5.9510,      0.356934,     2558.2900
    1117.54920,       93.5000,       52.7812,        8.0227,        7.8427,      0.316895,     2573.8900
    1117.70160,       84.5000,       51.8750,        9.8474,        9.5044,      0.227539,     2636.3900
    1117.85400,       78.7500,       58.3438,       10.9950,       10.7523,      0.133789,     2704.7900
    1118.00640,       76.1250,       72.4375,        8.9316,        9.1448,      0.134277,     2702.7900
    1118.15880,       80.0000,       84.0000,        6.4380,        6.8472,      0.190918,     2679.3900
    1118.31120,       86.6250,       93.1875,        5.4192,        5.6396,      0.253418,     2648.0900
    1118.46360,       92.0000,       88.5625,        5.5197,        5.6672,      0.284668,     2644.1900
    1118.61600,       95.8750,       84.1875,        5.6657,        5.8580,      0.286133,     2644.1900
    1118.76840,       96.5000,       77.5000,        5.7732,        5.9392,      0.295410,     2646.1900
    1118.92080,       96.5000,       75.9375,        5.9543,        6.0790,      0.302246,     2628.5900
    1119.07320,       95.0000,       76.2500,        6.0504,        6.1705,      0.308105,     2601.2910
    1119.22560,       93.7500,       80.5000,        5.9760,        6.0641,      0.285156,     2589.4900
    1119.37800,       93.8750,       84.0625,        5.8582,        6.0110,      0.285645,     2599.2900
    1119.53040,       95.6250,       87.0000,        5.8860,        5.9983,      0.271973,     2601.2910
    1119.68280,       94.7500,       84.9375,        6.0759,        6.1818,      0.284180,     2601.2910
    1119.83520,       95.6250,       80.1250,        6.0817,        6.2410,      0.270508,     2591.4900
    1119.98760,       94.8750,       71.5000,        6.2589,        6.3281,      0.282227,     2591.4900
    1120.14000,       94.1250,       68.7500,        6.4165,        6.5138,      0.268066,     2591.4900
    1120.29240,       94.8750,       73.4375,        6.5054,        6.5314,      0.269531,     2591.4900
    1120.44480,       94.8750,       81.2500,        6.4701,        6.4398,      0.278809,     2605.1900
    1120.59720,       90.8750,       83.8750,        6.3101,        6.4069,      0.291504,     2612.9900
    1120.74960,       89.7500,       82.0625,        6.2180,        6.3173,      0.300293,     2620.7900
    1120.90200,       92.2500,       81.4375,        6.3417,        6.4040,      0.295410,     2614.8900
    1121.05440,       94.8750,       76.0000,        6.1008,        6.1692,      0.299805,     2607.0900
    1121.20680,       94.0000,       70.8125,        5.7543,        5.7931,      0.311035,     2583.6900
    1121.35920,       93.1250,       64.8125,        5.6114,        5.6942,      0.312500,     2558.2900
    1121.51160,       92.1250,       66.1875,        5.5282,        5.5989,      0.295410,     2544.5900
    1121.66400,       94.5000,       69.9375,        5.5469,        5.5510,      0.282227,     2554.3900
    1121.81640,       95.2500,       69.5625,        6.1005,        6.0036,      0.284180,     2564.0900
    1121.96880,       95.1250,       71.1250,        6.1890,        6.0866,      0.297363,     2568.0900
    1122.12120,       93.8750,       68.5000,        6.1367,        6.0615,      0.292480,     2558.2900
    1122.27360,       93.8750,       74.0625,        6.3204,        6.2632,      0.260254,     2566.0900
    1122.42600,       93.1250,       77.2500,        6.1209,        6.0335,      0.258789,     2585.5900
    1122.57840,       93.8750,       82.8750,        6.2868,        6.2375,      0.266602,     2605.1900
    1122.73080,       94.5000,       83.5625,        6.4018,        6.3974,      0.292480,     2616.8900
    1122.88320,       95.1250,       84.5000,        6.7336,        6.6058,      0.309082,     2603.1900
    1123.03560,       95.5000,       83.3125,        7.5930,        7.3388,      0.297852,     2593.3900
    1123.18800,       95.0000,       76.2500,        7.3889,        7.0548,      0.299805,     2585.5900
    1123.34040,       94.5000,       65.0625,        6.4943,        6.3380,      0.283203,     2569.9900
    1123.49280,       92.1250,       58.3125,        6.1362,        5.9878,      0.293457,     2536.7900
    1123.64520,       91.8750,       57.6250,        6.0616,        5.9673,      0.270508,     2507.4900
    1123.79760,       93.2500,       65.5625,        6.1857,        6.0098,      0.251953,     2521.1900
    1123.95000,       92.6250,       65.6875,        6.7625,        6.4646,      0.233398,     2548.4900
    1124.10240,       91.7500,       71.3125,        7.0373,        6.8304,      0.251465,     2571.9900
    1124.25480,       92.0000,       70.4375,        6.7648,        6.6728,      0.269043,     2556.2900
    1124.40720,       91.1250,       77.9375,        6.6670,        6.5241,      0.285645,     2573.8900
    1124.55960,       95.0000,       74.7500,        6.6446,        6.3546,      0.298828,     2595.3900
    1124.71200,       94.0000,       75.1875,        6.0809,        5.9382,      0.308105,     2616.8900
    1124.86440,       94.7500,       68.4375,        5.6108,        5.5453,      0.319824,     2579.7900
    1125.01680,       95.5000,       67.1875,        5.5243,        5.4241,      0.310059,     2528.9900
    1125.16920,       95.8750,       65.8750,        5.5837,        5.4468,      0.286621,     2511.3900
    1125.32160,       95.3750,       66.5000,        5.7067,        5.5255,      0.286133,     2528.9900
    1125.47400,       95.5000,       72.2500,        5.8784,        5.7729,      0.279785,     2536.7900
    1125.62640,       95.6250,       77.3750,        5.6885,        5.6456,      0.280762,     2552.3900
    1125.77880,       95.2500,       85.3750,        5.7059,        5.6786,      0.264160,     2581.6900
    1125.93120,       94.8750,       84.5625,        5.7830,        5.7999,      0.264648,     2636.3900
    1126.08360,       95.2500,       89.6250,        5.6845,        5.7369,      0.292480,     2640.2900
    1126.23600,       95.1250,       94.0625,        5.6881,        5.7487,      0.292969,     2638.3900
    1126.38840,       95.7500,       99.3125,        5.7382,        5.7773,      0.296875,     2626.5900
    1126.54080,       96.8750,       99.2500,        5.8778,        5.8872,      0.285645,     2614.8900
    1126.69320,       96.8750,       97.9375,        5.9735,        5.9415,      0.293457,     2607.0900
