~Version
VERS  .             3.0                                 : CWLS LOG ASCII STANDARD - VERSION 3.0
WRAP  .             NO                                  : One line per depth step
DLM   .             COMMA                               : Delimiter character between data columns
#Delimiting character ( SPACE TAB OR COMMA ).

~Well
#MNEM.UNIT          DATA                                DESCRIPTION
#----- ----        -----------------                   -----------
STRT  .M                457.96200                       : FIRST INDEX VALUE
STOP  .M               1608.73440                       : LAST INDEX VALUE
STEP  .M                  0.15240                       : STEP OF INDEX
NULL  .             -999.25                             : NULL VALUE
COMP  .                                                 : COMPANY
WELL  .             BOTEIN                              : WELL
FLD   .                                                 : FIELD
LOC   .                                                 : LOCATION
SRVC  .                                                 : SERVICE COMPANY
CTRY  .                                                 : COUNTRY
PROV  .                                                 : PROVINCE
UWI   .                                                 : UNIQUE WELL ID
LIC   .                                                 : LICENSE NUMBER
STAT  .                                                 : STATE
CNTY  .                                                 : COUNTY
API   .                                                 : API NUMBER
DATE  .                                                 : LOG DATE
X     .             652587.7147133                      : X OR EAST-WEST COORDINATE
Y     .             8157411.965436                      : Y OR NORTH-SOUTH COORDINATE
HZCS  .                                                 : HORIZONTAL CO-ORDINATE SYSTEM
LATI  .             -16.66083333333                     : LATITUDE
LONG  .             154.4308333333                      : LONGITUDE
GDAT  .                                                 : GEODETIC DATUM

~TOPS_PARAMETER 
#MNEM.UNIT                    VALUE                        DESCRIPTION
#--------------- ---         ------------                 -----------------

~TOPS_DEFINITION 
#MNEM.UNIT                 LOG CODE                  CURVE DESCRIPTION
#----------- ----         ------------              -----------------
DEPTH       .M                                      :     {F}
TOPS        .                                       : Formation Tops    {S24}

~TOPS_DATA | TOPS_DEFINITION
      458.3276,Horseshoe Creek Subgroup
      505.0000,Apple Tree Flat Subgroup
      740.7975,Watts Sandstone         
      753.0000,Denman Fm               
      851.4292,Mt Leonard Fm           
      989.0000,Althorpe Fm             
      996.7500,Malabar Fm              
     1037.4525,Mt Ogilvie Fm           
     1080.0000,Milbrodale Fm           
     1145.2545,Mt Thorley Fm           
     1194.8500,Burnamwood Fm           
     1309.0875,Archerfield Sandstone   
     1321.0000,Mulbring Siltstone      
     1390.0000,Muree Sandstone         
     1502.0000,Branxton Fm             
     1564.4045,Greta Coal Measures     
     1583.3452,Dalwood Group           
     1587.8602,Dalwood Group           

~PARAMETER 
#MNEM.UNIT                    VALUE                        DESCRIPTION
#--------------- ---         ------------                 -----------------

~CURVE 
#MNEM.UNIT                 LOG CODE                  CURVE DESCRIPTION
#----------- ----         ------------              -----------------
DEPTH       .M                                      : Copied from set DDBHC1.    {F}
DT          .US/F                                   : Loaded from LIS tape.  Reversed.    {F}
GR          .GAPI                                   : Split GR_1 from 1502.50 to 5228.01    {F}
LLD         .OHMM                                   : Loaded from LIS tape.  Reversed.    {F}
LLS         .OHMM                                   : Loaded from LIS tape.  Reversed.    {F}
NPHI        .V/V                                    : Loaded from LIS tape.  Reversed.    {F}
RHOB        .K/M3                                   : Offset applied to log data.    {F}

~ASCII | CURVE 
# ...
    1197.25440,       88.8750,       99.5000,        8.7136,        6.2382,      0.233887,     2491.8900
    1197.40680,       89.8750,       94.3125,        9.1696,        6.5368,      0.232910,     2495.7900
    1197.55920,       90.2500,       99.8750,        9.8348,        6.9535,      0.240234,     2503.5900
    1197.71160,       89.3750,      101.1880,        9.5006,        6.7861,      0.229980,     2513.3900
    1197.86400,       88.1250,      108.7500,        9.4001,        6.8489,      0.233887,     2521.1900
    1198.01640,       87.8750,      107.2500,        9.3468,        6.9398,      0.247559,     2532.8900
    1198.16880,       89.0000,      110.6880,        9.2619,        6.9438,      0.253418,     2536.7900
    1198.32120,       89.6250,      110.9380,        9.0484,        6.8516,      0.250488,     2538.7910
    1198.47360,       90.1250,      108.1880,        8.3654,        6.5366,      0.232422,     2538.7910
    1198.62600,       89.0000,      103.5620,        8.4659,        6.6908,      0.238770,     2536.7900
    1198.77840,       89.0000,      101.6250,        9.4623,        7.3346,      0.242188,     2526.9900
    1198.93080,       88.5000,      108.4380,       10.0493,        7.7836,      0.233398,     2523.0900
    1199.08320,       88.8750,      109.8120,        9.3965,        7.5473,      0.218262,     2552.3900
    1199.23560,       89.2500,      102.6250,        8.0855,        6.8412,      0.243164,     2562.1900
    1199.38800,       90.6250,       91.4375,        7.2953,        6.2905,      0.273926,     2550.4900
    1199.54040,       91.7500,       89.4375,        6.8533,        5.8433,      0.291016,     2519.1900
    1199.69280,       93.1250,       95.4375,        8.5713,        7.0661,      0.272949,     2528.9900
    1199.84520,       93.3750,      100.6250,       11.0889,        9.2780,      0.260742,     2573.8900
    1199.99760,       91.5000,      101.0000,       12.2244,       10.4912,      0.260254,     2634.4900
    1200.15000,       86.8750,       99.1875,       12.1575,       10.7322,      0.264648,     2655.8900
    1200.30240,       81.0000,      100.4380,       10.8320,       10.0647,      0.253906,     2657.8900
    1200.45480,       80.6250,      102.8750,        9.7382,        9.2303,      0.261719,     2620.7900
    1200.60720,       83.8750,      106.5000,        9.0711,        8.6206,      0.271484,     2618.7900
    1200.75960,       88.0000,      114.0620,        9.0550,        8.6697,      0.286133,     2636.3900
    1200.91200,       91.2500,      122.2500,        8.6965,        8.5349,      0.303223,     2665.6900
    1201.06440,       92.1250,      129.2500,        8.1232,        8.0433,      0.302734,     2675.4900
    1201.21680,       93.0000,      134.1250,        7.7250,        7.7265,      0.318848,     2671.5900
    1201.36920,       92.7500,      139.8750,        7.9034,        7.8816,      0.315918,     2673.4900
    1201.52160,       92.3750,      142.7500,        8.5342,        8.4024,      0.312988,     2671.5900
    1201.67400,       92.6250,      137.2500,        9.2396,        9.1957,      0.301758,     2675.4900
    1201.82640,       90.8750,      127.4380,        9.9166,        9.9177,      0.276855,     2673.4900
    1201.97880,       88.7500,      117.8750,        9.7895,        9.8799,      0.262695,     2683.2900
    1202.13120,       89.5000,      119.1880,        9.2248,        9.4127,      0.283691,     2708.6900
    1202.28360,       91.1250,      124.3120,        8.4524,        8.7144,      0.302734,     2749.6900
    1202.43600,       93.1250,      128.3750,        8.0344,        8.2928,      0.314453,     2745.7900
    1202.58840,       94.3750,      129.5000,        7.9702,        8.2785,      0.286621,     2732.0900
    1202.74080,       94.7500,      128.1250,        8.1706,        8.5065,      0.292969,     2712.5900
    1202.89320,       93.5000,      137.0000,        8.1306,        8.4097,      0.298340,     2739.8900
    1203.04560,       91.3750,      139.7500,        7.5554,        7.9113,      0.295410,     2751.5900
    1203.19800,       88.5000,      143.5000,        7.0317,        7.4043,      0.282227,     2755.5900
    1203.35040,       91.2500,      138.1250,        6.7263,        7.0729,      0.285156,     2728.1900
    1203.50280,       92.6250,      136.7500,        6.9978,        7.2159,      0.325195,     2726.2910
    1203.65520,       93.6250,      130.2500,        7.8691,        8.1169,      0.346191,     2706.6900
    1203.80760,       94.7500,      129.5000,        8.7524,        8.9668,      0.336914,     2712.5900
    1203.96000,       94.2500,      123.5620,        9.6948,        9.9066,      0.309082,     2696.9900
    1204.11240,       94.2500,      124.1880,       10.2443,       10.5388,      0.269531,     2675.4900
    1204.26480,       93.7500,      124.3120,       10.3432,       10.8013,      0.262207,     2646.1900
    1204.41720,       93.5000,      126.6250,        9.7051,       10.3621,      0.240234,     2632.4900
    1204.56960,       92.0000,      131.5000,        8.0165,        8.5483,      0.243652,     2648.0900
    1204.72200,       89.5000,      136.3750,        6.8715,        7.4668,      0.243652,     2671.5900
    1204.87440,       90.3750,      141.1250,        6.0882,        6.6669,      0.271484,     2702.7900
    1205.02680,       93.5000,      139.5000,        5.7928,        6.2849,      0.320312,     2704.7900
    1205.17920,       96.0000,      133.1250,        6.0623,        6.4905,      0.369141,     2696.9900
    1205.33160,       98.3750,      124.3120,        6.2344,        6.6671,      0.386230,     2673.4900
    1205.48400,       97.2500,      116.1880,        6.5855,        7.0281,      0.354492,     2661.7900
    1205.63640,       96.1250,      110.9380,        7.2510,        7.7936,      0.330078,     2653.9900
    1205.78880,       94.7500,      111.1250,        8.9303,        9.4166,      0.312988,     2648.0900
    1205.94120,       93.6250,      104.7500,       11.8864,       12.3489,      0.316895,     2663.7910
    1206.09360,       91.0000,      100.5620,       12.3099,       13.0693,      0.289062,     2726.2910
    1206.24600,       86.2500,      101.7500,        9.1999,       10.0368,      0.266602,     2794.5900
    1206.39840,       84.5000,      113.4380,        6.6448,        7.5096,      0.262207,     2821.9900
    1206.55080,       85.6250,      126.6880,        5.3867,        6.1968,      0.288574,     2759.4900
    1206.70320,       90.0000,      131.3750,        4.9513,        5.6409,      0.324219,     2714.4900
    1206.85560,       94.6250,      136.0000,        5.0274,        5.6818,      0.349609,     2683.2900
    1207.00800,       96.1250,      137.3750,        5.1835,        5.8544,      0.354492,     2689.0900
    1207.16040,       96.5000,      143.1250,        5.2845,        5.9926,      0.347656,     2700.8900
    1207.31280,       96.3750,      143.5000,        5.3117,        5.9783,      0.354980,     2708.6900
    1207.46520,       95.3750,      142.7500,        5.4253,        6.0819,      0.351074,     2712.5900
    1207.61760,       94.1250,      143.7500,        5.4811,        6.1627,      0.349121,     2718.3900
    1207.77000,       94.0000,      147.2500,        5.7562,        6.4033,      0.344727,     2718.3900
    1207.92240,       95.2500,      144.7500,        6.7922,        7.4458,      0.335449,     2722.3900
    1208.07480,       95.8750,      131.5000,        8.5302,        9.0615,      0.328613,     2734.0900
    1208.22720,       94.8750,      111.0000,       10.9422,       11.2691,      0.301270,     2743.7900
    1208.37960,       90.8750,       98.3750,       13.1538,       13.5656,      0.295898,     2747.6900
    1208.53200,       89.8750,       97.7500,       12.9248,       13.4056,      0.283691,     2726.2910
    1208.68440,       89.3750,      104.5000,       12.2589,       12.8604,      0.284180,     2714.4900
    1208.83680,       88.6250,      110.3120,       11.5439,       12.1099,      0.281250,     2681.2900
