~Version
VERS  .             3.0                                 : CWLS LOG ASCII STANDARD - VERSION 3.0
WRAP  .             NO                                  : One line per depth step
DLM   .             COMMA                               : Delimiter character between data columns
#Delimiting character ( SPACE TAB OR COMMA ).

~Well
#MNEM.UNIT          DATA                                DESCRIPTION
#----- ----        -----------------                   -----------
STRT  .M                457.96200                       : FIRST INDEX VALUE
STOP  .M               1608.73440                       : LAST INDEX VALUE
STEP  .M                  0.15240                       : STEP OF INDEX
NULL  .             -999.25                             : NULL VALUE
COMP  .                                                 : COMPANY
WELL  .             BOTEIN                              : WELL
FLD   .                                                 : FIELD
LOC   .                                                 : LOCATION
SRVC  .                                                 : SERVICE COMPANY
CTRY  .                                                 : COUNTRY
PROV  .                                                 : PROVINCE
UWI   .                                                 : UNIQUE WELL ID
LIC   .                                                 : LICENSE NUMBER
STAT  .                                                 : STATE
CNTY  .                                                 : COUNTY
API   .                                                 : API NUMBER
DATE  .                                                 : LOG DATE
X     .             652587.7147133                      : X OR EAST-WEST COORDINATE
Y     .             8157411.965436                      : Y OR NORTH-SOUTH COORDINATE
HZCS  .                                                 : HORIZONTAL CO-ORDINATE SYSTEM
LATI  .             -16.66083333333                     : LATITUDE
LONG  .             154.4308333333                      : LONGITUDE
GDAT  .                                                 : GEODETIC DATUM

~TOPS_PARAMETER 
#MNEM.UNIT                    VALUE                        DESCRIPTION
#--------------- ---         ------------                 -----------------

~TOPS_DEFINITION 
#MNEM.UNIT                 LOG CODE                  CURVE DESCRIPTION
#----------- ----         ------------              -----------------
DEPTH       .M                                      :     {F}
TOPS        .                                       : Formation Tops    {S24}

~TOPS_DATA | TOPS_DEFINITION
      458.3276,Horseshoe Creek Subgroup
      505.0000,Apple Tree Flat Subgroup
      740.7975,Watts Sandstone         
      753.0000,Denman Fm               
      851.4292,Mt Leonard Fm           
      989.0000,Althorpe Fm             
      996.7500,Malabar Fm              
     1037.4525,Mt Ogilvie Fm           
     1080.0000,Milbrodale Fm           
     1145.2545,Mt Thorley Fm           
     1194.8500,Burnamwood Fm           
     1309.0875,Archerfield Sandstone   
     1321.0000,Mulbring Siltstone      
     1390.0000,Muree Sandstone         
     1502.0000,Branxton Fm             
     1564.4045,Greta Coal Measures     
     1583.3452,Dalwood Group           
     1587.8602,Dalwood Group           

~PARAMETER 
#MNEM.UNIT                    VALUE                        DESCRIPTION
#--------------- ---         ------------                 -----------------

~CURVE 
#MNEM.UNIT                 LOG CODE                  CURVE DESCRIPTION
#----------- ----         ------------              -----------------
DEPTH       .M                                      : Copied from set DDBHC1.    {F}
DT          .US/F                                   : Loaded from LIS tape.  Reversed.    {F}
GR          .GAPI                                   : Split GR_1 from 1502.50 to 5228.01    {F}
LLD         .OHMM                                   : Loaded from LIS tape.  Reversed.    {F}
LLS         .OHMM                                   : Loaded from LIS tape.  Reversed.    {F}
NPHI        .V/V                                    : Loaded from LIS tape.  Reversed.    {F}
RHOB        .K/M3                                   : Offset applied to log data.    {F}

~ASCII | CURVE 
# ...
    1596.23760,       63.5000,     -999.2500,        5.1915,        6.2934,      0.096680,     2689.0900
    1596.39000,       65.5000,     -999.2500,        6.8426,        8.0469,      0.087891,     2685.1900
    1596.54240,       65.3750,     -999.2500,       10.7744,       12.4038,      0.090332,     2698.8900
    1596.69480,       65.2500,     -999.2500,       12.7953,       14.7160,      0.081055,     2698.8900
    1596.84720,       64.2500,     -999.2500,       13.7610,       15.9682,      0.063965,     2708.6900
    1596.99960,       64.7500,     -999.2500,       12.8630,       15.1040,      0.051270,     2702.7900
    1597.15200,       63.3750,     -999.2500,        8.7718,       10.1440,      0.045898,     2702.7900
    1597.30440,       63.3750,     -999.2500,        6.4432,        7.5301,      0.041016,     2673.4900
    1597.45680,       63.2500,     -999.2500,        5.4339,        6.3794,      0.041504,     2702.7900
    1597.60920,       66.8750,     -999.2500,        4.9210,        5.7148,      0.081055,     2747.6900
    1597.76160,       68.8750,     -999.2500,        5.6610,        6.4629,      0.158691,     2788.7910
    1597.91400,       69.3750,     -999.2500,        6.6187,        7.5758,      0.208984,     2726.2910
    1598.06640,       67.0000,     -999.2500,        7.1237,        8.1741,      0.182617,     2693.0900
    1598.21880,       66.0000,     -999.2500,        7.9510,        9.0445,      0.114258,     2677.3900
    1598.37120,       63.8750,     -999.2500,        8.5573,        9.8492,      0.062012,     2679.3900
    1598.52360,       64.2500,     -999.2500,        9.0063,       10.3467,      0.043457,     2683.2900
    1598.67600,       64.2500,     -999.2500,        9.3284,       10.6856,      0.031738,     2691.0900
    1598.82840,       63.6250,     -999.2500,        9.5165,       11.0047,      0.028320,     2687.1900
    1598.98080,       63.5000,     -999.2500,        9.7109,       11.0946,      0.028320,     2694.9900
    1599.13320,       63.5000,     -999.2500,        9.7986,       11.1269,      0.029785,     2702.7900
    1599.28560,       63.5000,     -999.2500,        9.6537,       10.9993,      0.032715,     2714.4900
    1599.43800,       63.5000,     -999.2500,        9.7310,       11.0142,      0.035645,     2722.3900
    1599.59040,       63.6250,     -999.2500,       10.0612,       11.3964,      0.038086,     2704.7900
    1599.74280,       63.5000,     -999.2500,        9.8399,       11.2506,      0.041992,     2696.9900
    1599.89520,       63.6250,     -999.2500,        9.8170,       11.2587,      0.044922,     2685.1900
    1600.04760,       63.6250,     -999.2500,        9.8583,       11.3597,      0.042480,     2679.3900
    1600.20000,       63.5000,     -999.2500,       10.0792,       11.7038,      0.041504,     2677.3900
    1600.35240,       63.5000,     -999.2500,       10.2939,       11.9077,      0.046387,     2677.3900
    1600.50480,       63.5000,     -999.2500,       10.4657,       12.1812,      0.052246,     2691.0900
    1600.65720,       63.5000,     -999.2500,       10.8137,       12.6171,      0.051758,     2702.7900
    1600.80960,       63.6250,     -999.2500,       11.0396,       12.9547,      0.047363,     2702.7900
    1600.96200,       63.6250,     -999.2500,       12.1809,       14.2453,      0.050781,     2691.0900
    1601.11440,       63.6250,     -999.2500,       13.4781,       15.6425,      0.052734,     2687.1900
    1601.26680,       63.5000,     -999.2500,       14.2354,       16.7375,      0.051758,     2685.1900
    1601.41920,       63.6250,     -999.2500,       14.1835,       16.5680,      0.047852,     2698.8900
    1601.57160,       63.5000,     -999.2500,       11.1801,       13.2745,      0.048828,     2712.5900
    1601.72400,       63.5000,     -999.2500,        9.1586,       10.7655,      0.048340,     2716.4900
    1601.87640,       63.6250,     -999.2500,        8.5611,       10.3005,      0.048828,     2724.2900
    1602.02880,       63.5000,     -999.2500,        8.2123,        9.9504,      0.051758,     2712.5900
    1602.18120,       63.5000,     -999.2500,        9.5541,       11.2188,      0.061035,     2712.5900
    1602.33360,       63.5000,     -999.2500,       10.4500,       12.5447,      0.068848,     2696.9900
    1602.48600,       63.5000,     -999.2500,        9.8418,       12.0564,      0.072266,     2685.1900
    1602.63840,       63.5000,     -999.2500,        9.3915,       11.5241,      0.070313,     2691.0900
    1602.79080,       63.5000,     -999.2500,        9.0325,       11.0154,      0.071777,     2687.1900
    1602.94320,       63.5000,     -999.2500,        7.9450,        9.8561,      0.074219,     2696.9900
    1603.09560,       63.5000,     -999.2500,        6.9880,        8.5848,      0.074707,     2694.9900
    1603.24800,       63.5000,     -999.2500,        6.8281,        8.3607,      0.071777,     2689.0900
    1603.40040,       63.5000,     -999.2500,        7.1908,        8.6564,      0.070801,     2694.9900
    1603.55280,       63.5000,     -999.2500,        8.3039,        9.8834,      0.071289,     2687.1900
    1603.70520,       63.5000,     -999.2500,       10.1208,       12.0120,      0.074219,     2702.7900
    1603.85760,       63.5000,     -999.2500,       11.6061,       13.7984,      0.070313,     2698.8900
    1604.01000,       63.5000,     -999.2500,       12.1873,       14.5638,      0.068359,     2712.5900
    1604.16240,       63.5000,     -999.2500,       11.7398,       14.0458,      0.071289,     2712.5900
    1604.31480,       63.5000,     -999.2500,       10.2624,       12.2472,      0.076660,     2706.6900
    1604.46720,       63.5000,     -999.2500,        9.2143,       11.0432,      0.079102,     2704.7900
    1604.61960,       63.5000,     -999.2500,        8.2397,        9.8955,      0.077637,     2702.7900
    1604.77200,       63.5000,     -999.2500,        7.9461,        9.5623,      0.072754,     2712.5900
    1604.92440,       63.5000,     -999.2500,        7.9622,        9.5821,      0.069824,     2704.7900
    1605.07680,       63.5000,     -999.2500,        7.9577,        9.5681,      0.069824,     2689.0900
    1605.22920,       63.5000,     -999.2500,        7.9700,        9.5333,      0.074707,     2677.3900
    1605.38160,       63.5000,     -999.2500,        7.9676,        9.5292,      0.074707,     2665.6900
    1605.53400,       63.5000,     -999.2500,        7.9725,        9.5787,      0.074707,     2665.6900
    1605.68640,       63.5000,     -999.2500,        7.9883,        9.5765,      0.074219,     2665.6900
    1605.83880,       63.5000,     -999.2500,        7.9480,        9.5471,      0.076660,     2669.5900
    1605.99120,       63.5000,     -999.2500,        7.9685,        9.5458,      0.076660,     2659.8900
    1606.14360,       63.5000,     -999.2500,        7.9584,        9.5897,      0.075195,     2665.6900
    1606.29600,       63.5000,     -999.2500,        8.0000,        9.5815,      0.073242,     2665.6900
    1606.44840,       63.5000,     -999.2500,        7.9466,        9.5824,      0.071289,     2689.0900
    1606.60080,       63.5000,     -999.2500,        7.9535,        9.5286,      0.071289,     2693.0900
    1606.75320,       63.5000,     -999.2500,        7.9905,        9.5622,      0.071289,     2694.9900
    1606.90560,       63.5000,     -999.2500,        7.9642,        9.5916,      0.070801,     2687.1900
    1607.05800,       63.5000,     -999.2500,        7.9711,        9.5524,      0.071289,     2665.6900
    1607.21040,       63.5000,     -999.2500,        7.9652,        9.5773,      0.071289,     2665.6900
    1607.36280,       63.5000,     -999.2500,        7.9672,        9.5468,      0.070313,     2679.3900
    1607.51520,       63.5000,     -999.2500,        7.9665,        9.5772,      0.070801,     2696.9900
    1607.66760,       63.5000,     -999.2500,        7.9621,        9.5660,      0.071289,     2710.5900
    1607.82000,       63.5000,     -999.2500,        7.9702,        9.5755,      0.071289,     2702.7900
