~Version
VERS  .             3.0                                 : CWLS LOG ASCII STANDARD - VERSION 3.0
WRAP  .             NO                                  : One line per depth step
DLM   .             COMMA                               : Delimiter character between data columns
#Delimiting character ( SPACE TAB OR COMMA ).

~Well
#MNEM.UNIT          DATA                                DESCRIPTION
#----- ----        -----------------                   -----------
STRT  .M                457.96200                       : FIRST INDEX VALUE
STOP  .M               1608.73440                       : LAST INDEX VALUE
STEP  .M                  0.15240                       : STEP OF INDEX
NULL  .             -999.25                             : NULL VALUE
COMP  .                                                 : COMPANY
WELL  .             BOTEIN                              : WELL
FLD   .                                                 : FIELD
LOC   .                                                 : LOCATION
SRVC  .                                                 : SERVICE COMPANY
CTRY  .                                                 : COUNTRY
PROV  .                                                 : PROVINCE
UWI   .                                                 : UNIQUE WELL ID
LIC   .                                                 : LICENSE NUMBER
STAT  .                                                 : STATE
CNTY  .                                                 : COUNTY
API   .                                                 : API NUMBER
DATE  .                                                 : LOG DATE
X     .             652587.7147133                      : X OR EAST-WEST COORDINATE
Y     .             8157411.965436                      : Y OR NORTH-SOUTH COORDINATE
HZCS  .                                                 : HORIZONTAL CO-ORDINATE SYSTEM
LATI  .             -16.66083333333                     : LATITUDE
LONG  .             154.4308333333                      : LONGITUDE
GDAT  .                                                 : GEODETIC DATUM

~TOPS_PARAMETER 
#MNEM.UNIT                    VALUE                        DESCRIPTION
#--------------- ---         ------------                 -----------------

~TOPS_DEFINITION 
#MNEM.UNIT                 LOG CODE                  CURVE DESCRIPTION
#----------- ----         ------------              -----------------
DEPTH       .M                                      :     {F}
TOPS        .                                       : Formation Tops    {S24}

~TOPS_DATA | TOPS_DEFINITION
      458.3276,Horseshoe Creek Subgroup
      505.0000,Apple Tree Flat Subgroup
      740.7975,Watts Sandstone         
      753.0000,Denman Fm               
      851.4292,Mt Leonard Fm           
      989.0000,Althorpe Fm             
      996.7500,Malabar Fm              
     1037.4525,Mt Ogilvie Fm           
     1080.0000,Milbrodale Fm           
     1145.2545,Mt Thorley Fm           
     1194.8500,Burnamwood Fm           
     1309.0875,Archerfield Sandstone   
     1321.0000,Mulbring Siltstone      
     1390.0000,Muree Sandstone         
     1502.0000,Branxton Fm             
     1564.4045,Greta Coal Measures     
     1583.3452,Dalwood Group           
     1587.8602,Dalwood Group           

~PARAMETER 
#MNEM.UNIT                    VALUE                        DESCRIPTION
#--------------- ---         ------------                 -----------------

~CURVE 
#MNEM.UNIT                 LOG CODE                  CURVE DESCRIPTION
#----------- ----         ------------              -----------------
DEPTH       .M                                      : Copied from set DDBHC1.    {F}
DT          .US/F                                   : Loaded from LIS tape.  Reversed.    {F}
GR          .GAPI                                   : Split GR_1 from 1502.50 to 5228.01    {F}
LLD         .OHMM                                   : Loaded from LIS tape.  Reversed.    {F}
LLS         .OHMM                                   : Loaded from LIS tape.  Reversed.    {F}
NPHI        .V/V                                    : Loaded from LIS tape.  Reversed.    {F}
RHOB        .K/M3                                   : Offset applied to log data.    {F}

~ASCII | CURVE 
# ...
    1373.27640,       85.8750,       58.3125,       10.9205,       10.4103,      0.249023,     2517.2900
    1373.42880,       90.5000,       59.9062,       10.3576,       10.0230,      0.241699,     2511.3900
    1373.58120,       90.6250,       53.7188,       10.0060,        9.7100,      0.241699,     2497.6900
    1373.73360,       90.7500,       49.8125,       10.3554,        9.9491,      0.226074,     2491.8900
    1373.88600,       89.1250,       50.9688,       11.1263,       10.7176,      0.216309,     2478.1900
    1374.03840,       89.1250,       59.1875,       11.2846,       11.0277,      0.201172,     2480.1900
    1374.19080,       89.2500,       65.7500,       10.7950,       10.7538,      0.203125,     2489.8900
    1374.34320,       91.0000,       70.6875,        9.7002,        9.8969,      0.220215,     2515.2900
    1374.49560,       90.0000,       73.6250,        8.2552,        8.6961,      0.235352,     2548.4900
    1374.64800,       87.7500,       74.8125,        7.4121,        7.9945,      0.245117,     2568.0900
    1374.80040,       87.7500,       81.5000,        6.8576,        7.4142,      0.246094,     2601.2910
    1374.95280,       88.8750,       84.2500,        6.6677,        7.1687,      0.247559,     2626.5900
    1375.10520,       89.6250,       87.3750,        6.8205,        7.2877,      0.242676,     2642.2900
    1375.25760,       90.5000,       85.6875,        7.0619,        7.5225,      0.261230,     2640.2900
    1375.41000,       89.7500,       82.8750,        7.7936,        8.1922,      0.262695,     2626.5900
    1375.56240,       89.6250,       83.2500,        8.1911,        8.5765,      0.267090,     2612.9900
    1375.71480,       89.8750,       81.6250,        8.5879,        8.8317,      0.252930,     2599.2900
    1375.86720,       89.7500,       84.0625,        8.6888,        8.8842,      0.251953,     2595.3900
    1376.01960,       89.5000,       80.3125,        8.7547,        8.9469,      0.258789,     2593.3900
    1376.17200,       88.2500,       79.8750,        9.6316,        9.7381,      0.246582,     2603.1900
    1376.32440,       88.5000,       75.3125,       10.2164,       10.2414,      0.239746,     2614.8900
    1376.47680,       86.5000,       74.0625,       10.6992,       10.5973,      0.229004,     2644.1900
    1376.62920,       83.0000,       69.7500,       11.3170,       11.1808,      0.216797,     2663.7910
    1376.78160,       80.1250,       70.1250,       11.1612,       11.1194,      0.207520,     2685.1900
    1376.93400,       79.3750,       70.8125,       11.2930,       11.0952,      0.188965,     2665.6900
    1377.08640,       78.3750,       69.6875,       11.2069,       10.9731,      0.199219,     2630.5900
    1377.23880,       80.7500,       69.0000,       10.5060,       10.3445,      0.210938,     2589.4900
    1377.39120,       82.2500,       67.6875,        9.7492,        9.6762,      0.225586,     2577.7900
    1377.54360,       84.0000,       67.7500,        9.3071,        9.2352,      0.228516,     2577.7900
    1377.69600,       86.0000,       71.6875,        9.0794,        8.9624,      0.232910,     2579.7900
    1377.84840,       86.8750,       69.5000,        8.9798,        8.9018,      0.231445,     2579.7900
    1378.00080,       87.6250,       77.5000,        8.6587,        8.5585,      0.224609,     2575.8900
    1378.15320,       90.2500,       83.7500,        7.5137,        7.4822,      0.223633,     2571.9900
    1378.30560,       93.1250,       98.5000,        6.4047,        6.3801,      0.233887,     2562.1900
    1378.45800,       93.8750,      104.4380,        5.2841,        5.3008,      0.251465,     2575.8900
    1378.61040,       96.5000,      109.8120,        4.4906,        4.5778,      0.270996,     2593.3900
    1378.76280,       98.5000,      108.3750,        4.1279,        4.1940,      0.292480,     2609.0900
    1378.91520,       99.6250,      105.5000,        3.9663,        3.9710,      0.307617,     2622.6900
    1379.06760,      100.6250,      107.0000,        3.9248,        3.9561,      0.305176,     2624.6900
    1379.22000,       99.8750,      108.3120,        3.8677,        3.9305,      0.299805,     2626.5900
    1379.37240,       96.7500,      108.1880,        3.8678,        3.9412,      0.309570,     2622.6900
    1379.52480,       95.2500,      105.5000,        3.8085,        3.9008,      0.305176,     2626.5900
    1379.67720,       94.1250,      102.3120,        3.7890,        3.8792,      0.294434,     2634.4900
    1379.82960,       93.3750,      109.2500,        3.7926,        3.9393,      0.277344,     2640.2900
    1379.98200,       93.2500,      111.8120,        3.7804,        3.8974,      0.279297,     2636.3900
    1380.13440,       93.8750,      110.1880,        3.8096,        3.8541,      0.292480,     2622.6900
    1380.28680,       93.3750,      103.6250,        3.8705,        3.9058,      0.286621,     2616.8900
    1380.43920,       94.3750,      100.6250,        4.0054,        3.9699,      0.291504,     2622.6900
    1380.59160,       94.3750,      103.3750,        4.0084,        3.9725,      0.277832,     2634.4900
    1380.74400,       93.2500,      106.6880,        3.9492,        3.8900,      0.272949,     2642.2900
    1380.89640,       93.2500,      114.9380,        3.8968,        3.8449,      0.254395,     2634.4900
    1381.04880,       94.3750,      120.3120,        3.8090,        3.7508,      0.257812,     2605.1900
    1381.20120,       98.5000,      117.3750,        3.8543,        3.7971,      0.294434,     2558.2900
    1381.35360,      101.2500,      105.4380,        4.2335,        4.1213,      0.344727,     2554.3900
    1381.50600,      102.6250,       98.7500,        4.4463,        4.4161,      0.346680,     2593.3900
    1381.65840,      100.5000,      101.0000,        4.4715,        4.4718,      0.310547,     2636.3900
    1381.81080,       95.5000,       99.1875,        4.4562,        4.4603,      0.270996,     2646.1900
    1381.96320,       93.0000,      105.9380,        4.1996,        4.2431,      0.264648,     2642.2900
    1382.11560,       93.3750,      106.7500,        4.0399,        4.0698,      0.278320,     2650.0900
    1382.26800,       93.8750,      111.6250,        4.0857,        4.0743,      0.277832,     2648.0900
    1382.42040,       95.6250,      109.2500,        4.1150,        4.1205,      0.288574,     2655.8900
    1382.57280,       96.1250,      107.7500,        4.1925,        4.1819,      0.284180,     2640.2900
    1382.72520,       95.3750,      108.7500,        4.2401,        4.2398,      0.290527,     2644.1900
    1382.87760,       95.5000,      104.0620,        4.3368,        4.3275,      0.286621,     2628.5900
    1383.03000,       95.5000,      101.7500,        4.5438,        4.5536,      0.288574,     2636.3900
    1383.18240,       94.2500,       98.3750,        4.8500,        4.7934,      0.282227,     2634.4900
    1383.33480,       94.1250,      100.0000,        5.1603,        5.0920,      0.282227,     2628.5900
    1383.48720,       93.0000,       98.9375,        5.3144,        5.2877,      0.277832,     2616.8900
    1383.63960,       92.5000,      100.5620,        5.4493,        5.4202,      0.275879,     2618.7900
    1383.79200,       91.2500,      101.4380,        5.3898,        5.4015,      0.275879,     2638.3900
    1383.94440,       90.8750,      104.0620,        5.3021,        5.3335,      0.264160,     2650.0900
    1384.09680,       93.0000,      105.3750,        5.4119,        5.4076,      0.260254,     2653.9900
    1384.24920,       92.2500,      104.6250,        6.0949,        6.0678,      0.253906,     2644.1900
    1384.40160,       91.2500,      102.6250,        7.0346,        7.0287,      0.263672,     2655.8900
    1384.55400,       92.1250,      101.7500,        7.8379,        7.7554,      0.271484,     2663.7910
    1384.70640,       89.5000,      106.6250,        8.4409,        8.3755,      0.269531,     2673.4900
    1384.85880,       88.6250,      116.0000,        7.7263,        7.8070,      0.273926,     2675.4900
