~Version
VERS  .             3.0                                 : CWLS LOG ASCII STANDARD - VERSION 3.0
WRAP  .             NO                                  : One line per depth step
DLM   .             COMMA                               : Delimiter character between data columns
#Delimiting character ( SPACE TAB OR COMMA ).

~Well
#MNEM.UNIT          DATA                                DESCRIPTION
#----- ----        -----------------                   -----------
STRT  .M                457.96200                       : FIRST INDEX VALUE
STOP  .M               1608.73440                       : LAST INDEX VALUE
STEP  .M                  0.15240                       : STEP OF INDEX
NULL  .             -999.25                             : NULL VALUE
COMP  .                                                 : COMPANY
WELL  .             BOTEIN                              : WELL
FLD   .                                                 : FIELD
LOC   .                                                 : LOCATION
SRVC  .                                                 : SERVICE COMPANY
CTRY  .                                                 : COUNTRY
PROV  .                                                 : PROVINCE
UWI   .                                                 : UNIQUE WELL ID
LIC   .                                                 : LICENSE NUMBER
STAT  .                                                 : STATE
CNTY  .                                                 : COUNTY
API   .                                                 : API NUMBER
DATE  .                                                 : LOG DATE
X     .             652587.7147133                      : X OR EAST-WEST COORDINATE
Y     .             8157411.965436                      : Y OR NORTH-SOUTH COORDINATE
HZCS  .                                                 : HORIZONTAL CO-ORDINATE SYSTEM
LATI  .             -16.66083333333                     : LATITUDE
LONG  .             154.4308333333                      : LONGITUDE
GDAT  .                                                 : GEODETIC DATUM

~TOPS_PARAMETER 
#MNEM.UNIT                    VALUE                        DESCRIPTION
#--------------- ---         ------------                 -----------------

~TOPS_DEFINITION 
#MNEM.UNIT                 LOG CODE                  CURVE DESCRIPTION
#----------- ----         ------------              -----------------
DEPTH       .M                                      :     {F}
TOPS        .                                       : Formation Tops    {S24}

~TOPS_DATA | TOPS_DEFINITION
      458.3276,Horseshoe Creek Subgroup
      505.0000,Apple Tree Flat Subgroup
      740.7975,Watts Sandstone         
      753.0000,Denman Fm               
      851.4292,Mt Leonard Fm           
      989.0000,Althorpe Fm             
      996.7500,Malabar Fm              
     1037.4525,Mt Ogilvie Fm           
     1080.0000,Milbrodale Fm           
     1145.2545,Mt Thorley Fm           
     1194.8500,Burnamwood Fm           
     1309.0875,Archerfield Sandstone   
     1321.0000,Mulbring Siltstone      
     1390.0000,Muree Sandstone         
     1502.0000,Branxton Fm             
     1564.4045,Greta Coal Measures     
     1583.3452,Dalwood Group           
     1587.8602,Dalwood Group           

~PARAMETER 
#MNEM.UNIT                    VALUE                        DESCRIPTION
#--------------- ---         ------------                 -----------------

~CURVE 
#MNEM.UNIT                 LOG CODE                  CURVE DESCRIPTION
#----------- ----         ------------              -----------------
DEPTH       .M                                      : Copied from set DDBHC1.    {F}
DT          .US/F                                   : Loaded from LIS tape.  Reversed.    {F}
GR          .GAPI                                   : Split GR_1 from 1502.50 to 5228.01    {F}
LLD         .OHMM                                   : Loaded from LIS tape.  Reversed.    {F}
LLS         .OHMM                                   : Loaded from LIS tape.  Reversed.    {F}
NPHI        .V/V                                    : Loaded from LIS tape.  Reversed.    {F}
RHOB        .K/M3                                   : Offset applied to log data.    {F}

~ASCII | CURVE 
# ...
    1420.21560,       84.7500,       53.2188,       21.2256,       15.1384,      0.191406,     2489.8900
    1420.36800,       84.3750,       58.7500,       24.0710,       16.4897,      0.182129,     2495.7900
    1420.52040,       85.2500,       63.0312,       26.7452,       17.9888,      0.179688,     2505.5900
    1420.67280,       85.7500,       65.6875,       27.9437,       18.5901,      0.184570,     2515.2900
    1420.82520,       85.1250,       69.3125,       28.9541,       19.0345,      0.191406,     2513.3900
    1420.97760,       84.3750,       67.5625,       29.9861,       19.4926,      0.187988,     2523.0900
    1421.13000,       83.5000,       71.7500,       30.6003,       19.6989,      0.181152,     2536.7900
    1421.28240,       82.8750,       76.6250,       30.8014,       19.6165,      0.172363,     2562.1900
    1421.43480,       82.5000,       81.1875,       30.8150,       19.5505,      0.168457,     2562.1900
    1421.58720,       82.3750,       81.0625,       30.9066,       19.6495,      0.166504,     2566.0900
    1421.73960,       82.0000,       81.1250,       30.3184,       19.4349,      0.175293,     2560.1900
    1421.89200,       82.5000,       78.0625,       29.9293,       19.2529,      0.173340,     2564.0900
    1422.04440,       82.6250,       77.1250,       29.9167,       19.4018,      0.182617,     2546.5900
    1422.19680,       82.0000,       73.5000,       30.1471,       19.5979,      0.177246,     2546.5900
    1422.34920,       81.7500,       70.4375,       30.9526,       19.9644,      0.180664,     2542.6900
    1422.50160,       81.5000,       64.6875,       31.9306,       20.4618,      0.173828,     2548.4900
    1422.65400,       81.3750,       61.1250,       32.0710,       20.6214,      0.169922,     2550.4900
    1422.80640,       80.8750,       61.9062,       31.1471,       20.4365,      0.164551,     2550.4900
    1422.95880,       80.7500,       63.0938,       30.3812,       20.3617,      0.153809,     2544.5900
    1423.11120,       80.3750,       62.6875,       30.7202,       20.7743,      0.152344,     2538.7910
    1423.26360,       80.6250,       64.0000,       32.3192,       21.5865,      0.153320,     2536.7900
    1423.41600,       79.7500,       65.4375,       32.2538,       21.3453,      0.159668,     2538.7910
    1423.56840,       79.6250,       56.2812,       31.3136,       20.7113,      0.162109,     2528.9900
    1423.72080,       81.0000,       48.1250,       29.2615,       19.8696,      0.172852,     2505.5900
    1423.87320,       81.6250,       36.8438,       26.9150,       18.5231,      0.183105,     2485.9900
    1424.02560,       82.6250,       34.0000,       26.9069,       18.7278,      0.189941,     2470.3900
    1424.17800,       82.3750,       32.6875,       27.0232,       19.1905,      0.183105,     2470.3900
    1424.33040,       80.6250,       35.1250,       27.1297,       19.4792,      0.177246,     2484.0900
    1424.48280,       81.3750,       39.9375,       27.7374,       20.0533,      0.174805,     2495.7900
    1424.63520,       81.0000,       43.2500,       28.5756,       20.7741,      0.172852,     2497.6900
    1424.78760,       82.0000,       46.4688,       27.6225,       20.2179,      0.179688,     2487.9900
    1424.94000,       82.3750,       51.5000,       23.6620,       17.5957,      0.188477,     2484.0900
    1425.09240,       83.2500,       56.0312,       20.2310,       15.3396,      0.197266,     2474.2900
    1425.24480,       83.7500,       63.4062,       18.9323,       14.5675,      0.194336,     2458.6900
    1425.39720,       82.8750,       73.2500,       20.6313,       15.7820,      0.190918,     2456.6900
    1425.54960,       81.1250,       83.9375,       22.9350,       17.3918,      0.182129,     2493.7900
    1425.70200,       79.3750,       92.5000,       26.7330,       20.2220,      0.175293,     2556.2900
    1425.85440,       79.1250,       85.9375,       28.9367,       22.3200,      0.186035,     2601.2910
    1426.00680,       80.7500,       68.6875,       28.6275,       21.6211,      0.206543,     2616.8900
    1426.15920,       83.1250,       48.8125,       30.2616,       21.0439,      0.219727,     2622.6900
    1426.31160,       82.0000,       34.0625,       29.5328,       19.7140,      0.206055,     2593.3900
    1426.46400,       83.7500,       28.7188,       26.3339,       18.1458,      0.192383,     2566.0900
    1426.61640,       84.5000,       28.4844,       23.0259,       16.4487,      0.172852,     2515.2900
    1426.76880,       84.8750,       29.7969,       21.5255,       15.6147,      0.165039,     2497.6900
    1426.92120,       86.0000,       31.0469,       22.2590,       16.0767,      0.163574,     2480.1900
    1427.07360,       84.6250,       26.4062,       24.5414,       17.4449,      0.177734,     2478.1900
    1427.22600,       82.5000,       27.8906,       26.9089,       18.5403,      0.177734,     2474.2900
    1427.37840,       81.0000,       26.2031,       27.9044,       18.4770,      0.172852,     2472.3900
    1427.53080,       81.3750,       31.0781,       26.7095,       17.5306,      0.157715,     2484.0900
    1427.68320,       81.1250,       31.0938,       25.4162,       16.8641,      0.157715,     2495.7900
    1427.83560,       80.0000,       35.9688,       25.1490,       16.6649,      0.153320,     2505.5900
    1427.98800,       79.8750,       39.1875,       26.3551,       17.1167,      0.156250,     2499.6900
    1428.14040,       81.3750,       38.0000,       29.2445,       18.2851,      0.155762,     2495.7900
    1428.29280,       81.0000,       34.6562,       31.7947,       19.4290,      0.152344,     2499.6900
    1428.44520,       79.6250,       29.3906,       32.5410,       19.6821,      0.157227,     2507.4900
    1428.59760,       79.7500,       27.3438,       32.2425,       19.5867,      0.153809,     2513.3900
    1428.75000,       79.2500,       25.3750,       32.3350,       19.6564,      0.158203,     2517.2900
    1428.90240,       81.8750,       27.0000,       32.3281,       19.6208,      0.149414,     2519.1900
    1429.05480,       82.7500,       27.8125,       32.4215,       19.6781,      0.153809,     2509.4900
    1429.20720,       83.2500,       28.6094,       32.8340,       19.9326,      0.152344,     2501.5900
    1429.35960,       81.7500,       27.0312,       32.4795,       20.1416,      0.156250,     2491.8900
    1429.51200,       82.0000,       30.7969,       32.2210,       20.2143,      0.157715,     2495.7900
    1429.66440,       81.7500,       32.0312,       32.1379,       20.1778,      0.160156,     2491.8900
    1429.81680,       81.0000,       35.3438,       31.8341,       19.8830,      0.158203,     2487.9900
    1429.96920,       81.1250,       32.1250,       30.6104,       19.2420,      0.154785,     2482.0900
    1430.12160,       81.0000,       30.1562,       29.8904,       18.8533,      0.153320,     2485.9900
    1430.27400,       80.8750,       27.3281,       30.1790,       19.1335,      0.160645,     2487.9900
    1430.42640,       80.3750,       25.5781,       32.3171,       20.2119,      0.161133,     2493.7900
    1430.57880,       81.7500,       25.1094,       35.9091,       21.8905,      0.166016,     2495.7900
    1430.73120,       80.7500,       25.3281,       38.8370,       23.1250,      0.158203,     2497.6900
    1430.88360,       81.1250,       25.7500,       39.4991,       23.4986,      0.157227,     2501.5900
    1431.03600,       81.6250,       24.9219,       37.2663,       22.4152,      0.158691,     2497.6900
    1431.18840,       82.1250,       24.1562,       35.5193,       21.5920,      0.167480,     2501.5900
    1431.34080,       82.3750,       23.2969,       34.6053,       21.2682,      0.173340,     2495.7900
    1431.49320,       82.5000,       23.2812,       32.2028,       20.3375,      0.174316,     2493.7900
    1431.64560,       82.5000,       24.5000,       28.2643,       18.7590,      0.171875,     2482.0900
    1431.79800,       82.3750,       26.5000,       24.8527,       17.3381,      0.172363,     2484.0900
