~Version
VERS  .             3.0                                 : CWLS LOG ASCII STANDARD - VERSION 3.0
WRAP  .             NO                                  : One line per depth step
DLM   .             COMMA                               : Delimiter character between data columns
#Delimiting character ( SPACE TAB OR COMMA ).

~Well
#MNEM.UNIT          DATA                                DESCRIPTION
#----- ----        -----------------                   -----------
STRT  .M                457.96200                       : FIRST INDEX VALUE
STOP  .M               1608.73440                       : LAST INDEX VALUE
STEP  .M                  0.15240                       : STEP OF INDEX
NULL  .             -999.25                             : NULL VALUE
COMP  .                                                 : COMPANY
WELL  .             BOTEIN                              : WELL
FLD   .                                                 : FIELD
LOC   .                                                 : LOCATION
SRVC  .                                                 : SERVICE COMPANY
CTRY  .                                                 : COUNTRY
PROV  .                                                 : PROVINCE
UWI   .                                                 : UNIQUE WELL ID
LIC   .                                                 : LICENSE NUMBER
STAT  .                                                 : STATE
CNTY  .                                                 : COUNTY
API   .                                                 : API NUMBER
DATE  .                                                 : LOG DATE
X     .             652587.7147133                      : X OR EAST-WEST COORDINATE
Y     .             8157411.965436                      : Y OR NORTH-SOUTH COORDINATE
HZCS  .                                                 : HORIZONTAL CO-ORDINATE SYSTEM
LATI  .             -16.66083333333                     : LATITUDE
LONG  .             154.4308333333                      : LONGITUDE
GDAT  .                                                 : GEODETIC DATUM

~TOPS_PARAMETER 
#MNEM.UNIT                    VALUE                        DESCRIPTION
#--------------- ---         ------------                 -----------------

~TOPS_DEFINITION 
#MNEM.UNIT                 LOG CODE                  CURVE DESCRIPTION
#----------- ----         ------------              -----------------
DEPTH       .M                                      :     {F}
TOPS        .                                       : Formation Tops    {S24}

~TOPS_DATA | TOPS_DEFINITION
      458.3276,Horseshoe Creek Subgroup
      505.0000,Apple Tree Flat Subgroup
      740.7975,Watts Sandstone         
      753.0000,Denman Fm               
      851.4292,Mt Leonard Fm           
      989.0000,Althorpe Fm             
      996.7500,Malabar Fm              
     1037.4525,Mt Ogilvie Fm           
     1080.0000,Milbrodale Fm           
     1145.2545,Mt Thorley Fm           
     1194.8500,Burnamwood Fm           
     1309.0875,Archerfield Sandstone   
     1321.0000,Mulbring Siltstone      
     1390.0000,Muree Sandstone         
     1502.0000,Branxton Fm             
     1564.4045,Greta Coal Measures     
     1583.3452,Dalwood Group           
     1587.8602,Dalwood Group           

~PARAMETER 
#MNEM.UNIT                    VALUE                        DESCRIPTION
#--------------- ---         ------------                 -----------------

~CURVE 
#MNEM.UNIT                 LOG CODE                  CURVE DESCRIPTION
#----------- ----         ------------              -----------------
DEPTH       .M                                      : Copied from set DDBHC1.    {F}
DT          .US/F                                   : Loaded from LIS tape.  Reversed.    {F}
GR          .GAPI                                   : Split GR_1 from 1502.50 to 5228.01    {F}
LLD         .OHMM                                   : Loaded from LIS tape.  Reversed.    {F}
LLS         .OHMM                                   : Loaded from LIS tape.  Reversed.    {F}
NPHI        .V/V                                    : Loaded from LIS tape.  Reversed.    {F}
RHOB        .K/M3                                   : Offset applied to log data.    {F}

~ASCII | CURVE 
# ...
    1162.05000,       88.0000,       63.6562,        9.7336,        6.2217,      0.256836,     2497.6900
    1162.20240,       88.0000,       58.4688,        9.5747,        6.0552,      0.253418,     2493.7900
    1162.35480,       88.8750,       53.6250,        9.4076,        5.9282,      0.239258,     2501.5900
    1162.50720,       89.0000,       51.9062,        9.6890,        6.0636,      0.230469,     2499.6900
    1162.65960,       88.5000,       53.2188,        9.9368,        6.1921,      0.227051,     2495.7900
    1162.81200,       89.0000,       54.5312,       10.1968,        6.3193,      0.226562,     2497.6900
    1162.96440,       89.1250,       51.6562,       10.3168,        6.3340,      0.232422,     2491.8900
    1163.11680,       89.2500,       49.0625,       10.3500,        6.4675,      0.238770,     2495.7900
    1163.26920,       88.3750,       50.5000,       10.1750,        6.5029,      0.235840,     2487.9900
    1163.42160,       88.6250,       51.2812,       10.1730,        6.5495,      0.226074,     2482.0900
    1163.57400,       88.7500,       54.9062,       10.4440,        6.8435,      0.218750,     2478.1900
    1163.72640,       88.3750,       50.7812,       10.6071,        7.0696,      0.217773,     2472.3900
    1163.87880,       89.0000,       53.2812,       10.8737,        7.2661,      0.218262,     2482.0900
    1164.03120,       87.7500,       49.7188,       10.9050,        7.4617,      0.209961,     2474.2900
    1164.18360,       87.5000,       48.6250,       10.8465,        7.5267,      0.211426,     2470.3900
    1164.33600,       88.1250,       45.1875,       10.5014,        7.4298,      0.210938,     2462.5900
    1164.48840,       88.3750,       44.5625,        9.9018,        7.0811,      0.221680,     2476.2910
    1164.64080,       87.8750,       45.6562,        9.2577,        6.5235,      0.220703,     2491.8900
    1164.79320,       89.0000,       47.3750,        9.2632,        6.3931,      0.220703,     2501.5900
    1164.94560,       88.7500,       47.6250,       10.5980,        7.0422,      0.220703,     2503.5900
    1165.09800,       89.5000,       49.3438,       13.3471,        8.7442,      0.222168,     2525.0900
    1165.25040,       90.8750,       52.6562,       14.3512,       10.3812,      0.224121,     2575.8900
    1165.40280,       87.8750,       55.5625,       13.7445,       11.4870,      0.212402,     2638.3900
    1165.55520,       86.3750,       60.5000,       11.2099,       10.4628,      0.204102,     2659.8900
    1165.70760,       84.7500,       68.8750,        8.7823,        8.3649,      0.212402,     2628.5900
    1165.86000,       89.3750,       69.9375,        7.9545,        7.6000,      0.244629,     2583.6900
    1166.01240,       93.5000,       70.5000,        7.6389,        7.3417,      0.273438,     2568.0900
    1166.16480,       94.0000,       69.6875,        7.7010,        7.4535,      0.274902,     2562.1900
    1166.31720,       95.0000,       71.0000,        7.2925,        7.0057,      0.272949,     2568.0900
    1166.46960,       94.6250,       65.8125,        7.0308,        6.7045,      0.269531,     2548.4900
    1166.62200,       94.6250,       56.8750,        6.9784,        6.6989,      0.276855,     2519.1900
    1166.77440,       94.7500,       54.0938,        7.0142,        6.6834,      0.267090,     2497.6900
    1166.92680,       94.7500,       53.4375,        7.2048,        6.7828,      0.257812,     2497.6900
    1167.07920,       95.0000,       51.8125,        7.4247,        6.9523,      0.257324,     2511.3900
    1167.23160,       93.0000,       50.6250,        7.8959,        7.3550,      0.255859,     2519.1900
    1167.38400,       91.8750,       49.4375,        8.4437,        7.6848,      0.265137,     2523.0900
    1167.53640,       90.8750,       50.6875,        8.5364,        7.6633,      0.255371,     2536.7900
    1167.68880,       90.0000,       52.3125,        8.3434,        7.4981,      0.250977,     2525.0900
    1167.84120,       91.0000,       55.8750,        7.9759,        7.2782,      0.242188,     2509.4900
    1167.99360,       91.2500,       56.9688,        8.4748,        7.5884,      0.254883,     2489.8900
    1168.14600,       92.1250,       57.7812,        8.9087,        7.7839,      0.266113,     2499.6900
    1168.29840,       86.6250,       58.7188,        9.2053,        8.0411,      0.250000,     2519.1900
    1168.45080,       88.5000,       61.5000,        9.0211,        7.9412,      0.231445,     2532.8900
    1168.60320,       88.8750,       65.7500,        7.3486,        6.6615,      0.220703,     2540.6900
    1168.75560,       94.7500,       66.0625,        6.5893,        5.9544,      0.235840,     2528.9900
    1168.90800,       97.2500,       63.5312,        6.6911,        6.0333,      0.254883,     2507.4900
    1169.06040,       97.7500,       54.5312,        6.5146,        5.8914,      0.272949,     2484.0900
    1169.21280,       96.2500,       54.2812,        6.6161,        5.9403,      0.269531,     2474.2900
    1169.36520,       94.1250,       56.0938,        6.3812,        5.8012,      0.245605,     2480.1900
    1169.51760,       93.3750,       61.3125,        6.1633,        5.6314,      0.218750,     2480.1900
    1169.67000,       95.1250,       61.7812,        6.3145,        5.7129,      0.228516,     2462.5900
    1169.82240,       97.1250,       61.7500,        6.7109,        6.0063,      0.251465,     2454.7900
    1169.97480,       98.1250,       63.5938,        7.5703,        6.7781,      0.263672,     2462.5900
    1170.12720,       96.8750,       62.0938,        7.5669,        6.8808,      0.270020,     2493.7900
    1170.27960,       96.5000,       58.2812,        7.4587,        6.7346,      0.263672,     2513.3900
    1170.43200,       96.6250,       56.0625,        7.2404,        6.5205,      0.281738,     2530.8900
    1170.58440,       94.6250,       55.5312,        7.4178,        6.6400,      0.280273,     2556.2900
    1170.73680,       94.5000,       57.8125,        8.4250,        7.4187,      0.283203,     2569.9900
    1170.88920,       92.8750,       58.0938,        9.3651,        8.2418,      0.270508,     2593.3900
    1171.04160,       90.8750,       62.7500,        9.5342,        8.4844,      0.258301,     2603.1900
    1171.19400,       88.1250,       67.0000,        8.9405,        8.0559,      0.248047,     2622.6900
    1171.34640,       90.6250,       66.3750,        8.1178,        7.4662,      0.259766,     2605.1900
    1171.49880,       93.2500,       63.3125,        7.7077,        7.0039,      0.270020,     2587.5900
    1171.65120,       95.5000,       58.6562,        7.3030,        6.6181,      0.276367,     2569.9900
    1171.80360,       94.1250,       62.4062,        7.0669,        6.3884,      0.260742,     2566.0900
    1171.95600,       94.5000,       61.7812,        6.7582,        6.1761,      0.260742,     2540.6900
    1172.10840,       93.6250,       65.8750,        6.6209,        6.0319,      0.256348,     2519.1900
    1172.26080,       95.0000,       67.3125,        6.8936,        6.2273,      0.271973,     2503.5900
    1172.41320,       94.3750,       75.2500,        6.9639,        6.3416,      0.266113,     2521.1900
    1172.56560,       96.0000,       78.0625,        7.0434,        6.4113,      0.269531,     2550.4900
    1172.71800,       96.2500,       77.6875,        7.1731,        6.6220,      0.270508,     2585.5900
    1172.87040,       96.3750,       78.0000,        7.5242,        6.8818,      0.277344,     2609.0900
    1173.02280,       96.7500,       76.3125,        8.1936,        7.3853,      0.284180,     2607.0900
    1173.17520,       94.5000,       79.5000,        8.1633,        7.2513,      0.266113,     2605.1900
    1173.32760,       93.1250,       72.7500,        7.4949,        6.5683,      0.257324,     2595.3900
    1173.48000,       92.0000,       65.7500,        7.4379,        6.4950,      0.260742,     2585.5900
    1173.63240,       92.1250,       57.4688,        7.3229,        6.3227,      0.264648,     2569.9900
