~Version
VERS  .             3.0                                 : CWLS LOG ASCII STANDARD - VERSION 3.0
WRAP  .             NO                                  : One line per depth step
DLM   .             COMMA                               : Delimiter character between data columns
#Delimiting character ( SPACE TAB OR COMMA ).

~Well
#MNEM.UNIT          DATA                                DESCRIPTION
#----- ----        -----------------                   -----------
STRT  .M                457.96200                       : FIRST INDEX VALUE
STOP  .M               1608.73440                       : LAST INDEX VALUE
STEP  .M                  0.15240                       : STEP OF INDEX
NULL  .             -999.25                             : NULL VALUE
COMP  .                                                 : COMPANY
WELL  .             BOTEIN                              : WELL
FLD   .                                                 : FIELD
LOC   .                                                 : LOCATION
SRVC  .                                                 : SERVICE COMPANY
CTRY  .                                                 : COUNTRY
PROV  .                                                 : PROVINCE
UWI   .                                                 : UNIQUE WELL ID
LIC   .                                                 : LICENSE NUMBER
STAT  .                                                 : STATE
CNTY  .                                                 : COUNTY
API   .                                                 : API NUMBER
DATE  .                                                 : LOG DATE
X     .             652587.7147133                      : X OR EAST-WEST COORDINATE
Y     .             8157411.965436                      : Y OR NORTH-SOUTH COORDINATE
HZCS  .                                                 : HORIZONTAL CO-ORDINATE SYSTEM
LATI  .             -16.66083333333                     : LATITUDE
LONG  .             154.4308333333                      : LONGITUDE
GDAT  .                                                 : GEODETIC DATUM

~TOPS_PARAMETER 
#MNEM.UNIT                    VALUE                        DESCRIPTION
#--------------- ---         ------------                 -----------------

~TOPS_DEFINITION 
#MNEM.UNIT                 LOG CODE                  CURVE DESCRIPTION
#----------- ----         ------------              -----------------
DEPTH       .M                                      :     {F}
TOPS        .                                       : Formation Tops    {S24}

~TOPS_DATA | TOPS_DEFINITION
      458.3276,Horseshoe Creek Subgroup
      505.0000,Apple Tree Flat Subgroup
      740.7975,Watts Sandstone         
      753.0000,Denman Fm               
      851.4292,Mt Leonard Fm           
      989.0000,Althorpe Fm             
      996.7500,Malabar Fm              
     1037.4525,Mt Ogilvie Fm           
     1080.0000,Milbrodale Fm           
     1145.2545,Mt Thorley Fm           
     1194.8500,Burnamwood Fm           
     1309.0875,Archerfield Sandstone   
     1321.0000,Mulbring Siltstone      
     1390.0000,Muree Sandstone         
     1502.0000,Branxton Fm             
     1564.4045,Greta Coal Measures     
     1583.3452,Dalwood Group           
     1587.8602,Dalwood Group           

~PARAMETER 
#MNEM.UNIT                    VALUE                        DESCRIPTION
#--------------- ---         ------------                 -----------------

~CURVE 
#MNEM.UNIT                 LOG CODE                  CURVE DESCRIPTION
#----------- ----         ------------              -----------------
DEPTH       .M                                      : Copied from set DDBHC1.    {F}
DT          .US/F                                   : Loaded from LIS tape.  Reversed.    {F}
GR          .GAPI                                   : Split GR_1 from 1502.50 to 5228.01    {F}
LLD         .OHMM                                   : Loaded from LIS tape.  Reversed.    {F}
LLS         .OHMM                                   : Loaded from LIS tape.  Reversed.    {F}
NPHI        .V/V                                    : Loaded from LIS tape.  Reversed.    {F}
RHOB        .K/M3                                   : Offset applied to log data.    {F}

~ASCII | CURVE 
# ...
    1068.17160,      106.0000,       84.3750,        3.6178,        3.9688,   -999.250000,     -999.2500
    1068.32400,      106.5000,       83.4375,        3.7487,        4.0786,   -999.250000,     -999.2500
    1068.47640,      106.7500,       86.0000,        3.8228,        4.1736,   -999.250000,     -999.2500
    1068.62880,      106.2500,       81.5000,        3.9041,        4.2751,   -999.250000,     -999.2500
    1068.78120,      104.8750,       84.8125,        3.9934,        4.3183,   -999.250000,     -999.2500
    1068.93360,      105.0000,       86.8750,        3.9867,        4.4128,   -999.250000,     -999.2500
    1069.08600,      104.7500,       89.1250,        3.9533,        4.3674,   -999.250000,     -999.2500
    1069.23840,      104.0000,       89.7500,        3.9241,        4.3527,   -999.250000,     -999.2500
    1069.39080,      103.3750,       90.3750,        3.9201,        4.2931,   -999.250000,     -999.2500
    1069.54320,      103.1250,       87.5000,        3.8087,        4.2578,   -999.250000,     -999.2500
    1069.69560,      104.0000,       84.5625,        3.7621,        4.1746,   -999.250000,     -999.2500
    1069.84800,      105.6250,       82.3125,        3.7261,        4.1505,   -999.250000,     -999.2500
    1070.00040,      106.0000,       82.6875,        3.7692,        4.1979,   -999.250000,     -999.2500
    1070.15280,      106.5000,       85.0625,        3.8293,        4.2633,   -999.250000,     -999.2500
    1070.30520,      107.2500,       81.9375,        3.9199,        4.3221,   -999.250000,     -999.2500
    1070.45760,      106.8750,       82.1250,        4.0140,        4.5031,   -999.250000,     -999.2500
    1070.61000,      106.0000,       80.6250,        4.0328,        4.5012,   -999.250000,     -999.2500
    1070.76240,      105.2500,       81.8125,        4.0238,        4.4953,   -999.250000,     -999.2500
    1070.91480,      105.2500,       84.7500,        4.1157,        4.6830,   -999.250000,     -999.2500
    1071.06720,      104.3750,       86.4375,        4.3224,        4.9213,   -999.250000,     -999.2500
    1071.21960,      104.1250,       87.8750,        4.5171,        5.0701,   -999.250000,     -999.2500
    1071.37200,      102.8750,       92.0625,        4.4943,        5.0747,   -999.250000,     -999.2500
    1071.52440,      101.0000,       94.6250,        4.4570,        5.0455,   -999.250000,     -999.2500
    1071.67680,       98.0000,       93.7500,        4.2686,        4.9263,   -999.250000,     -999.2500
    1071.82920,       97.5000,       91.4375,        4.3159,        4.9431,   -999.250000,     -999.2500
    1071.98160,       99.8750,       91.4375,        4.5114,        5.1638,      0.315430,     2603.1900
    1072.13400,      100.0000,       99.3125,        4.4822,        5.2186,      0.334473,     2597.3900
    1072.28640,      100.8750,      100.6880,        4.4305,        5.2262,      0.336914,     2597.3900
    1072.43880,      101.7500,       97.0000,        4.3869,        5.1614,      0.348633,     2587.5900
    1072.59120,      102.0000,       95.6875,        4.2800,        4.9686,      0.323242,     2603.1900
    1072.74360,      103.5000,       91.5625,        4.3927,        5.1234,      0.333496,     2612.9900
    1072.89600,      104.0000,       96.3125,        4.3356,        5.0576,      0.332031,     2624.6900
    1073.04840,      104.2500,       96.2500,        4.2624,        4.9715,      0.357910,     2624.6900
    1073.20080,      103.3750,      103.1880,        4.3055,        5.0367,      0.357422,     2632.4900
    1073.35320,      103.1250,      105.9380,        4.3388,        5.0932,      0.372559,     2640.2900
    1073.50560,      102.3750,      101.1880,        5.1320,        5.9187,      0.376465,     2661.7900
    1073.65800,      102.7500,       88.8750,        6.9565,        7.9672,      0.364746,     2704.7900
    1073.81040,       98.5000,       75.1250,        7.7041,        8.7801,      0.326172,     2763.3900
    1073.96280,       89.8750,       79.7500,        7.7828,        8.8924,      0.264648,     2792.6900
    1074.11520,       82.8750,       89.5625,        6.5663,        7.7137,      0.232910,     2755.5900
    1074.26760,       81.7500,      103.7500,        5.3649,        6.3543,      0.264160,     2706.6900
    1074.42000,       85.6250,      100.5000,        5.3811,        6.1864,      0.308105,     2669.5900
    1074.57240,       93.5000,      107.0620,        5.5954,        6.4315,      0.337402,     2669.5900
    1074.72480,       97.2500,      105.6880,        5.6801,        6.5130,      0.340332,     2650.0900
    1074.87720,       98.8750,      113.4380,        5.6207,        6.4062,      0.348633,     2628.5900
    1075.02960,       98.5000,      108.6250,        5.5499,        6.3193,      0.360840,     2595.3900
    1075.18200,       97.7500,      114.1880,        5.4900,        6.3309,      0.354980,     2593.3900
    1075.33440,       99.8750,      113.1250,        5.5407,        6.4058,      0.337891,     2605.1900
    1075.48680,       99.1250,      117.7500,        5.4357,        6.2480,      0.332031,     2618.7900
    1075.63920,       99.0000,      118.1250,        5.3402,        6.1315,      0.321777,     2626.5900
    1075.79160,       99.6250,      122.1250,        5.2410,        6.0303,      0.335938,     2632.4900
    1075.94400,       98.8750,      121.8120,        5.2347,        5.9814,      0.344727,     2642.2900
    1076.09640,       99.5000,      117.3750,        5.1930,        5.9705,      0.360352,     2644.1900
    1076.24880,       98.3750,      112.8120,        5.3084,        6.0613,      0.339844,     2651.9900
    1076.40120,       98.5000,      108.8750,        5.2224,        6.0194,      0.307617,     2644.1900
    1076.55360,       98.3750,      108.5000,        4.9292,        5.6520,      0.292969,     2648.0900
    1076.70600,       98.7500,      108.0000,        4.7003,        5.3688,      0.318359,     2638.3900
    1076.85840,       97.2500,      114.1880,        4.4716,        5.1548,      0.336914,     2638.3900
    1077.01080,       97.7500,      114.5620,        4.3259,        4.9844,      0.351074,     2626.5900
    1077.16320,      103.3750,      117.1880,        4.2463,        4.9003,      0.337402,     2628.5900
    1077.31560,      103.8750,      114.1250,        4.2638,        4.8352,      0.348145,     2630.5900
    1077.46800,      105.0000,      114.5620,        4.2458,        4.8824,      0.338867,     2634.4900
    1077.62040,      106.0000,      116.9380,        4.3172,        4.9420,      0.359863,     2632.4900
    1077.77280,      106.0000,      120.8750,        4.4438,        5.1005,      0.359375,     2642.2900
    1077.92520,      106.0000,      124.1250,        4.7145,        5.3198,      0.370605,     2644.1900
    1078.07760,      104.5000,      127.2500,        5.0269,        5.7123,      0.361328,     2650.0900
    1078.23000,      102.6250,      123.0000,        5.4130,        6.0503,      0.341797,     2648.0900
    1078.38240,      101.5000,      122.3120,        5.5064,        6.1883,      0.306152,     2642.2900
    1078.53480,      100.2500,      115.3750,        5.6596,        6.3319,      0.294434,     2638.3900
    1078.68720,      100.5000,      115.4380,        5.8663,        6.5958,      0.293457,     2634.4900
    1078.83960,      100.2500,      110.8120,        5.8630,        6.5321,      0.312012,     2644.1900
    1078.99200,       99.3750,      114.4380,        5.7862,        6.4689,      0.307129,     2655.8900
    1079.14440,       97.1250,      112.5000,        5.7241,        6.3694,      0.310547,     2661.7900
    1079.29680,       98.3750,      119.1880,        5.5651,        6.2656,      0.307129,     2663.7910
    1079.44920,      100.3750,      119.3750,        5.4828,        6.1578,      0.307129,     2657.8900
    1079.60160,      102.5000,      127.5000,        5.5651,        6.1882,      0.325684,     2657.8900
    1079.75400,      103.1250,      123.9380,        5.7569,        6.4245,      0.344727,     2659.8900
