~Version
VERS  .             3.0                                 : CWLS LOG ASCII STANDARD - VERSION 3.0
WRAP  .             NO                                  : One line per depth step
DLM   .             COMMA                               : Delimiter character between data columns
#Delimiting character ( SPACE TAB OR COMMA ).

~Well
#MNEM.UNIT          DATA                                DESCRIPTION
#----- ----        -----------------                   -----------
STRT  .M                457.96200                       : FIRST INDEX VALUE
STOP  .M               1608.73440                       : LAST INDEX VALUE
STEP  .M                  0.15240                       : STEP OF INDEX
NULL  .             -999.25                             : NULL VALUE
COMP  .                                                 : COMPANY
WELL  .             BOTEIN                              : WELL
FLD   .                                                 : FIELD
LOC   .                                                 : LOCATION
SRVC  .                                                 : SERVICE COMPANY
CTRY  .                                                 : COUNTRY
PROV  .                                                 : PROVINCE
UWI   .                                                 : UNIQUE WELL ID
LIC   .                                                 : LICENSE NUMBER
STAT  .                                                 : STATE
CNTY  .                                                 : COUNTY
API   .                                                 : API NUMBER
DATE  .                                                 : LOG DATE
X     .             652587.7147133                      : X OR EAST-WEST COORDINATE
Y     .             8157411.965436                      : Y OR NORTH-SOUTH COORDINATE
HZCS  .                                                 : HORIZONTAL CO-ORDINATE SYSTEM
LATI  .             -16.66083333333                     : LATITUDE
LONG  .             154.4308333333                      : LONGITUDE
GDAT  .                                                 : GEODETIC DATUM

~TOPS_PARAMETER 
#MNEM.UNIT                    VALUE                        DESCRIPTION
#--------------- ---         ------------                 -----------------

~TOPS_DEFINITION 
#MNEM.UNIT                 LOG CODE                  CURVE DESCRIPTION
#----------- ----         ------------              -----------------
DEPTH       .M                                      :     {F}
TOPS        .                                       : Formation Tops    {S24}

~TOPS_DATA | TOPS_DEFINITION
      458.3276,Horseshoe Creek Subgroup
      505.0000,Apple Tree Flat Subgroup
      740.7975,Watts Sandstone         
      753.0000,Denman Fm               
      851.4292,Mt Leonard Fm           
      989.0000,Althorpe Fm             
      996.7500,Malabar Fm              
     1037.4525,Mt Ogilvie Fm           
     1080.0000,Milbrodale Fm           
     1145.2545,Mt Thorley Fm           
     1194.8500,Burnamwood Fm           
     1309.0875,Archerfield Sandstone   
     1321.0000,Mulbring Siltstone      
     1390.0000,Muree Sandstone         
     1502.0000,Branxton Fm             
     1564.4045,Greta Coal Measures     
     1583.3452,Dalwood Group           
     1587.8602,Dalwood Group           

~PARAMETER 
#MNEM.UNIT                    VALUE                        DESCRIPTION
#--------------- ---         ------------                 -----------------

~CURVE 
#MNEM.UNIT                 LOG CODE                  CURVE DESCRIPTION
#----------- ----         ------------              -----------------
DEPTH       .M                                      : Copied from set DDBHC1.    {F}
DT          .US/F                                   : Loaded from LIS tape.  Reversed.    {F}
GR          .GAPI                                   : Split GR_1 from 1502.50 to 5228.01    {F}
LLD         .OHMM                                   : Loaded from LIS tape.  Reversed.    {F}
LLS         .OHMM                                   : Loaded from LIS tape.  Reversed.    {F}
NPHI        .V/V                                    : Loaded from LIS tape.  Reversed.    {F}
RHOB        .K/M3                                   : Offset applied to log data.    {F}

~ASCII | CURVE 
# ...
    1467.15480,       81.1250,       54.4375,       26.8806,       19.0460,      0.177734,     2581.6900
    1467.30720,       79.7500,       50.0312,       25.7792,       18.2330,      0.173828,     2571.9900
    1467.45960,       80.6250,       55.0938,       25.1319,       17.9362,      0.166016,     2566.0900
    1467.61200,       80.3750,       57.3438,       23.5197,       16.9948,      0.172852,     2556.2900
    1467.76440,       79.7500,       59.2188,       25.1907,       18.0357,      0.183594,     2544.5900
    1467.91680,       81.2500,       56.7500,       27.1430,       19.0039,      0.180664,     2560.1900
    1468.06920,       81.6250,       49.8750,       26.5921,       18.5912,      0.174316,     2583.6900
    1468.22160,       80.6250,       43.3125,       26.9479,       18.7911,      0.165527,     2591.4900
    1468.37400,       82.3750,       35.6250,       24.8029,       17.6976,      0.175781,     2554.3900
    1468.52640,       82.3750,       37.6875,       24.6319,       17.4084,      0.183594,     2513.3900
    1468.67880,       83.7500,       38.0312,       26.3330,       18.2993,      0.192871,     2493.7900
    1468.83120,       84.7500,       37.6250,       27.4692,       19.2712,      0.184570,     2489.8900
    1468.98360,       83.8750,       36.7812,       26.8190,       18.7819,      0.176758,     2495.7900
    1469.13600,       84.0000,       38.0312,       25.2347,       17.8394,      0.171875,     2495.7900
    1469.28840,       83.6250,       42.5625,       26.5837,       18.8109,      0.174805,     2497.6900
    1469.44080,       84.6250,       47.5000,       28.8998,       20.2430,      0.169922,     2505.5900
    1469.59320,       83.6250,       50.3125,       28.7427,       19.8749,      0.159180,     2532.8900
    1469.74560,       81.6250,       48.2500,       29.4322,       20.7214,      0.145020,     2562.1900
    1469.89800,       81.8750,       43.7188,       27.5174,       20.4089,      0.154297,     2550.4900
    1470.05040,       81.8750,       38.0312,       24.6185,       18.4190,      0.170410,     2515.2900
    1470.20280,       82.5000,       34.0312,       24.8681,       18.4599,      0.184082,     2487.9900
    1470.35520,       83.7500,       32.3750,       25.2017,       19.0343,      0.183105,     2489.8900
    1470.50760,       84.7500,       36.2500,       25.9781,       19.9579,      0.178223,     2505.5900
    1470.66000,       83.2500,       42.9375,       26.4794,       20.5704,      0.177734,     2517.2900
    1470.81240,       83.2500,       49.8438,       25.3387,       19.9790,      0.170410,     2532.8900
    1470.96480,       81.1250,       49.0000,       26.8053,       21.1717,      0.170898,     2548.4900
    1471.11720,       80.8750,       51.3750,       25.3544,       20.5009,      0.172852,     2550.4900
    1471.26960,       83.2500,       47.0000,       23.2235,       19.0407,      0.185547,     2536.7900
    1471.42200,       85.2500,       49.6250,       23.9275,       20.0275,      0.194824,     2517.2900
    1471.57440,       85.6250,       50.7812,       25.6311,       22.0307,      0.194824,     2505.5900
    1471.72680,       84.8750,       58.2188,       30.5604,       25.5051,      0.186523,     2513.3900
    1471.87920,       81.1250,       61.5000,       36.6154,       30.4912,      0.164062,     2560.1900
    1472.03160,       77.7500,       56.8750,       39.9608,       33.8352,      0.152832,     2597.3900
    1472.18400,       74.0000,       47.7812,       39.0722,       32.8686,      0.142578,     2601.2910
    1472.33640,       70.2500,       42.1250,       42.3706,       33.6228,      0.142090,     2603.1900
    1472.48880,       68.0000,       34.4062,       60.1366,       44.3942,      0.151855,     2665.6900
    1472.64120,       66.5000,       32.2500,      105.9430,       71.7880,      0.179199,     2784.8900
    1472.79360,       64.2500,       31.8594,      145.6990,       96.0899,      0.211426,     2880.5900
    1472.94600,       62.2500,       38.0625,      137.8310,      105.0870,      0.204590,     2853.1900
    1473.09840,       62.2500,       50.3750,       79.0001,       65.5912,      0.162109,     2778.9900
    1473.25080,       65.0000,       57.2812,       41.9957,       36.0177,      0.128418,     2702.7900
    1473.40320,       72.2500,       61.3438,       33.8157,       29.7663,      0.130859,     2663.7910
    1473.55560,       77.5000,       52.8438,       27.2250,       25.2914,      0.165039,     2622.6900
    1473.70800,       80.1250,       42.2812,       23.1271,       22.1493,      0.180664,     2601.2910
    1473.86040,       80.5000,       34.2188,       23.0969,       22.1264,      0.191406,     2564.0900
    1474.01280,       80.2500,       28.1094,       23.1880,       22.2301,      0.179199,     2542.6900
    1474.16520,       80.1250,       33.9688,       24.4358,       22.4621,      0.172363,     2523.0900
    1474.31760,       80.7500,       43.8750,       27.1000,       23.1063,      0.166016,     2509.4900
    1474.47000,       82.8750,       51.3125,       28.2687,       22.8097,      0.171875,     2489.8900
    1474.62240,       85.5000,       48.7188,       26.9120,       21.9050,      0.189453,     2484.0900
    1474.77480,       89.0000,       44.0000,       25.5911,       21.0038,      0.200195,     2485.9900
    1474.92720,       84.5000,       43.4375,       23.8388,       19.8309,      0.202148,     2507.4900
    1475.07960,       82.2500,       50.7500,       24.8334,       20.5729,      0.189941,     2505.5900
    1475.23200,       82.6250,       56.0312,       25.3665,       20.4536,      0.170898,     2521.1900
    1475.38440,       81.6250,       57.2500,       26.0792,       20.7148,      0.162598,     2542.6900
    1475.53680,       80.8750,       54.8125,       26.4738,       20.6560,      0.159668,     2568.0900
    1475.68920,       78.8750,       53.2188,       24.1189,       18.7649,      0.168945,     2538.7910
    1475.84160,       79.2500,       49.4688,       25.1940,       19.3437,      0.187012,     2509.4900
    1475.99400,       83.1250,       47.8750,       25.6262,       19.6759,      0.190430,     2495.7900
    1476.14640,       82.0000,       45.7812,       26.3190,       19.7241,      0.186035,     2509.4900
    1476.29880,       83.0000,       47.8438,       27.6225,       20.4109,      0.174805,     2503.5900
    1476.45120,       84.2500,       47.1250,       26.9051,       19.9955,      0.174805,     2515.2900
    1476.60360,       85.0000,       44.6250,       25.6603,       19.1933,      0.178711,     2519.1900
    1476.75600,       86.2500,       43.4375,       24.9383,       18.9135,      0.183594,     2538.7910
    1476.90840,       85.8750,       44.6250,       25.0351,       19.0510,      0.181152,     2515.2900
    1477.06080,       85.5000,       50.5312,       26.1080,       19.4532,      0.182129,     2515.2900
    1477.21320,       85.6250,       65.4375,       25.4473,       19.0907,      0.174316,     2511.3900
    1477.36560,       87.3750,       86.1250,       27.1050,       20.2851,      0.165039,     2546.5900
    1477.51800,       87.6250,      100.1250,       28.8435,       21.5322,      0.163086,     2548.4900
    1477.67040,       86.6250,       90.0000,       27.6314,       20.3294,      0.169434,     2569.9900
    1477.82280,       83.6250,       74.0625,       26.9295,       20.0836,      0.188477,     2566.0900
    1477.97520,       81.6250,       53.4062,       26.7971,       20.5493,      0.197266,     2571.9900
    1478.12760,       81.1250,       48.6875,       27.7430,       21.4047,      0.194824,     2540.6900
    1478.28000,       79.2500,       43.5000,       29.4292,       22.1786,      0.178711,     2542.6900
    1478.43240,       79.1250,       47.1875,       33.8222,       25.1911,      0.152344,     2558.2900
    1478.58480,       79.1250,       48.6250,       36.7835,       28.0300,      0.149902,     2595.3900
    1478.73720,       77.5000,       48.9375,       34.6477,       26.8470,      0.154785,     2599.2900
