~Version
VERS  .             3.0                                 : CWLS LOG ASCII STANDARD - VERSION 3.0
WRAP  .             NO                                  : One line per depth step
DLM   .             COMMA                               : Delimiter character between data columns
#Delimiting character ( SPACE TAB OR COMMA ).

~Well
#MNEM.UNIT          DATA                                DESCRIPTION
#----- ----        -----------------                   -----------
STRT  .M                457.96200                       : FIRST INDEX VALUE
STOP  .M               1608.73440                       : LAST INDEX VALUE
STEP  .M                  0.15240                       : STEP OF INDEX
NULL  .             -999.25                             : NULL VALUE
COMP  .                                                 : COMPANY
WELL  .             BOTEIN                              : WELL
FLD   .                                                 : FIELD
LOC   .                                                 : LOCATION
SRVC  .                                                 : SERVICE COMPANY
CTRY  .                                                 : COUNTRY
PROV  .                                                 : PROVINCE
UWI   .                                                 : UNIQUE WELL ID
LIC   .                                                 : LICENSE NUMBER
STAT  .                                                 : STATE
CNTY  .                                                 : COUNTY
API   .                                                 : API NUMBER
DATE  .                                                 : LOG DATE
X     .             652587.7147133                      : X OR EAST-WEST COORDINATE
Y     .             8157411.965436                      : Y OR NORTH-SOUTH COORDINATE
HZCS  .                                                 : HORIZONTAL CO-ORDINATE SYSTEM
LATI  .             -16.66083333333                     : LATITUDE
LONG  .             154.4308333333                      : LONGITUDE
GDAT  .                                                 : GEODETIC DATUM

~TOPS_PARAMETER 
#MNEM.UNIT                    VALUE                        DESCRIPTION
#--------------- ---         ------------                 -----------------

~TOPS_DEFINITION 
#MNEM.UNIT                 LOG CODE                  CURVE DESCRIPTION
#----------- ----         ------------              -----------------
DEPTH       .M                                      :     {F}
TOPS        .                                       : Formation Tops    {S24}

~TOPS_DATA | TOPS_DEFINITION
      458.3276,Horseshoe Creek Subgroup
      505.0000,Apple Tree Flat Subgroup
      740.7975,Watts Sandstone         
      753.0000,Denman Fm               
      851.4292,Mt Leonard Fm           
      989.0000,Althorpe Fm             
      996.7500,Malabar Fm              
     1037.4525,Mt Ogilvie Fm           
     1080.0000,Milbrodale Fm           
     1145.2545,Mt Thorley Fm           
     1194.8500,Burnamwood Fm           
     1309.0875,Archerfield Sandstone   
     1321.0000,Mulbring Siltstone      
     1390.0000,Muree Sandstone         
     1502.0000,Branxton Fm             
     1564.4045,Greta Coal Measures     
     1583.3452,Dalwood Group           
     1587.8602,Dalwood Group           

~PARAMETER 
#MNEM.UNIT                    VALUE                        DESCRIPTION
#--------------- ---         ------------                 -----------------

~CURVE 
#MNEM.UNIT                 LOG CODE                  CURVE DESCRIPTION
#----------- ----         ------------              -----------------
DEPTH       .M                                      : Copied from set DDBHC1.    {F}
DT          .US/F                                   : Loaded from LIS tape.  Reversed.    {F}
GR          .GAPI                                   : Split GR_1 from 1502.50 to 5228.01    {F}
LLD         .OHMM                                   : Loaded from LIS tape.  Reversed.    {F}
LLS         .OHMM                                   : Loaded from LIS tape.  Reversed.    {F}
NPHI        .V/V                                    : Loaded from LIS tape.  Reversed.    {F}
RHOB        .K/M3                                   : Offset applied to log data.    {F}

~ASCII | CURVE 
# ...
    1549.29840,       95.8750,      127.3120,        9.2395,        9.3877,      0.313477,     2671.5900
    1549.45080,       93.3750,       87.1875,        8.4183,        8.5953,      0.320312,     2650.0900
    1549.60320,       88.2500,       52.3750,        7.5282,        7.7941,      0.265137,     2579.7900
    1549.75560,       84.6250,       36.3438,        6.8451,        7.1856,      0.201660,     2499.6900
    1549.90800,       79.5000,       31.1406,        6.8032,        7.1410,      0.136719,     2462.5900
    1550.06040,       75.6250,       32.3438,        7.3289,        7.5968,      0.131348,     2528.9900
    1550.21280,       75.1250,       35.9375,        8.2742,        8.5971,      0.130371,     2595.3900
    1550.36520,       75.7500,       45.7188,        9.0799,        9.2129,      0.132812,     2659.8900
    1550.51760,       74.7500,       55.5000,        9.5694,        9.6048,      0.123535,     2638.3900
    1550.67000,       75.7500,       78.8750,        9.3116,        9.4755,      0.114746,     2651.9900
    1550.82240,       76.7500,      107.7500,        8.2876,        8.6394,      0.113281,     2673.4900
    1550.97480,       77.2500,      137.0000,        8.0374,        8.1906,      0.133301,     2712.5900
    1551.12720,       80.0000,      151.2500,        8.1686,        8.3602,      0.163086,     2743.7900
    1551.27960,       80.3750,      156.2500,        8.3448,        8.5303,      0.181641,     2761.3900
    1551.43200,       83.5000,      152.2500,        8.1183,        8.4150,      0.190430,     2773.0900
    1551.58440,       84.3750,      148.6250,        6.9259,        7.2660,      0.171387,     2776.9900
    1551.73680,       81.5000,      138.1250,        6.1787,        6.5628,      0.176270,     2716.4900
    1551.88920,       88.8750,      128.0000,        6.0496,        6.4545,      0.190918,     2642.2900
    1552.04160,       89.2500,      113.1880,        6.3436,        6.6904,      0.221191,     2599.2900
    1552.19400,       89.0000,      103.7500,        7.3751,        7.9098,      0.224609,     2577.7900
    1552.34640,       85.7500,      106.3120,        8.2138,        8.7550,      0.203613,     2591.4900
    1552.49880,       80.6250,      123.8120,        7.8968,        8.6058,      0.178223,     2603.1900
    1552.65120,       80.6250,      140.2500,        7.5939,        8.3517,      0.166016,     2665.6900
    1552.80360,       79.8750,      143.6250,        7.8153,        8.5927,      0.170410,     2732.0900
    1552.95600,       80.7500,      134.0000,        8.2679,        9.0974,      0.187500,     2759.4900
    1553.10840,       81.1250,      122.5000,        9.2906,       10.2286,      0.203125,     2734.0900
    1553.26080,       81.0000,      119.0620,        9.8555,       10.9975,      0.190918,     2681.2900
    1553.41320,       77.5000,      124.0620,       10.0039,       11.2862,      0.166504,     2689.0900
    1553.56560,       76.5000,      128.3750,       11.0859,       12.5312,      0.140137,     2728.1900
    1553.71800,       77.0000,      119.9380,       11.9039,       13.5052,      0.139648,     2782.8900
    1553.87040,       76.0000,       96.8750,       12.8092,       14.7109,      0.148438,     2790.6900
    1554.02280,       74.6250,       73.0625,       15.1164,       17.3195,      0.177246,     2800.4900
    1554.17520,       75.6250,       62.2500,       16.8679,       19.5588,      0.224609,     2796.5900
    1554.32760,       74.0000,       58.2188,       20.4775,       23.4885,      0.248047,     2839.4900
    1554.48000,       71.2500,       54.3438,       29.3763,       33.4809,      0.253906,     2866.8900
    1554.63240,       68.0000,       46.5938,       40.7943,       47.1611,      0.225098,     2929.3900
    1554.78480,       65.3750,       38.7812,       52.8839,       61.3143,      0.208984,     2960.5900
    1554.93720,       59.1250,       33.4062,       76.8287,       87.1697,      0.185547,     2960.5900
    1555.08960,       56.4375,       27.7969,      118.4300,      133.9320,      0.146484,     2984.0900
    1555.24200,       52.4375,       23.8125,      135.8270,      159.8330,      0.104980,     2995.7900
    1555.39440,       52.1250,       23.5625,      143.6990,      172.6610,      0.064453,     3025.0900
    1555.54680,       51.3750,       22.8125,      134.8810,      167.8840,      0.048828,     3038.7910
    1555.69920,       49.8750,       22.8906,      130.0220,      162.6000,      0.043457,     3073.8900
    1555.85160,       52.2500,       26.5938,      148.1350,      185.7940,      0.044922,     3062.1900
    1556.00400,       51.4375,       29.0469,      159.4600,      202.9010,      0.046875,     3040.6900
    1556.15640,       51.7500,       32.1562,      196.8560,      251.6530,      0.043945,     3009.4900
    1556.30880,       52.1250,       34.8438,      200.5590,      265.2160,      0.042969,     3017.2900
    1556.46120,       52.4375,       37.1562,      192.2600,      255.8340,      0.039551,     3013.3900
    1556.61360,       52.2500,       37.1875,      209.3300,      281.0760,      0.041992,     3034.8900
    1556.76600,       52.8750,       29.3438,      191.0050,      261.0990,      0.041992,     3036.7900
    1556.91840,       50.8750,       26.5781,      219.7860,      299.1050,      0.044922,     3036.7900
    1557.07080,       52.3750,       26.9375,      236.9250,      325.9580,      0.041992,     3038.7910
    1557.22320,       51.7500,       29.8281,      225.8760,      313.0150,      0.039551,     3036.7900
    1557.37560,       48.7500,       28.9219,      201.8830,      278.9240,      0.033691,     3040.6900
    1557.52800,       48.3750,       29.8281,      157.5070,      216.8630,      0.031738,     3036.7900
    1557.68040,       49.1250,       31.0312,      132.0400,      181.9400,      0.032227,     3028.9900
    1557.83280,       50.2500,       33.4688,      117.3910,      163.3500,      0.036133,     3015.2900
    1557.98520,       48.9375,       32.2188,       96.5197,      134.0130,      0.039551,     3011.3900
    1558.13760,       50.1875,       34.1875,       73.3041,      101.6500,      0.039063,     3001.5900
    1558.29000,       49.6250,       35.1250,       57.9495,       81.5187,      0.038086,     2997.6900
    1558.44240,       49.6250,       39.1875,       45.9457,       65.1814,      0.042480,     2989.8900
    1558.59480,       50.7500,       34.8438,       37.9423,       54.2751,      0.048340,     2985.9900
    1558.74720,       51.5000,       34.5625,       32.7254,       46.9248,      0.051270,     2978.1900
    1558.89960,       51.6875,       33.4688,       27.5355,       39.4533,      0.052734,     2960.5900
    1559.05200,       50.8750,       40.3125,       25.4168,       36.3953,      0.058105,     2923.4900
    1559.20440,       53.8750,       45.2500,       25.3164,       36.3374,      0.067871,     2890.2900
    1559.35680,       55.5625,       46.8125,       28.0591,       39.8707,      0.085938,     2841.4900
    1559.50920,       56.8750,       42.3750,       33.0800,       47.0374,      0.095703,     2833.6900
    1559.66160,       55.5000,       40.2188,       34.1702,       48.6225,      0.097168,     2835.5900
    1559.81400,       50.3750,       42.5938,       34.4517,       48.4565,      0.086426,     2874.6900
    1559.96640,       49.6250,       49.1875,       34.5647,       48.3186,      0.078125,     2913.7910
    1560.11880,       50.5000,       51.4062,       36.7195,       50.8263,      0.076172,     2943.0900
    1560.27120,       52.6250,       48.8750,       39.0819,       53.4315,      0.074707,     2950.8900
    1560.42360,       53.1250,       50.9062,       39.0200,       53.8008,      0.068848,     2941.0900
    1560.57600,       53.2500,       55.8750,       37.7016,       52.3001,      0.061035,     2923.4900
    1560.72840,       54.7500,       68.3750,       36.4666,       50.5115,      0.060059,     2901.9900
    1560.88080,       55.8750,       71.8750,       38.1469,       52.3267,      0.063965,     2898.0900
