~Version
VERS  .             3.0                                 : CWLS LOG ASCII STANDARD - VERSION 3.0
WRAP  .             NO                                  : One line per depth step
DLM   .             COMMA                               : Delimiter character between data columns
#Delimiting character ( SPACE TAB OR COMMA ).

~Well
#MNEM.UNIT          DATA                                DESCRIPTION
#----- ----        -----------------                   -----------
STRT  .M                457.96200                       : FIRST INDEX VALUE
STOP  .M               1608.73440                       : LAST INDEX VALUE
STEP  .M                  0.15240                       : STEP OF INDEX
NULL  .             -999.25                             : NULL VALUE
COMP  .                                                 : COMPANY
WELL  .             BOTEIN                              : WELL
FLD   .                                                 : FIELD
LOC   .                                                 : LOCATION
SRVC  .                                                 : SERVICE COMPANY
CTRY  .                                                 : COUNTRY
PROV  .                                                 : PROVINCE
UWI   .                                                 : UNIQUE WELL ID
LIC   .                                                 : LICENSE NUMBER
STAT  .                                                 : STATE
CNTY  .                                                 : COUNTY
API   .                                                 : API NUMBER
DATE  .                                                 : LOG DATE
X     .             652587.7147133                      : X OR EAST-WEST COORDINATE
Y     .             8157411.965436                      : Y OR NORTH-SOUTH COORDINATE
HZCS  .                                                 : HORIZONTAL CO-ORDINATE SYSTEM
LATI  .             -16.66083333333                     : LATITUDE
LONG  .             154.4308333333                      : LONGITUDE
GDAT  .                                                 : GEODETIC DATUM

~TOPS_PARAMETER 
#MNEM.UNIT                    VALUE                        DESCRIPTION
#--------------- ---         ------------                 -----------------

~TOPS_DEFINITION 
#MNEM.UNIT                 LOG CODE                  CURVE DESCRIPTION
#----------- ----         ------------              -----------------
DEPTH       .M                                      :     {F}
TOPS        .                                       : Formation Tops    {S24}

~TOPS_DATA | TOPS_DEFINITION
      458.3276,Horseshoe Creek Subgroup
      505.0000,Apple Tree Flat Subgroup
      740.7975,Watts Sandstone         
      753.0000,Denman Fm               
      851.4292,Mt Leonard Fm           
      989.0000,Althorpe Fm             
      996.7500,Malabar Fm              
     1037.4525,Mt Ogilvie Fm           
     1080.0000,Milbrodale Fm           
     1145.2545,Mt Thorley Fm           
     1194.8500,Burnamwood Fm           
     1309.0875,Archerfield Sandstone   
     1321.0000,Mulbring Siltstone      
     1390.0000,Muree Sandstone         
     1502.0000,Branxton Fm             
     1564.4045,Greta Coal Measures     
     1583.3452,Dalwood Group           
     1587.8602,Dalwood Group           

~PARAMETER 
#MNEM.UNIT                    VALUE                        DESCRIPTION
#--------------- ---         ------------                 -----------------

~CURVE 
#MNEM.UNIT                 LOG CODE                  CURVE DESCRIPTION
#----------- ----         ------------              -----------------
DEPTH       .M                                      : Copied from set DDBHC1.    {F}
DT          .US/F                                   : Loaded from LIS tape.  Reversed.    {F}
GR          .GAPI                                   : Split GR_1 from 1502.50 to 5228.01    {F}
LLD         .OHMM                                   : Loaded from LIS tape.  Reversed.    {F}
LLS         .OHMM                                   : Loaded from LIS tape.  Reversed.    {F}
NPHI        .V/V                                    : Loaded from LIS tape.  Reversed.    {F}
RHOB        .K/M3                                   : Offset applied to log data.    {F}

~ASCII | CURVE 
# ...
    1244.19360,       84.5000,       97.6875,       12.7272,       10.9543,      0.222656,     2597.3900
    1244.34600,       84.3750,       96.5625,       13.3072,       11.3255,      0.202637,     2593.3900
    1244.49840,       83.7500,      104.4380,       14.7806,       12.6315,      0.177734,     2624.6900
    1244.65080,       84.1250,      115.0620,       14.9390,       13.0268,      0.200684,     2687.1900
    1244.80320,       85.0000,      119.9380,       13.8346,       12.1668,      0.219238,     2724.2900
    1244.95560,       85.7500,      117.7500,       13.4485,       11.7214,      0.247559,     2741.8900
    1245.10800,       86.0000,      117.0000,       13.4659,       11.7233,      0.243164,     2732.0900
    1245.26040,       86.1250,      113.5000,       13.2959,       11.5315,      0.261719,     2675.4900
    1245.41280,       85.8750,      107.6880,       13.4353,       11.5010,      0.238770,     2651.9900
    1245.56520,       85.7500,      101.2500,       13.0386,       11.2057,      0.226562,     2638.3900
    1245.71760,       84.8750,       95.3125,       11.8989,       10.3501,      0.206055,     2642.2900
    1245.87000,       83.7500,       96.0625,       10.9104,        9.6191,      0.201172,     2622.6900
    1246.02240,       83.1250,       92.7500,       10.2067,        9.0083,      0.193848,     2605.1900
    1246.17480,       84.1250,       96.1250,        9.8653,        8.6795,      0.194336,     2603.1900
    1246.32720,       86.0000,       95.5000,       10.0615,        8.8616,      0.202637,     2589.4900
    1246.47960,       87.3750,      100.3120,       11.3058,        9.8593,      0.225586,     2585.5900
    1246.63200,       88.0000,       97.7500,       12.9077,       11.0747,      0.245117,     2569.9900
    1246.78440,       88.0000,       96.3750,       12.6862,       10.7449,      0.253906,     2587.5900
    1246.93680,       86.8750,       86.5000,       10.9154,        9.3996,      0.262207,     2599.2900
    1247.08920,       87.1250,       87.0625,        9.6045,        8.5198,      0.272949,     2577.7900
    1247.24160,       87.6250,       88.3125,        8.7260,        7.8072,      0.264160,     2542.6900
    1247.39400,       87.5000,       91.6875,        8.6755,        7.5682,      0.250000,     2513.3900
    1247.54640,       87.2500,       96.3750,        9.7126,        8.2857,      0.219238,     2519.1900
    1247.69880,       86.5000,       97.3125,       10.8990,        9.2811,      0.229004,     2532.8900
    1247.85120,       85.5000,       99.9375,       12.3965,       10.3666,      0.229980,     2573.8900
    1248.00360,       84.8750,       90.4375,       12.8665,       10.7030,      0.242188,     2638.3900
    1248.15600,       81.0000,       92.1250,       12.2186,       10.3758,      0.220215,     2706.6900
    1248.30840,       80.1250,       87.4375,       12.2178,       10.6119,      0.227051,     2714.4900
    1248.46080,       80.2500,       84.7500,       11.4347,        9.9603,      0.228027,     2720.3900
    1248.61320,       74.3750,       77.6875,       11.6001,        9.9437,      0.211426,     2780.8900
    1248.76560,       72.8750,       85.6250,       12.3246,       10.6161,      0.192871,     2860.9900
    1248.91800,       72.3750,       96.7500,       11.7712,       10.4033,      0.212891,     2857.0900
    1249.07040,       75.3750,       99.1250,       10.0618,        8.9037,      0.250000,     2788.7910
    1249.22280,       80.1250,       94.0000,        8.9678,        8.0539,      0.279297,     2708.6900
    1249.37520,       84.8750,       85.9375,        8.6764,        7.8612,      0.275879,     2632.4900
    1249.52760,       87.1250,       85.9375,        9.0380,        8.2300,      0.276855,     2573.8900
    1249.68000,       87.3750,       87.0000,       10.7784,        9.5979,      0.261719,     2566.0900
    1249.83240,       88.6250,       96.6250,       12.6575,       11.2452,      0.247070,     2603.1900
    1249.98480,       88.0000,      104.1250,       13.0292,       11.7212,      0.245605,     2634.4900
    1250.13720,       86.6250,      112.8750,       12.0581,       11.0760,      0.255371,     2648.0900
    1250.28960,       85.2500,      112.4380,       11.0345,       10.2417,      0.250488,     2636.3900
    1250.44200,       85.1250,      114.3120,       10.4016,        9.6237,      0.251953,     2622.6900
    1250.59440,       86.0000,      108.8120,       10.4120,        9.6324,      0.244629,     2603.1900
    1250.74680,       86.0000,      112.4380,       10.7665,        9.9437,      0.251953,     2593.3900
    1250.89920,       86.6250,      104.4380,       10.4707,        9.7430,      0.250000,     2597.3900
    1251.05160,       84.7500,      104.6880,       10.6965,        9.9900,      0.259277,     2605.1900
    1251.20400,       86.0000,       95.5000,       10.7029,       10.0512,      0.266113,     2601.2910
    1251.35640,       88.2500,      100.0620,       10.6910,       10.1165,      0.268555,     2593.3900
    1251.50880,       86.1250,      100.4380,       10.9243,       10.2838,      0.256836,     2597.3900
    1251.66120,       86.6250,      106.5620,       11.1258,       10.5510,      0.253906,     2605.1900
    1251.81360,       86.5000,      105.2500,       10.8675,       10.3200,      0.253418,     2616.8900
    1251.96600,       88.3750,      107.6250,       10.5298,       10.0991,      0.253906,     2610.9900
    1252.11840,       89.2500,      110.7500,       10.7225,       10.2330,      0.263672,     2605.1900
    1252.27080,       89.6250,      111.3120,       11.1129,       10.4650,      0.270996,     2614.8900
    1252.42320,       89.2500,      109.1880,       11.0347,       10.4754,      0.282227,     2632.4900
    1252.57560,       88.5000,      102.0620,       10.8808,       10.3312,      0.261230,     2655.8900
    1252.72800,       88.0000,      105.9380,       10.7961,       10.2877,      0.261719,     2640.2900
    1252.88040,       89.0000,      107.3120,       10.5097,       10.0810,      0.250488,     2620.7900
    1253.03280,       88.7500,      109.3120,       10.9655,       10.4701,      0.263672,     2597.3900
    1253.18520,       88.7500,      104.5620,       10.4154,       10.1121,      0.262695,     2591.4900
    1253.33760,       88.8750,      101.0620,       10.1055,        9.7530,      0.276855,     2581.6900
    1253.49000,       89.2500,      103.5620,       10.2540,        9.9079,      0.270508,     2581.6900
    1253.64240,       88.0000,      108.1880,       10.2870,        9.9515,      0.247070,     2577.7900
    1253.79480,       88.1250,      105.3120,       10.8909,       10.5617,      0.249512,     2607.0900
    1253.94720,       87.7500,      102.8750,       11.1175,       10.7919,      0.244629,     2607.0900
    1254.09960,       86.7500,       96.4375,       10.7645,       10.4818,      0.265137,     2607.0900
    1254.25200,       86.7500,       99.9375,        9.6955,        9.4551,      0.239258,     2577.7900
    1254.40440,       86.7500,       97.6250,        9.3844,        9.1176,      0.239258,     2581.6900
    1254.55680,       89.1250,       99.5000,        9.3933,        9.1369,      0.230957,     2589.4900
    1254.70920,       89.7500,       99.6875,        9.5659,        9.2268,      0.250000,     2601.2910
    1254.86160,       90.7500,      100.8120,       10.1647,        9.8682,      0.252441,     2605.1900
    1255.01400,       89.2500,      101.3120,       10.4255,       10.0896,      0.266602,     2587.5900
    1255.16640,       88.1250,      104.0000,       10.4828,       10.2243,      0.259766,     2575.8900
    1255.31880,       87.7500,      103.4380,       10.5081,       10.1721,      0.263672,     2568.0900
    1255.47120,       88.2500,      106.5000,        9.6407,        9.3850,      0.267090,     2571.9900
    1255.62360,       87.5000,      101.6880,        8.4097,        8.1668,      0.270020,     2585.5900
    1255.77600,       89.0000,      102.6250,        7.9901,        7.7640,      0.268066,     2577.7900
