~Version
VERS  .             3.0                                 : CWLS LOG ASCII STANDARD - VERSION 3.0
WRAP  .             NO                                  : One line per depth step
DLM   .             COMMA                               : Delimiter character between data columns
#Delimiting character ( SPACE TAB OR COMMA ).

~Well
#MNEM.UNIT          DATA                                DESCRIPTION
#----- ----        -----------------                   -----------
STRT  .M                457.96200                       : FIRST INDEX VALUE
STOP  .M               1608.73440                       : LAST INDEX VALUE
STEP  .M                  0.15240                       : STEP OF INDEX
NULL  .             -999.25                             : NULL VALUE
COMP  .                                                 : COMPANY
WELL  .             BOTEIN                              : WELL
FLD   .                                                 : FIELD
LOC   .                                                 : LOCATION
SRVC  .                                                 : SERVICE COMPANY
CTRY  .                                                 : COUNTRY
PROV  .                                                 : PROVINCE
UWI   .                                                 : UNIQUE WELL ID
LIC   .                                                 : LICENSE NUMBER
STAT  .                                                 : STATE
CNTY  .                                                 : COUNTY
API   .                                                 : API NUMBER
DATE  .                                                 : LOG DATE
X     .             652587.7147133                      : X OR EAST-WEST COORDINATE
Y     .             8157411.965436                      : Y OR NORTH-SOUTH COORDINATE
HZCS  .                                                 : HORIZONTAL CO-ORDINATE SYSTEM
LATI  .             -16.66083333333                     : LATITUDE
LONG  .             154.4308333333                      : LONGITUDE
GDAT  .                                                 : GEODETIC DATUM

~TOPS_PARAMETER 
#MNEM.UNIT                    VALUE                        DESCRIPTION
#--------------- ---         ------------                 -----------------

~TOPS_DEFINITION 
#MNEM.UNIT                 LOG CODE                  CURVE DESCRIPTION
#----------- ----         ------------              -----------------
DEPTH       .M                                      :     {F}
TOPS        .                                       : Formation Tops    {S24}

~TOPS_DATA | TOPS_DEFINITION
      458.3276,Horseshoe Creek Subgroup
      505.0000,Apple Tree Flat Subgroup
      740.7975,Watts Sandstone         
      753.0000,Denman Fm               
      851.4292,Mt Leonard Fm           
      989.0000,Althorpe Fm             
      996.7500,Malabar Fm              
     1037.4525,Mt Ogilvie Fm           
     1080.0000,Milbrodale Fm           
     1145.2545,Mt Thorley Fm           
     1194.8500,Burnamwood Fm           
     1309.0875,Archerfield Sandstone   
     1321.0000,Mulbring Siltstone      
     1390.0000,Muree Sandstone         
     1502.0000,Branxton Fm             
     1564.4045,Greta Coal Measures     
     1583.3452,Dalwood Group           
     1587.8602,Dalwood Group           

~PARAMETER 
#MNEM.UNIT                    VALUE                        DESCRIPTION
#--------------- ---         ------------                 -----------------

~CURVE 
#MNEM.UNIT                 LOG CODE                  CURVE DESCRIPTION
#----------- ----         ------------              -----------------
DEPTH       .M                                      : Copied from set DDBHC1.    {F}
DT          .US/F                                   : Loaded from LIS tape.  Reversed.    {F}
GR          .GAPI                                   : Split GR_1 from 1502.50 to 5228.01    {F}
LLD         .OHMM                                   : Loaded from LIS tape.  Reversed.    {F}
LLS         .OHMM                                   : Loaded from LIS tape.  Reversed.    {F}
NPHI        .V/V                                    : Loaded from LIS tape.  Reversed.    {F}
RHOB        .K/M3                                   : Offset applied to log data.    {F}

~ASCII | CURVE 
# ...
    1514.09400,       77.6250,       56.5000,       19.7571,       15.9641,      0.216797,     2618.7900
    1514.24640,       75.6250,       45.0938,       19.3064,       15.0980,      0.232422,     2585.5900
    1514.39880,       75.8750,       34.8125,       20.8312,       16.0427,      0.222168,     2571.9900
    1514.55120,       77.5000,       26.2812,       21.8400,       16.8908,      0.197266,     2569.9900
    1514.70360,       76.6250,       26.4062,       22.4126,       17.4136,      0.159668,     2579.7900
    1514.85600,       75.3750,       29.4375,       23.0502,       17.9530,      0.131348,     2575.8900
    1515.00840,       74.3750,       35.6562,       22.7593,       17.7130,      0.127930,     2573.8900
    1515.16080,       75.2500,       34.7812,       22.5502,       17.6427,      0.132324,     2575.8900
    1515.31320,       77.3750,       36.3750,       21.4903,       17.1159,      0.138672,     2575.8900
    1515.46560,       79.8750,       35.7812,       19.6899,       16.0354,      0.144531,     2568.0900
    1515.61800,       80.2500,       34.0938,       18.2989,       15.0466,      0.164062,     2548.4900
    1515.77040,       80.1250,       29.9062,       16.5254,       13.6286,      0.182617,     2538.7910
    1515.92280,       80.0000,       26.9844,       15.1738,       12.6626,      0.191895,     2536.7900
    1516.07520,       79.0000,       33.0312,       16.1329,       13.2316,      0.180176,     2538.7910
    1516.22760,       78.7500,       42.0625,       20.5840,       16.2390,      0.152344,     2542.6900
    1516.38000,       79.1250,       57.3125,       26.1145,       20.1851,      0.135254,     2558.2900
    1516.53240,       77.1250,       71.5625,       36.5763,       28.3807,      0.129395,     2607.0900
    1516.68480,       74.0000,       81.0000,       40.5926,       33.7313,      0.154785,     2644.1900
    1516.83720,       76.8750,       84.0000,       30.6330,       25.9580,      0.192383,     2651.9900
    1516.98960,       75.8750,       85.3125,       28.1440,       23.9186,      0.219238,     2624.6900
    1517.14200,       78.6250,       80.0000,       27.1306,       23.4359,      0.232422,     2616.8900
    1517.29440,       81.2500,       78.6250,       24.0724,       21.0830,      0.233398,     2620.7900
    1517.44680,       80.5000,       78.2500,       22.7058,       19.8320,      0.230957,     2628.5900
    1517.59920,       79.6250,       83.6250,       22.5323,       20.0326,      0.223145,     2620.7900
    1517.75160,       79.6250,       80.7500,       21.1551,       19.2369,      0.231934,     2616.8900
    1517.90400,       80.0000,       76.6250,       21.3691,       19.4495,      0.236328,     2614.8900
    1518.05640,       80.8750,       77.2500,       23.4352,       21.3136,      0.234863,     2626.5900
    1518.20880,       82.0000,       75.7500,       25.9984,       23.7598,      0.220215,     2640.2900
    1518.36120,       80.2500,       73.0000,       27.4795,       25.4686,      0.223145,     2655.8900
    1518.51360,       78.7500,       72.6875,       25.4204,       23.7033,      0.227051,     2671.5900
    1518.66600,       77.2500,       75.0000,       22.9765,       21.3823,      0.235352,     2681.2900
    1518.81840,       76.0000,       75.8125,       22.1399,       20.4618,      0.224121,     2663.7910
    1518.97080,       77.7500,       78.7500,       21.9057,       20.0881,      0.208496,     2634.4900
    1519.12320,       80.0000,       86.8750,       22.7266,       20.7876,      0.188477,     2612.9900
    1519.27560,       82.7500,       94.9375,       24.0953,       22.1904,      0.186035,     2609.0900
    1519.42800,       82.5000,       96.8750,       23.6819,       22.1676,      0.202148,     2614.8900
    1519.58040,       81.7500,       99.6250,       23.3569,       22.0271,      0.204102,     2618.7900
    1519.73280,       83.6250,      104.6880,       23.7249,       22.4749,      0.212891,     2618.7900
    1519.88520,       83.0000,      103.0000,       23.7270,       22.5564,      0.212402,     2614.8900
    1520.03760,       82.8750,      103.3750,       23.8357,       22.6681,      0.225586,     2630.5900
    1520.19000,       83.5000,      102.8750,       23.4743,       22.4626,      0.231445,     2634.4900
    1520.34240,       83.1250,      109.2500,       23.0570,       22.2021,      0.239746,     2648.0900
    1520.49480,       82.6250,      104.3120,       22.2645,       21.6246,      0.233887,     2642.2900
    1520.64720,       82.7500,      107.3120,       21.1333,       20.6540,      0.225586,     2655.8900
    1520.79960,       83.7500,      110.3750,       20.6486,       20.2251,      0.224121,     2665.6900
    1520.95200,       82.8750,      119.0620,       19.8837,       19.5951,      0.232422,     2679.3900
    1521.10440,       82.3750,      122.0620,       19.4844,       19.0486,      0.239258,     2681.2900
    1521.25680,       82.2500,      125.1250,       19.1339,       18.7397,      0.246582,     2673.4900
    1521.40920,       81.6250,      130.6250,       18.4975,       18.0156,      0.253906,     2683.2900
    1521.56160,       82.2500,      132.6250,       18.3154,       17.6664,      0.267090,     2673.4900
    1521.71400,       82.6250,      117.0000,       17.9179,       17.0178,      0.286133,     2681.2900
    1521.86640,       85.1250,       93.3750,       18.4231,       17.1360,      0.325195,     2667.6900
    1522.01880,       81.6250,       66.0000,       18.7708,       16.8650,      0.313965,     2665.6900
    1522.17120,       80.7500,       52.4062,       18.9390,       16.3798,      0.247070,     2638.3900
    1522.32360,       80.0000,       40.6875,       19.2148,       16.4045,      0.172363,     2616.8900
    1522.47600,       79.2500,       31.9375,       18.6070,       16.0835,      0.138184,     2593.3900
    1522.62840,       79.0000,       25.4219,       18.4925,       16.3451,      0.142090,     2585.5900
    1522.78080,       77.1250,       22.8906,       17.7763,       15.8726,      0.131348,     2581.6900
    1522.93320,       75.1250,       23.6875,       17.4767,       15.5516,      0.119629,     2577.7900
    1523.08560,       73.5000,       24.0781,       17.6588,       15.4979,      0.112305,     2571.9900
    1523.23800,       73.3750,       31.4219,       18.6276,       15.8543,      0.106934,     2568.0900
    1523.39040,       75.3750,       42.8125,       19.8570,       16.3745,      0.106934,     2571.9900
    1523.54280,       77.6250,       61.5938,       22.8210,       18.5745,      0.119141,     2579.7900
    1523.69520,       79.6250,       76.3750,       22.2276,       18.6930,      0.136230,     2583.6900
    1523.84760,       80.0000,       83.2500,       19.0198,       16.3955,      0.163574,     2601.2910
    1524.00000,       80.0000,       87.0000,       17.8612,       15.8608,      0.181152,     2624.6900
    1524.15240,       78.5000,       86.1250,       16.7646,       14.8702,      0.185547,     2624.6900
    1524.30480,       77.7500,       84.8125,       18.2051,       15.8296,      0.174316,     2579.7900
    1524.45720,       79.7500,       78.3750,       18.3261,       16.0747,      0.163086,     2544.5900
    1524.60960,       83.2500,       74.0625,       17.9574,       16.4305,      0.174805,     2552.3900
    1524.76200,       85.7500,       76.3750,       16.7491,       16.1597,      0.197266,     2585.5900
    1524.91440,       83.6250,       71.6250,       14.7480,       14.3899,      0.206543,     2610.9900
    1525.06680,       84.5000,       66.3125,       13.8653,       13.5842,      0.194336,     2601.2910
    1525.21920,       82.0000,       55.5625,       13.4071,       13.0121,      0.184570,     2597.3900
    1525.37160,       81.2500,       62.3125,       14.9136,       14.1021,      0.171387,     2577.7900
    1525.52400,       80.0000,       89.4375,       17.9791,       16.3343,      0.158691,     2593.3900
    1525.67640,       79.6250,      120.3120,       21.6687,       19.3438,      0.147949,     2642.2900
