~Version
VERS  .             3.0                                 : CWLS LOG ASCII STANDARD - VERSION 3.0
WRAP  .             NO                                  : One line per depth step
DLM   .             COMMA                               : Delimiter character between data columns
#Delimiting character ( SPACE TAB OR COMMA ).

~Well
#MNEM.UNIT          DATA                                DESCRIPTION
#----- ----        -----------------                   -----------
STRT  .M                  0.00000                       : FIRST INDEX VALUE
STOP  .M               1582.97839                       : LAST INDEX VALUE
STEP  .M                  0.15240                       : STEP OF INDEX
NULL  .             -999.25                             : NULL VALUE
COMP  .                                                 : COMPANY
WELL  .             CAPELLA                             : WELL
FLD   .                                                 : FIELD
LOC   .                                                 : LOCATION
SRVC  .                                                 : SERVICE COMPANY
CTRY  .                                                 : COUNTRY
PROV  .                                                 : PROVINCE
UWI   .                                                 : UNIQUE WELL ID
LIC   .                                                 : LICENSE NUMBER
STAT  .                                                 : STATE
CNTY  .                                                 : COUNTY
API   .                                                 : API NUMBER
DATE  .                                                 : LOG DATE
X     .             652954.2587678                      : X OR EAST-WEST COORDINATE
Y     .             8157948.019637                      : Y OR NORTH-SOUTH COORDINATE
HZCS  .                                                 : HORIZONTAL CO-ORDINATE SYSTEM
LATI  .             -16.65596527778                     : LATITUDE
LONG  .             154.4342336111                      : LONGITUDE
GDAT  .                                                 : GEODETIC DATUM

~TOPS_PARAMETER 
#MNEM.UNIT                    VALUE                        DESCRIPTION
#--------------- ---         ------------                 -----------------

~TOPS_DEFINITION 
#MNEM.UNIT                 LOG CODE                  CURVE DESCRIPTION
#----------- ----         ------------              -----------------
DEPTH       .M                                      :     {F}
TOPS        .                                       :     {S32}

~TOPS_DATA | TOPS_DEFINITION
        0.3137,Doyles Creek Subgroup           
      419.5846,Horseshoe Creek Subgroup        
      504.1290,Apple Tree Flat Subgroup        
      726.8617,Watts Sandstone                 
      738.3121,Denman Fm                       
      898.3032,Mt Leonard Fm                   
      989.4355,Althorpe Fm                     
      998.2193,Malabar Fm                      
     1041.0404,Mt Ogilvie Fm                   
     1082.3066,Milbrodale Fm                   
     1155.5439,Mt Thorley Fm                   
     1204.7961,Burnamwood Fm                   
     1307.8026,Archerfield Sandstone           
     1322.7503,Mulbring Siltstone              
     1398.0403,Muree Sandstone                 
     1503.9168,Branxton Fm                     
     1543.2168,Greta Coal Measures             
     1567.3323,Dalwood Group                   
     1583.1745,                                

~PARAMETER 
#MNEM.UNIT                    VALUE                        DESCRIPTION
#--------------- ---         ------------                 -----------------

~CURVE 
#MNEM.UNIT                 LOG CODE                  CURVE DESCRIPTION
#----------- ----         ------------              -----------------
DEPTH       .M                                      :     {F}
DT          .US/F                                   :     {F}
GR          .GAPI                                   :     {F}
LLD         .OHMM                                   :     {F}
LLS         .OHMM                                   :     {F}
NPHI        .V/V                                    :     {F}
RHOB        .K/M3                                   :     {F}

~ASCII | CURVE 
# ...
    1384.70604,       91.1250,      110.3120,        5.6588,        6.1223,      0.243163,     2449.2200
    1384.85844,       90.2500,       98.5000,        5.6354,        6.0935,      0.227540,     2453.1190
    1385.01084,       89.6875,      103.7500,        5.9155,        6.3396,      0.241212,     2441.4100
    1385.16324,       89.7500,      102.6880,        6.3361,        6.7643,      0.252441,     2435.5480
    1385.31564,       89.0000,      105.6250,        6.8175,        7.2482,      0.258788,     2414.0600
    1385.46804,       88.6875,      100.8120,        7.4768,        7.8032,      0.240722,     2410.1600
    1385.62044,       87.7500,       96.9375,        8.1106,        8.3507,      0.228516,     2402.3410
    1385.77284,       87.5000,       90.9375,        8.5501,        8.7496,      0.223633,     2414.0600
    1385.92524,       87.1250,       95.0625,        8.7056,        8.9095,      0.230469,     2412.1100
    1386.07764,       87.3125,       99.0000,        8.7008,        8.9017,      0.229979,     2410.1600
    1386.23004,       87.1875,      103.7500,        8.5870,        8.8372,      0.219727,     2412.1100
    1386.38244,       87.1250,      106.0000,        8.4478,        8.6973,      0.216309,     2419.9200
    1386.53484,       87.3125,      103.0620,        8.4312,        8.6270,      0.221681,     2419.9200
    1386.68724,       86.9375,      104.1880,        8.4551,        8.6837,      0.235840,     2425.7790
    1386.83964,       87.1875,      100.0620,        8.6872,        8.8173,      0.238770,     2419.9200
    1386.99204,       86.5000,      105.3120,        8.8138,        8.9527,      0.239257,     2423.8290
    1387.14444,       86.5000,      100.1250,        9.0716,        9.1771,      0.227539,     2412.1100
    1387.29684,       86.0000,      100.6250,        9.4707,        9.4435,      0.230957,     2412.1110
    1387.44924,       85.0000,       91.9375,       10.1817,       10.1214,      0.226074,     2423.8310
    1387.60164,       83.3750,       92.6875,       10.9267,       10.7299,      0.227538,     2443.3610
    1387.75404,       82.1875,       91.1250,       12.3137,       11.8457,      0.217284,     2458.9800
    1387.90644,       80.3125,       90.1875,       14.0114,       13.4691,      0.207520,     2462.8890
    1388.05884,       79.8750,       88.5000,       14.6685,       14.1789,      0.203124,     2458.9810
    1388.21124,       79.1250,       87.1875,       14.9253,       14.3968,      0.188477,     2468.7490
    1388.36364,       79.8750,       92.3125,       13.8725,       13.5535,      0.191895,     2458.9790
    1388.51604,       81.3125,       92.9375,       12.4817,       12.3863,      0.193360,     2445.3080
    1388.66844,       83.0000,       98.9375,       11.1870,       11.2465,      0.206543,     2419.9200
    1388.82084,       84.5000,       98.5625,       10.2426,       10.4075,      0.211426,     2417.9700
    1388.97324,       84.9375,      104.0000,        9.8744,       10.1380,      0.216797,     2423.8300
    1389.12564,       84.9375,      102.0000,        9.7472,       10.0149,      0.219239,     2423.8310
    1389.27804,       85.1250,      106.5000,        9.3404,        9.5838,      0.236329,     2433.5900
    1389.43044,       85.5000,      108.5000,        8.7886,        9.1020,      0.247560,     2433.5910
    1389.58284,       85.5625,      107.9380,        8.3655,        8.6906,      0.260741,     2449.2190
    1389.73524,       85.9375,      101.5620,        8.1163,        8.4408,      0.242675,     2439.4500
    1389.88764,       86.3125,       99.6875,        8.1643,        8.3548,      0.228516,     2441.4100
    1390.04004,       86.3750,       98.1250,        8.4746,        8.6853,      0.224609,     2433.5900
    1390.19244,       86.0000,      101.1880,        8.9002,        8.9951,      0.224610,     2431.6390
    1390.34484,       85.5000,      101.4380,        9.4516,        9.5093,      0.240233,     2421.8800
    1390.49724,       85.1875,      103.2500,       10.1879,       10.1258,      0.230469,     2417.9690
    1390.64964,       85.1250,      104.0620,       10.4513,       10.3422,      0.234862,     2414.0600
    1390.80204,       85.2500,      100.8750,       10.1429,        9.9184,      0.218750,     2406.2500
    1390.95444,       85.4375,       95.9375,       10.0661,        9.8784,      0.226074,     2406.2500
    1391.10684,       84.8125,       97.3125,       10.1659,        9.9344,      0.229005,     2410.1610
    1391.25924,       84.6875,      100.3120,       10.2300,       10.0058,      0.238770,     2419.9200
    1391.41164,       84.4375,      100.3120,       10.8240,       10.6171,      0.240234,     2427.7300
    1391.56404,       84.1875,      101.1250,       10.8970,       10.7484,      0.237304,     2425.7800
    1391.71644,       84.1250,       97.8750,       10.8642,       10.7180,      0.229491,     2431.6400
    1391.86884,       84.1250,      104.0000,       11.0390,       10.8586,      0.215820,     2437.5000
    1392.02124,       83.6250,      103.1250,       11.2867,       11.1748,      0.223145,     2439.4490
    1392.17364,       83.6250,      105.3750,       11.4545,       11.2124,      0.225587,     2433.5890
    1392.32604,       83.6250,      104.9380,       11.4976,       11.3069,      0.234862,     2417.9700
    1392.47844,       83.0625,      101.1250,       11.5880,       11.3406,      0.226562,     2429.6910
    1392.63084,       82.7500,      103.8120,       11.8632,       11.5986,      0.223145,     2439.4500
    1392.78324,       82.6250,      104.1880,       11.8192,       11.5673,      0.223633,     2443.3600
    1392.93564,       82.8125,      104.5000,       11.9234,       11.7374,      0.229493,     2439.4490
    1393.08804,       83.3125,      105.1880,       11.7865,       11.5771,      0.240234,     2433.5900
    1393.24044,       83.0625,      106.0000,       11.3707,       11.2075,      0.238281,     2429.6900
    1393.39284,       82.4375,      106.8750,       11.5483,       11.4179,      0.232421,     2435.5510
    1393.54524,       81.8750,      104.6250,       11.8453,       11.7126,      0.221191,     2451.1710
    1393.69764,       80.6250,       97.1250,       12.3846,       12.1636,      0.225098,     2464.8400
    1393.85004,       80.1250,       99.5000,       12.9390,       12.7016,      0.233398,     2466.7990
    1394.00244,       79.7500,      100.3750,       13.3717,       13.1511,      0.241211,     2457.0300
    1394.15484,       79.3125,      104.1880,       13.6848,       13.3291,      0.244140,     2457.0300
    1394.30724,       79.3125,      104.0620,       14.5222,       14.0977,      0.235840,     2455.0810
    1394.45964,       78.3125,      101.6880,       15.5271,       14.9551,      0.233398,     2460.9400
    1394.61204,       78.0625,      105.9380,       16.5465,       15.8727,      0.229980,     2460.9400
    1394.76444,       77.8125,      101.0620,       18.0478,       17.2385,      0.233886,     2460.9390
    1394.91684,       77.5625,       99.6250,       18.6088,       17.6423,      0.220215,     2455.0800
    1395.06924,       77.5625,       92.2500,       17.6757,       16.5238,      0.214354,     2449.2200
    1395.22164,       76.6250,       91.7500,       19.0081,       18.0338,      0.203125,     2453.1190
    1395.37404,       77.1250,       87.6250,       20.7223,       19.9503,      0.202637,     2435.5480
    1395.52644,       78.2500,       84.0625,       18.9558,       17.3303,      0.208496,     2408.1970
    1395.67884,       80.4375,       77.8750,       17.7423,       15.2438,      0.214355,     2359.3780
    1395.83124,       82.3125,       67.3125,       16.3086,       13.2155,      0.208495,     2324.2180
    1395.98364,       83.9375,       59.0625,       15.1137,       11.6457,      0.186522,     2298.8290
    1396.13604,       84.8125,       55.0312,       18.3440,       12.6334,      0.172363,     2279.2990
    1396.28844,       84.9375,       56.0625,       27.3608,       15.6753,      0.175294,     2259.7690
