~Version
VERS  .             3.0                                 : CWLS LOG ASCII STANDARD - VERSION 3.0
WRAP  .             NO                                  : One line per depth step
DLM   .             COMMA                               : Delimiter character between data columns
#Delimiting character ( SPACE TAB OR COMMA ).

~Well
#MNEM.UNIT          DATA                                DESCRIPTION
#----- ----        -----------------                   -----------
STRT  .M                  0.00000                       : FIRST INDEX VALUE
STOP  .M               1582.97839                       : LAST INDEX VALUE
STEP  .M                  0.15240                       : STEP OF INDEX
NULL  .             -999.25                             : NULL VALUE
COMP  .                                                 : COMPANY
WELL  .             CAPELLA                             : WELL
FLD   .                                                 : FIELD
LOC   .                                                 : LOCATION
SRVC  .                                                 : SERVICE COMPANY
CTRY  .                                                 : COUNTRY
PROV  .                                                 : PROVINCE
UWI   .                                                 : UNIQUE WELL ID
LIC   .                                                 : LICENSE NUMBER
STAT  .                                                 : STATE
CNTY  .                                                 : COUNTY
API   .                                                 : API NUMBER
DATE  .                                                 : LOG DATE
X     .             652954.2587678                      : X OR EAST-WEST COORDINATE
Y     .             8157948.019637                      : Y OR NORTH-SOUTH COORDINATE
HZCS  .                                                 : HORIZONTAL CO-ORDINATE SYSTEM
LATI  .             -16.65596527778                     : LATITUDE
LONG  .             154.4342336111                      : LONGITUDE
GDAT  .                                                 : GEODETIC DATUM

~TOPS_PARAMETER 
#MNEM.UNIT                    VALUE                        DESCRIPTION
#--------------- ---         ------------                 -----------------

~TOPS_DEFINITION 
#MNEM.UNIT                 LOG CODE                  CURVE DESCRIPTION
#----------- ----         ------------              -----------------
DEPTH       .M                                      :     {F}
TOPS        .                                       :     {S32}

~TOPS_DATA | TOPS_DEFINITION
        0.3137,Doyles Creek Subgroup           
      419.5846,Horseshoe Creek Subgroup        
      504.1290,Apple Tree Flat Subgroup        
      726.8617,Watts Sandstone                 
      738.3121,Denman Fm                       
      898.3032,Mt Leonard Fm                   
      989.4355,Althorpe Fm                     
      998.2193,Malabar Fm                      
     1041.0404,Mt Ogilvie Fm                   
     1082.3066,Milbrodale Fm                   
     1155.5439,Mt Thorley Fm                   
     1204.7961,Burnamwood Fm                   
     1307.8026,Archerfield Sandstone           
     1322.7503,Mulbring Siltstone              
     1398.0403,Muree Sandstone                 
     1503.9168,Branxton Fm                     
     1543.2168,Greta Coal Measures             
     1567.3323,Dalwood Group                   
     1583.1745,                                

~PARAMETER 
#MNEM.UNIT                    VALUE                        DESCRIPTION
#--------------- ---         ------------                 -----------------

~CURVE 
#MNEM.UNIT                 LOG CODE                  CURVE DESCRIPTION
#----------- ----         ------------              -----------------
DEPTH       .M                                      :     {F}
DT          .US/F                                   :     {F}
GR          .GAPI                                   :     {F}
LLD         .OHMM                                   :     {F}
LLS         .OHMM                                   :     {F}
NPHI        .V/V                                    :     {F}
RHOB        .K/M3                                   :     {F}

~ASCII | CURVE 
# ...
    1020.92734,       99.3750,       83.5625,        2.7275,        2.7443,      0.291505,     2404.2970
    1021.07974,      101.8750,       83.2500,        2.4692,        2.5455,      0.294926,     2390.6180
    1021.23214,      103.9380,       85.9375,        2.3154,        2.4027,      0.317383,     2378.9110
    1021.38454,      105.0620,       87.3125,        2.2365,        2.2990,      0.319338,     2380.8600
    1021.53694,      104.2500,       89.4375,        2.3315,        2.3910,      0.332029,     2380.8640
    1021.68934,      103.5000,       90.1875,        2.4878,        2.5673,      0.320310,     2404.3010
    1021.84174,      102.9380,       85.0000,        2.4813,        2.6093,      0.311036,     2408.1980
    1021.99414,      103.8120,       83.2500,        2.4412,        2.5136,      0.318360,     2396.4760
    1022.14654,      105.0620,       84.7500,        2.3209,        2.4124,      0.321777,     2373.0480
    1022.29894,      107.2500,       89.3750,        2.0815,        2.1854,      0.323240,     2365.2310
    1022.45134,      107.8120,       92.2500,        1.9858,        2.1369,      0.315434,     2371.0900
    1022.60374,      108.0620,       87.1875,        1.9624,        2.0973,      0.334962,     2371.0900
    1022.75614,      107.5000,       84.5000,        1.9842,        2.1366,      0.342285,     2373.0520
    1022.90854,      106.9380,       85.3750,        1.9972,        2.1483,      0.340815,     2382.8120
    1023.06094,      106.1880,       89.4375,        2.0223,        2.1846,      0.312500,     2390.6210
    1023.21334,      105.8120,       87.5625,        2.0320,        2.2046,      0.312013,     2398.4390
    1023.36574,      105.6250,       85.7500,        2.0892,        2.2885,      0.316407,     2392.5790
    1023.51814,      105.1250,       80.1250,        2.1307,        2.3240,      0.321286,     2388.6680
    1023.67054,      105.2500,       86.2500,        2.1553,        2.3525,      0.305663,     2380.8590
    1023.82294,      107.3120,       87.1875,        2.0907,        2.2950,      0.303223,     2376.9500
    1023.97534,      107.2500,       85.8750,        1.9988,        2.1687,      0.305667,     2378.9140
    1024.12774,      105.1250,       78.9375,        2.2062,        2.3645,      0.323240,     2396.4870
    1024.28014,       98.8125,       72.2500,        2.8498,        2.9564,      0.311034,     2433.5990
    1024.43254,       90.8750,       70.1250,        4.1919,        4.1121,      0.305657,     2482.4260
    1024.58494,       81.4375,       70.5000,        7.0930,        6.6078,      0.267572,     2515.6210
    1024.73734,       78.2500,       70.9375,        9.4706,        8.8969,      0.234370,     2519.5220
    1024.88974,       77.3125,       73.6250,        9.0975,        8.9010,      0.207031,     2480.4600
    1025.04214,       79.6875,       74.5625,        8.6344,        8.6431,      0.206547,     2429.6840
    1025.19454,       83.4375,       77.7500,        7.8037,        7.9431,      0.227053,     2400.3880
    1025.34694,       85.4375,       74.3750,        7.4790,        7.7093,      0.238282,     2394.5310
    1025.49934,       86.9375,       73.5000,        7.1829,        7.5178,      0.244142,     2400.3920
    1025.65174,       86.8750,       69.3750,        7.1737,        7.7098,      0.247070,     2414.0590
    1025.80414,       88.4375,       74.0625,        6.8532,        7.5755,      0.246580,     2408.1980
    1025.95654,       90.3750,       74.3125,        5.8031,        6.3959,      0.234377,     2398.4370
    1026.10894,       92.8750,       79.6250,        5.2271,        5.7957,      0.243167,     2384.7710
    1026.26134,       94.8125,       80.6875,        4.2947,        4.8900,      0.260746,     2386.7230
    1026.41374,       98.3125,       86.3750,        3.5992,        4.1235,      0.284670,     2406.2500
    1026.56614,       99.6250,       86.6875,        3.2783,        3.7605,      0.293947,     2406.2490
    1026.71854,      101.6880,       96.2500,        2.9582,        3.4328,      0.305177,     2402.3380
    1026.87094,      102.6880,       95.5000,        2.7265,        3.1647,      0.311522,     2394.5310
    1027.02334,      102.6250,      102.6250,        2.7480,        3.1182,      0.308592,     2402.3400
    1027.17574,      102.3750,       98.8125,        2.7440,        3.1763,      0.297364,     2404.2990
    1027.32814,      102.5000,      101.5000,        2.7947,        3.1514,      0.301761,     2398.4390
    1027.48054,      101.6250,       95.9375,        2.8161,        3.1727,      0.318361,     2392.5790
    1027.63294,      101.6250,       95.6250,        2.7676,        3.1042,      0.331055,     2388.6700
    1027.78534,      101.3750,       96.9375,        2.6520,        2.9226,      0.331543,     2386.7190
    1027.93774,      101.2500,      100.6880,        2.5443,        2.8287,      0.332028,     2382.8120
    1028.09014,       99.3750,       97.7500,        2.5816,        2.8418,      0.315915,     2392.5830
    1028.24254,       98.4375,       90.9375,        2.6932,        2.9091,      0.302732,     2406.2520
    1028.39494,       96.0625,       86.3750,        2.8558,        3.0975,      0.294433,     2417.9710
    1028.54734,       92.8125,       89.9375,        3.4407,        3.6849,      0.290525,     2425.7820
    1028.69974,       90.7500,       88.1250,        3.8824,        4.1383,      0.279292,     2435.5490
    1028.85214,       91.6250,       89.2500,        3.6049,        3.8246,      0.250489,     2433.5870
    1029.00454,       95.1875,       87.3750,        3.3173,        3.5158,      0.255863,     2417.9660
    1029.15694,       98.6250,       90.3750,        2.6603,        2.9004,      0.275883,     2398.4380
    1029.30934,      101.8750,       91.5000,        2.2625,        2.4512,      0.299806,     2386.7200
    1029.46174,      103.5620,       93.8750,        2.1922,        2.3758,      0.303224,     2386.7200
    1029.61414,      103.0620,       95.0625,        2.2354,        2.3731,      0.310549,     2388.6730
    1029.76654,      101.4380,       92.7500,        2.3573,        2.5216,      0.323728,     2406.2520
    1029.91894,       99.5000,       87.5625,        2.4702,        2.6564,      0.315426,     2419.9210
    1030.07134,       99.4375,       90.5000,        2.5687,        2.7134,      0.296872,     2427.7290
    1030.22374,       98.8750,       89.3125,        2.6191,        2.7647,      0.282227,     2419.9180
    1030.37614,      100.5620,       93.7500,        2.5206,        2.6504,      0.284671,     2412.1070
    1030.52854,      101.6880,       89.8750,        2.4266,        2.5471,      0.298830,     2396.4800
    1030.68094,      101.8120,       89.0625,        2.4004,        2.5225,      0.311035,     2396.4800
    1030.83334,      101.3750,       88.8750,        2.4668,        2.6014,      0.310059,     2398.4400
    1030.98574,      101.7500,       91.6250,        2.4136,        2.5468,      0.311036,     2400.3880
    1031.13814,      102.9380,       96.3125,        2.3052,        2.4500,      0.316898,     2390.6190
    1031.29054,      103.5000,      100.4380,        2.2694,        2.3935,      0.331541,     2384.7700
    1031.44294,      104.1880,      100.5000,        2.2400,        2.3331,      0.321287,     2384.7710
    1031.59534,      103.5000,      101.6250,        2.3317,        2.4460,      0.311523,     2390.6210
    1031.74774,      102.6880,       97.0000,        2.4922,        2.6283,      0.311524,     2394.5300
    1031.90014,      104.1250,      100.6250,        2.5391,        2.6575,      0.314941,     2394.5300
    1032.05254,      104.5620,      100.9380,        2.4555,        2.5443,      0.315918,     2392.5780
    1032.20493,      105.5000,      102.6880,        2.2641,        2.3831,      0.314456,     2380.8600
    1032.35733,      105.6250,       96.5000,        2.1619,        2.2810,      0.333007,     2378.9120
    1032.50973,      103.1250,       92.9375,        2.3044,        2.3897,      0.327145,     2386.7270
