~Version
VERS  .             3.0                                 : CWLS LOG ASCII STANDARD - VERSION 3.0
WRAP  .             NO                                  : One line per depth step
DLM   .             COMMA                               : Delimiter character between data columns
#Delimiting character ( SPACE TAB OR COMMA ).

~Well
#MNEM.UNIT          DATA                                DESCRIPTION
#----- ----        -----------------                   -----------
STRT  .M                  0.00000                       : FIRST INDEX VALUE
STOP  .M               1582.97839                       : LAST INDEX VALUE
STEP  .M                  0.15240                       : STEP OF INDEX
NULL  .             -999.25                             : NULL VALUE
COMP  .                                                 : COMPANY
WELL  .             CAPELLA                             : WELL
FLD   .                                                 : FIELD
LOC   .                                                 : LOCATION
SRVC  .                                                 : SERVICE COMPANY
CTRY  .                                                 : COUNTRY
PROV  .                                                 : PROVINCE
UWI   .                                                 : UNIQUE WELL ID
LIC   .                                                 : LICENSE NUMBER
STAT  .                                                 : STATE
CNTY  .                                                 : COUNTY
API   .                                                 : API NUMBER
DATE  .                                                 : LOG DATE
X     .             652954.2587678                      : X OR EAST-WEST COORDINATE
Y     .             8157948.019637                      : Y OR NORTH-SOUTH COORDINATE
HZCS  .                                                 : HORIZONTAL CO-ORDINATE SYSTEM
LATI  .             -16.65596527778                     : LATITUDE
LONG  .             154.4342336111                      : LONGITUDE
GDAT  .                                                 : GEODETIC DATUM

~TOPS_PARAMETER 
#MNEM.UNIT                    VALUE                        DESCRIPTION
#--------------- ---         ------------                 -----------------

~TOPS_DEFINITION 
#MNEM.UNIT                 LOG CODE                  CURVE DESCRIPTION
#----------- ----         ------------              -----------------
DEPTH       .M                                      :     {F}
TOPS        .                                       :     {S32}

~TOPS_DATA | TOPS_DEFINITION
        0.3137,Doyles Creek Subgroup           
      419.5846,Horseshoe Creek Subgroup        
      504.1290,Apple Tree Flat Subgroup        
      726.8617,Watts Sandstone                 
      738.3121,Denman Fm                       
      898.3032,Mt Leonard Fm                   
      989.4355,Althorpe Fm                     
      998.2193,Malabar Fm                      
     1041.0404,Mt Ogilvie Fm                   
     1082.3066,Milbrodale Fm                   
     1155.5439,Mt Thorley Fm                   
     1204.7961,Burnamwood Fm                   
     1307.8026,Archerfield Sandstone           
     1322.7503,Mulbring Siltstone              
     1398.0403,Muree Sandstone                 
     1503.9168,Branxton Fm                     
     1543.2168,Greta Coal Measures             
     1567.3323,Dalwood Group                   
     1583.1745,                                

~PARAMETER 
#MNEM.UNIT                    VALUE                        DESCRIPTION
#--------------- ---         ------------                 -----------------

~CURVE 
#MNEM.UNIT                 LOG CODE                  CURVE DESCRIPTION
#----------- ----         ------------              -----------------
DEPTH       .M                                      :     {F}
DT          .US/F                                   :     {F}
GR          .GAPI                                   :     {F}
LLD         .OHMM                                   :     {F}
LLS         .OHMM                                   :     {F}
NPHI        .V/V                                    :     {F}
RHOB        .K/M3                                   :     {F}

~ASCII | CURVE 
# ...
     469.39188,      122.0620,       82.3750,        4.7271,        4.2137,   -999.250000,     -999.2500
     469.54428,      119.9380,       80.0625,        4.5940,        4.0065,   -999.250000,     -999.2500
     469.69668,      116.1250,       76.1250,        4.9273,        4.3210,   -999.250000,     -999.2500
     469.84908,      110.6250,       74.0000,        5.8062,        5.0544,   -999.250000,     -999.2500
     470.00148,      104.8750,       72.6875,        7.7185,        6.5922,   -999.250000,     -999.2500
     470.15388,       97.8125,       69.2500,       11.0438,        9.7695,   -999.250000,     -999.2500
     470.30628,       95.1875,       65.2500,       10.9213,       10.8897,   -999.250000,     -999.2500
     470.45868,       98.1250,       62.2500,        6.0936,        5.4206,   -999.250000,     -999.2500
     470.61108,      104.3120,       67.4375,        3.6980,        3.2800,   -999.250000,     -999.2500
     470.76348,      112.3750,       74.5000,        2.7759,        2.5513,   -999.250000,     -999.2500
     470.91588,      119.2500,       78.1250,        2.3253,        2.1295,   -999.250000,     -999.2500
     471.06828,      122.6250,       80.6250,        2.5510,        2.2110,   -999.250000,     -999.2500
     471.22068,      119.8750,       81.2500,        2.9446,        2.4684,   -999.250000,     -999.2500
     471.37308,      117.2500,       83.0000,        3.3598,        2.8514,   -999.250000,     -999.2500
     471.52548,      116.7500,       81.7500,        3.6093,        2.8979,   -999.250000,     -999.2500
     471.67788,      116.9380,       80.0625,        4.1126,        3.0706,   -999.250000,     -999.2500
     471.83028,      119.8120,       79.4375,        4.5453,        3.2189,   -999.250000,     -999.2500
     471.98268,      122.5620,       77.9375,        3.9456,        2.8311,   -999.250000,     -999.2500
     472.13508,      123.6250,       75.0625,        3.7654,        2.6837,   -999.250000,     -999.2500
     472.28748,      123.5000,       78.1250,        3.6796,        2.6200,   -999.250000,     -999.2500
     472.43988,      123.6250,       78.3125,        3.6422,        2.5454,   -999.250000,     -999.2500
     472.59228,      123.9380,       82.1875,        3.6059,        2.4567,   -999.250000,     -999.2500
     472.74468,      123.6250,       80.8125,        3.3885,        2.3356,   -999.250000,     -999.2500
     472.89708,      124.3750,       81.5625,        3.1473,        2.1065,   -999.250000,     -999.2500
     473.04948,      124.7500,       80.6875,        3.1484,        2.1869,   -999.250000,     -999.2500
     473.20188,      125.3750,       83.2500,        3.3150,        2.2530,   -999.250000,     -999.2500
     473.35428,      125.5000,       85.2500,        3.2791,        2.2220,   -999.250000,     -999.2500
     473.50668,      125.5000,       80.0625,        3.1075,        2.1123,   -999.250000,     -999.2500
     473.65908,      124.7500,       78.0625,        2.8113,        2.0055,   -999.250000,     -999.2500
     473.81148,      124.1250,       78.3125,        2.5505,        1.8978,   -999.250000,     -999.2500
     473.96388,      125.0000,       84.8125,        2.4165,        1.7586,   -999.250000,     -999.2500
     474.11628,      125.8750,       87.5625,        2.4236,        1.7303,   -999.250000,     -999.2500
     474.26868,      127.1250,       89.1250,        2.3638,        1.6985,   -999.250000,     -999.2500
     474.42108,      127.7500,       85.6250,        2.1019,        1.5142,   -999.250000,     -999.2500
     474.57348,      128.8750,       82.5625,        2.0865,        1.4430,   -999.250000,     -999.2500
     474.72588,      131.6250,       83.1875,        2.2152,        1.5573,   -999.250000,     -999.2500
     474.87828,      133.6250,       88.3750,        2.2973,        1.5811,   -999.250000,     -999.2500
     475.03068,      134.8750,       88.5000,        2.6223,        1.7853,   -999.250000,     -999.2500
     475.18308,      135.7500,       89.3125,        2.9373,        2.0853,   -999.250000,     -999.2500
     475.33548,      135.6250,       85.0625,        2.9654,        2.1808,   -999.250000,     -999.2500
     475.48788,      135.0000,       85.4375,        3.0655,        2.2872,   -999.250000,     -999.2500
     475.64028,      134.8750,       84.1875,        2.9674,        2.2984,   -999.250000,     -999.2500
     475.79268,      133.6250,       83.3750,        2.9400,        2.2912,   -999.250000,     -999.2500
     475.94508,      132.2500,       84.2500,        2.7753,        2.1691,   -999.250000,     -999.2500
     476.09748,      129.7500,       84.1250,        2.5242,        1.9565,   -999.250000,     -999.2500
     476.24988,      129.3750,       85.9375,        2.3947,        1.8502,   -999.250000,     -999.2500
     476.40228,      130.5000,       84.7500,        2.2487,        1.7556,   -999.250000,     -999.2500
     476.55468,      132.6250,       86.1250,        2.2557,        1.7635,   -999.250000,     -999.2500
     476.70708,      135.7500,       88.6875,        2.5762,        1.9668,   -999.250000,     -999.2500
     476.85948,      137.6250,       91.8125,        2.9568,        2.1891,   -999.250000,     -999.2500
     477.01188,      137.0000,       87.1875,        3.0305,        2.1976,   -999.250000,     -999.2500
     477.16428,      133.3750,       85.0000,        3.1452,        2.1804,   -999.250000,     -999.2500
     477.31668,      130.0000,       81.4375,        2.9854,        1.9968,   -999.250000,     -999.2500
     477.46908,      126.1880,       86.7500,        2.5869,        1.7579,   -999.250000,     -999.2500
     477.62148,      123.6880,       80.2500,        2.3666,        1.6104,   -999.250000,     -999.2500
     477.77388,      123.1880,       81.7500,        2.3154,        1.6021,   -999.250000,     -999.2500
     477.92628,      122.1880,       78.1250,        2.3325,        1.6147,   -999.250000,     -999.2500
     478.07868,      122.0000,       81.9375,        2.5113,        1.7175,   -999.250000,     -999.2500
     478.23108,      122.5000,       83.6875,        2.7378,        1.8095,   -999.250000,     -999.2500
     478.38348,      122.5000,       87.1875,        2.9160,        1.9101,   -999.250000,     -999.2500
     478.53588,      122.6250,       89.8750,        3.0051,        1.9797,   -999.250000,     -999.2500
     478.68828,      122.7500,       87.7500,        3.0317,        1.9758,   -999.250000,     -999.2500
     478.84068,      123.0620,       81.1875,        3.1320,        2.0076,   -999.250000,     -999.2500
     478.99308,      123.1250,       79.6250,        3.1880,        2.0253,   -999.250000,     -999.2500
     479.14548,      123.2500,       77.0000,        3.3178,        2.0682,   -999.250000,     -999.2500
     479.29788,      123.5000,       78.8125,        3.4552,        2.1845,   -999.250000,     -999.2500
     479.45028,      123.7500,       76.0625,        3.5629,        2.3100,   -999.250000,     -999.2500
     479.60268,      123.6250,       77.3750,        3.6237,        2.3953,   -999.250000,     -999.2500
     479.75508,      123.8120,       75.3125,        3.6604,        2.4922,   -999.250000,     -999.2500
     479.90748,      123.6880,       75.6250,        3.7173,        2.5844,   -999.250000,     -999.2500
     480.05988,      124.0620,       74.9375,        3.5926,        2.5908,   -999.250000,     -999.2500
     480.21228,      124.5620,       78.0625,        3.3815,        2.5107,   -999.250000,     -999.2500
     480.36468,      124.6250,       77.6875,        3.2121,        2.4422,   -999.250000,     -999.2500
     480.51708,      124.7500,       76.6875,        3.0829,        2.4204,   -999.250000,     -999.2500
     480.66948,      124.2500,       75.5625,        3.3088,        2.5880,   -999.250000,     -999.2500
     480.82188,      123.8750,       77.0625,        3.6270,        2.7635,   -999.250000,     -999.2500
     480.97428,      122.4380,       76.6875,        4.2642,        3.2166,   -999.250000,     -999.2500
