~Version
VERS  .             3.0                                 : CWLS LOG ASCII STANDARD - VERSION 3.0
WRAP  .             NO                                  : One line per depth step
DLM   .             COMMA                               : Delimiter character between data columns
#Delimiting character ( SPACE TAB OR COMMA ).

~Well
#MNEM.UNIT          DATA                                DESCRIPTION
#----- ----        -----------------                   -----------
STRT  .M                  0.00000                       : FIRST INDEX VALUE
STOP  .M               1582.97839                       : LAST INDEX VALUE
STEP  .M                  0.15240                       : STEP OF INDEX
NULL  .             -999.25                             : NULL VALUE
COMP  .                                                 : COMPANY
WELL  .             CAPELLA                             : WELL
FLD   .                                                 : FIELD
LOC   .                                                 : LOCATION
SRVC  .                                                 : SERVICE COMPANY
CTRY  .                                                 : COUNTRY
PROV  .                                                 : PROVINCE
UWI   .                                                 : UNIQUE WELL ID
LIC   .                                                 : LICENSE NUMBER
STAT  .                                                 : STATE
CNTY  .                                                 : COUNTY
API   .                                                 : API NUMBER
DATE  .                                                 : LOG DATE
X     .             652954.2587678                      : X OR EAST-WEST COORDINATE
Y     .             8157948.019637                      : Y OR NORTH-SOUTH COORDINATE
HZCS  .                                                 : HORIZONTAL CO-ORDINATE SYSTEM
LATI  .             -16.65596527778                     : LATITUDE
LONG  .             154.4342336111                      : LONGITUDE
GDAT  .                                                 : GEODETIC DATUM

~TOPS_PARAMETER 
#MNEM.UNIT                    VALUE                        DESCRIPTION
#--------------- ---         ------------                 -----------------

~TOPS_DEFINITION 
#MNEM.UNIT                 LOG CODE                  CURVE DESCRIPTION
#----------- ----         ------------              -----------------
DEPTH       .M                                      :     {F}
TOPS        .                                       :     {S32}

~TOPS_DATA | TOPS_DEFINITION
        0.3137,Doyles Creek Subgroup           
      419.5846,Horseshoe Creek Subgroup        
      504.1290,Apple Tree Flat Subgroup        
      726.8617,Watts Sandstone                 
      738.3121,Denman Fm                       
      898.3032,Mt Leonard Fm                   
      989.4355,Althorpe Fm                     
      998.2193,Malabar Fm                      
     1041.0404,Mt Ogilvie Fm                   
     1082.3066,Milbrodale Fm                   
     1155.5439,Mt Thorley Fm                   
     1204.7961,Burnamwood Fm                   
     1307.8026,Archerfield Sandstone           
     1322.7503,Mulbring Siltstone              
     1398.0403,Muree Sandstone                 
     1503.9168,Branxton Fm                     
     1543.2168,Greta Coal Measures             
     1567.3323,Dalwood Group                   
     1583.1745,                                

~PARAMETER 
#MNEM.UNIT                    VALUE                        DESCRIPTION
#--------------- ---         ------------                 -----------------

~CURVE 
#MNEM.UNIT                 LOG CODE                  CURVE DESCRIPTION
#----------- ----         ------------              -----------------
DEPTH       .M                                      :     {F}
DT          .US/F                                   :     {F}
GR          .GAPI                                   :     {F}
LLD         .OHMM                                   :     {F}
LLS         .OHMM                                   :     {F}
NPHI        .V/V                                    :     {F}
RHOB        .K/M3                                   :     {F}

~ASCII | CURVE 
# ...
    1114.80571,       95.0625,      103.2500,        6.3734,        5.3434,      0.290529,     2404.3000
    1114.95811,       95.3750,      107.1250,        6.2107,        5.4301,      0.305661,     2402.3390
    1115.11051,       95.7500,      103.8120,        5.7317,        5.1551,      0.290041,     2394.5300
    1115.26291,       96.0000,      102.1250,        5.5041,        4.9580,      0.300294,     2394.5320
    1115.41531,       96.6875,      100.0000,        5.2811,        4.8359,      0.306641,     2406.2510
    1115.56771,       96.7500,      108.3120,        5.6199,        5.0120,      0.308104,     2410.1610
    1115.72011,       97.2500,      103.6250,        5.6997,        5.1002,      0.303712,     2417.9680
    1115.87251,       96.8750,      104.8750,        5.7221,        5.1972,      0.309084,     2406.2500
    1116.02491,       96.6875,       96.3750,        5.8781,        5.3668,      0.320803,     2408.1970
    1116.17731,       96.6250,       97.7500,        6.1470,        5.6455,      0.331542,     2390.6200
    1116.32971,       96.0625,      100.2500,        6.6427,        5.9448,      0.325193,     2390.6180
    1116.48211,       95.3750,      100.8750,        6.2636,        5.5985,      0.314452,     2380.8570
    1116.63451,       94.0000,       99.3750,        5.6885,        5.0466,      0.309079,     2363.2770
    1116.78691,       92.7500,       95.0625,        5.3571,        4.7744,      0.291990,     2343.7450
    1116.93931,       92.6250,       85.6250,        4.7445,        4.1123,      0.277340,     2310.5450
    1117.09171,       92.0625,       79.8750,        4.7159,        4.0339,      0.253905,     2283.1990
    1117.24411,       92.1875,       79.2500,        5.3363,        4.5867,      0.246582,     2281.2560
    1117.39651,       92.6250,       87.5625,        6.0309,        5.2747,      0.249024,     2318.3670
    1117.54891,       93.3750,       98.1875,        6.8024,        5.8398,      0.258791,     2367.1900
    1117.70131,       93.0625,       96.3125,        7.2851,        6.2797,      0.273926,     2367.1830
    1117.85371,       92.9375,       90.3125,        6.3248,        5.5936,      0.273436,     2320.3040
    1118.00611,       93.0000,       77.1250,        5.0213,        4.5123,      0.262693,     2283.2000
    1118.15851,       92.5000,       79.1250,        5.0394,        4.4552,      0.247072,     2285.1670
    1118.31091,       92.7500,       81.5000,        5.7685,        5.1084,      0.260744,     2330.0860
    1118.46331,       92.9375,       94.0000,        6.4183,        5.5888,      0.270999,     2371.0920
    1118.61571,       93.0625,       99.8750,        6.2941,        5.5410,      0.293454,     2382.8100
    1118.76811,       93.1250,      102.3120,        6.1779,        5.7127,      0.277833,     2380.8610
    1118.92051,       93.8750,      100.6880,        4.7810,        4.4325,      0.286131,     2390.6210
    1119.07291,       94.5000,       98.5625,        4.5885,        4.2098,      0.272950,     2394.5290
    1119.22531,       94.2500,      102.5620,        5.2985,        4.8435,      0.281248,     2390.6220
    1119.37771,       94.9375,      102.3120,        5.3253,        4.9941,      0.269533,     2402.3400
    1119.53011,       94.6875,      107.4380,        6.3232,        5.8253,      0.285159,     2402.3410
    1119.68251,       94.3125,      102.8750,        6.7401,        6.2619,      0.301760,     2406.2440
    1119.83491,       93.7500,      100.5000,        5.3330,        4.9448,      0.315427,     2371.0870
    1119.98731,       93.3125,       91.9375,        4.6987,        4.3781,      0.295408,     2353.5210
    1120.13971,       93.6875,       98.0000,        4.5716,        4.3478,      0.280273,     2359.3870
    1120.29211,       94.8125,       97.6875,        4.6989,        4.4638,      0.277834,     2408.2060
    1120.44451,       95.6250,      104.6880,        5.8960,        5.5203,      0.288087,     2449.2180
    1120.59691,       95.6875,       98.8125,        6.2896,        6.0620,      0.295900,     2437.4960
    1120.74931,       95.4375,      100.5000,        5.5591,        5.3115,      0.310549,     2414.0550
    1120.90171,       94.5000,       96.3750,        4.7992,        4.5681,      0.322265,     2380.8560
    1121.05411,       93.9375,       96.8750,        4.8204,        4.6148,      0.316893,     2355.4690
    1121.20651,       94.0000,       97.1875,        5.0325,        4.8179,      0.300781,     2349.6100
    1121.35891,       93.6875,       96.1250,        5.2778,        4.8850,      0.301758,     2351.5580
    1121.51131,       92.6250,       91.8750,        5.6938,        5.1660,      0.304197,     2337.8870
    1121.66371,       91.3750,       85.0625,        5.7324,        5.2778,      0.293452,     2324.2210
    1121.81611,       89.6875,       81.1250,        5.2400,        4.9095,      0.262693,     2335.9420
    1121.96851,       89.3125,       78.0000,        5.1710,        4.7045,      0.249024,     2349.6080
    1122.12091,       89.9375,       73.6875,        5.2668,        4.7601,      0.256349,     2337.8870
    1122.27331,       91.0000,       72.1250,        4.8430,        4.4386,      0.264159,     2324.2210
    1122.42571,       92.0000,       78.4375,        4.8782,        4.5149,      0.259278,     2333.9860
    1122.57811,       92.8125,       92.5625,        5.3845,        4.9550,      0.264161,     2375.0070
    1122.73051,       94.6875,      102.4380,        5.9757,        5.5278,      0.270512,     2419.9210
    1122.88291,       95.0000,      107.2500,        5.9712,        5.6567,      0.296389,     2429.6870
    1123.03531,       94.7500,      102.7500,        5.3369,        5.0870,      0.311033,     2410.1570
    1123.18771,       94.8750,       95.8750,        5.1229,        4.8404,      0.301268,     2388.6700
    1123.34011,       94.5625,       94.7500,        4.8960,        4.6036,      0.290038,     2392.5850
    1123.49251,       95.5625,       98.3125,        4.8722,        4.5800,      0.283694,     2427.7320
    1123.64491,       96.0625,      111.3120,        5.2052,        4.9630,      0.306154,     2439.4500
    1123.79731,       96.3750,      112.9380,        5.1580,        4.9243,      0.317382,     2443.3580
    1123.94971,       95.8125,      114.0000,        5.3275,        5.0561,      0.310058,     2429.6890
    1124.10211,       95.0625,      107.5000,        5.5868,        5.3260,      0.304687,     2423.8270
    1124.25451,       94.6875,      105.8120,        5.9392,        5.6664,      0.299315,     2404.2980
    1124.40691,       94.0000,      102.8120,        6.3023,        6.0139,      0.294921,     2390.6180
    1124.55931,       94.0625,      100.0000,        6.1583,        5.7818,      0.288570,     2378.9080
    1124.71171,       93.0000,       91.3750,        5.6390,        5.2343,      0.263182,     2367.1870
    1124.86411,       91.8750,       87.0000,        5.1608,        4.8018,      0.252929,     2349.6100
    1125.01651,       92.3750,       90.3750,        5.0551,        4.7255,      0.248051,     2349.6140
    1125.16891,       93.8125,      101.0620,        5.2570,        4.9474,      0.276859,     2376.9560
    1125.32131,       97.1875,      108.7500,        5.3520,        5.0122,      0.299808,     2414.0640
    1125.47371,      100.0000,      117.1880,        5.2384,        4.9524,      0.319824,     2441.4100
    1125.62611,       99.8750,      117.8750,        4.9159,        4.6972,      0.319822,     2439.4500
    1125.77851,       99.0625,      110.3750,        4.8716,        4.6971,      0.309568,     2439.4490
    1125.93091,       97.8125,      101.5000,        5.0157,        4.8242,      0.294434,     2433.5900
    1126.08331,       96.3750,       95.1875,        5.3632,        5.0408,      0.296874,     2435.5510
    1126.23571,       96.0000,      104.6880,        5.6473,        5.3215,      0.292481,     2441.4110
    1126.38811,       95.3750,      103.0000,        5.8376,        5.5206,      0.301756,     2449.2180
