~Version
VERS  .             3.0                                 : CWLS LOG ASCII STANDARD - VERSION 3.0
WRAP  .             NO                                  : One line per depth step
DLM   .             COMMA                               : Delimiter character between data columns
#Delimiting character ( SPACE TAB OR COMMA ).

~Well
#MNEM.UNIT          DATA                                DESCRIPTION
#----- ----        -----------------                   -----------
STRT  .M                  0.00000                       : FIRST INDEX VALUE
STOP  .M               1582.97839                       : LAST INDEX VALUE
STEP  .M                  0.15240                       : STEP OF INDEX
NULL  .             -999.25                             : NULL VALUE
COMP  .                                                 : COMPANY
WELL  .             CAPELLA                             : WELL
FLD   .                                                 : FIELD
LOC   .                                                 : LOCATION
SRVC  .                                                 : SERVICE COMPANY
CTRY  .                                                 : COUNTRY
PROV  .                                                 : PROVINCE
UWI   .                                                 : UNIQUE WELL ID
LIC   .                                                 : LICENSE NUMBER
STAT  .                                                 : STATE
CNTY  .                                                 : COUNTY
API   .                                                 : API NUMBER
DATE  .                                                 : LOG DATE
X     .             652954.2587678                      : X OR EAST-WEST COORDINATE
Y     .             8157948.019637                      : Y OR NORTH-SOUTH COORDINATE
HZCS  .                                                 : HORIZONTAL CO-ORDINATE SYSTEM
LATI  .             -16.65596527778                     : LATITUDE
LONG  .             154.4342336111                      : LONGITUDE
GDAT  .                                                 : GEODETIC DATUM

~TOPS_PARAMETER 
#MNEM.UNIT                    VALUE                        DESCRIPTION
#--------------- ---         ------------                 -----------------

~TOPS_DEFINITION 
#MNEM.UNIT                 LOG CODE                  CURVE DESCRIPTION
#----------- ----         ------------              -----------------
DEPTH       .M                                      :     {F}
TOPS        .                                       :     {S32}

~TOPS_DATA | TOPS_DEFINITION
        0.3137,Doyles Creek Subgroup           
      419.5846,Horseshoe Creek Subgroup        
      504.1290,Apple Tree Flat Subgroup        
      726.8617,Watts Sandstone                 
      738.3121,Denman Fm                       
      898.3032,Mt Leonard Fm                   
      989.4355,Althorpe Fm                     
      998.2193,Malabar Fm                      
     1041.0404,Mt Ogilvie Fm                   
     1082.3066,Milbrodale Fm                   
     1155.5439,Mt Thorley Fm                   
     1204.7961,Burnamwood Fm                   
     1307.8026,Archerfield Sandstone           
     1322.7503,Mulbring Siltstone              
     1398.0403,Muree Sandstone                 
     1503.9168,Branxton Fm                     
     1543.2168,Greta Coal Measures             
     1567.3323,Dalwood Group                   
     1583.1745,                                

~PARAMETER 
#MNEM.UNIT                    VALUE                        DESCRIPTION
#--------------- ---         ------------                 -----------------

~CURVE 
#MNEM.UNIT                 LOG CODE                  CURVE DESCRIPTION
#----------- ----         ------------              -----------------
DEPTH       .M                                      :     {F}
DT          .US/F                                   :     {F}
GR          .GAPI                                   :     {F}
LLD         .OHMM                                   :     {F}
LLS         .OHMM                                   :     {F}
NPHI        .V/V                                    :     {F}
RHOB        .K/M3                                   :     {F}

~ASCII | CURVE 
# ...
    1208.68409,       90.0000,      159.1250,        8.9313,        9.2518,      0.252444,     2462.8920
    1208.83649,       91.6250,      160.3750,        7.5837,        7.9406,      0.280276,     2484.3810
    1208.98889,       93.0625,      148.8750,        6.5295,        6.9088,      0.302739,     2496.0890
    1209.14129,       94.2500,      151.3750,        5.9452,        6.2547,      0.339843,     2488.2790
    1209.29369,       94.0625,      149.1250,        6.4773,        6.7135,      0.335936,     2482.4200
    1209.44609,       91.6250,      150.7500,        7.1107,        7.3178,      0.318843,     2482.4200
    1209.59849,       90.2500,      146.6250,        7.5254,        7.5657,      0.281738,     2482.4200
    1209.75089,       88.7500,      138.7500,        7.9292,        7.9732,      0.278321,     2484.3820
    1209.90329,       87.8125,      134.8750,        8.3384,        8.4846,      0.289062,     2501.9550
    1210.05569,       88.0625,      132.2500,        8.9762,        9.2241,      0.290527,     2542.9760
    1210.20809,       87.9375,      133.8750,        9.8367,       10.1915,      0.292971,     2589.8430
    1210.36049,       87.8750,      137.7500,        9.5511,        9.9921,      0.307134,     2615.2290
    1210.51289,       89.3125,      149.2500,        7.6546,        8.2818,      0.347658,     2603.5160
    1210.66529,       91.5000,      158.2500,        6.3106,        6.9481,      0.364259,     2572.2660
    1210.81769,       93.4375,      167.3750,        5.5011,        6.1042,      0.371580,     2541.0190
    1210.97009,       94.5625,      166.1250,        5.1391,        5.6971,      0.359375,     2533.2000
    1211.12249,       94.9375,      172.0000,        5.0943,        5.6449,      0.362303,     2539.0610
    1211.27489,       94.7500,      169.5000,        5.0990,        5.6951,      0.350099,     2544.9180
    1211.42729,       94.5000,      169.0000,        5.1233,        5.7135,      0.357420,     2531.2510
    1211.57969,       94.1875,      163.8750,        5.2867,        5.8552,      0.337891,     2539.0610
    1211.73209,       93.4375,      169.8750,        5.4123,        5.9155,      0.335447,     2544.9220
    1211.88449,       93.0000,      173.0000,        5.5588,        6.0152,      0.319339,     2560.5500
    1212.03689,       91.1250,      173.8750,        6.0477,        6.4481,      0.343748,     2564.4550
    1212.18929,       87.5000,      171.3750,        7.3458,        7.5891,      0.326169,     2609.3860
    1212.34169,       82.6875,      152.7500,        9.8043,        9.8936,      0.304683,     2656.2520
    1212.49409,       79.8125,      130.0000,       13.2335,       12.8744,      0.261228,     2671.8740
    1212.64649,       79.2500,      110.9380,       17.3491,       16.3393,      0.248048,     2623.0420
    1212.79889,       81.2500,      119.5000,       16.5211,       16.0949,      0.256349,     2558.5840
    1212.95129,       83.6875,      131.3750,       13.4854,       13.7102,      0.263673,     2513.6670
    1213.10369,       85.6250,      138.7500,       11.9940,       12.3158,      0.273438,     2486.3290
    1213.25609,       85.3125,      145.3750,       11.5917,       11.9498,      0.272950,     2478.5200
    1213.40849,       85.1250,      146.6250,       11.3626,       11.8276,      0.280272,     2474.6120
    1213.56089,       85.3750,      149.8750,       10.9897,       11.4193,      0.272947,     2492.1920
    1213.71329,       85.9375,      143.6250,       10.6704,       11.1705,      0.258301,     2507.8110
    1213.86569,       87.4375,      145.2500,       10.1344,       10.7207,      0.260744,     2515.6190
    1214.01809,       88.0000,      150.5000,        9.8805,       10.3674,      0.277344,     2507.8090
    1214.17049,       87.8125,      153.3750,       10.0440,       10.5301,      0.277342,     2496.0890
    1214.32289,       87.1250,      158.1250,       10.6233,       11.0392,      0.257811,     2486.3290
    1214.47529,       86.1250,      151.2500,       11.2558,       11.5319,      0.249023,     2478.5200
    1214.62769,       86.3750,      153.7500,       11.4971,       11.8496,      0.251466,     2476.5600
    1214.78009,       86.3125,      150.8750,       11.4339,       11.7321,      0.261718,     2476.5600
    1214.93249,       86.8750,      157.5000,       11.2615,       11.5722,      0.252929,     2476.5600
    1215.08489,       87.0625,      156.2500,       11.1683,       11.4438,      0.245117,     2474.6090
    1215.23729,       87.5625,      153.1250,       11.0986,       11.4489,      0.242188,     2470.7000
    1215.38969,       87.5000,      148.0000,       11.0050,       11.3985,      0.244143,     2470.7010
    1215.54209,       87.8750,      144.1250,       10.8712,       11.4130,      0.261230,     2484.3820
    1215.69449,       87.8750,      145.8750,       10.5096,       11.0675,      0.260744,     2501.9540
    1215.84689,       88.6250,      159.2500,        9.5178,       10.1050,      0.275880,     2539.0650
    1215.99929,       89.5000,      171.6250,        8.5916,        9.1867,      0.285648,     2576.1730
    1216.15169,       91.0625,      187.5000,        7.7918,        8.4193,      0.312988,     2597.6610
    1216.30409,       91.4375,      187.8750,        7.3960,        7.9340,      0.313966,     2601.5560
    1216.45649,       91.2500,      187.5000,        7.5961,        8.1179,      0.318846,     2568.3560
    1216.60889,       90.1250,      172.0000,        8.3160,        8.7612,      0.301756,     2537.1050
    1216.76129,       88.4375,      159.5000,        9.3056,        9.6357,      0.289060,     2501.9490
    1216.91369,       87.3750,      155.8750,        9.9696,       10.2943,      0.272949,     2498.0510
    1217.06609,       87.2500,      157.6250,       10.2996,       10.6142,      0.270998,     2505.8620
    1217.21849,       87.6875,      163.7500,        9.9241,       10.2026,      0.286137,     2525.3900
    1217.37089,       88.6250,      160.7500,        9.7593,        9.9541,      0.318849,     2527.3390
    1217.52329,       88.6250,      163.2500,        9.8523,        9.9527,      0.326170,     2519.5270
    1217.67569,       88.3125,      157.5000,       10.2723,       10.1902,      0.312985,     2499.9970
    1217.82809,       86.8125,      154.2500,       10.9541,       10.7160,      0.289059,     2478.5180
    1217.98049,       85.9375,      149.0000,       11.4687,       11.0572,      0.267089,     2458.9790
    1218.13289,       84.9375,      150.0000,       11.8628,       11.4568,      0.256833,     2449.2210
    1218.28529,       83.7500,      158.2500,       12.4505,       11.9221,      0.234860,     2457.0320
    1218.43769,       82.4375,      156.6250,       13.6116,       12.8199,      0.211911,     2472.6610
    1218.59009,       81.9375,      153.3750,       14.5023,       13.6099,      0.188964,     2480.4680
    1218.74249,       82.4375,      139.5000,       14.7589,       13.9888,      0.178224,     2466.7970
    1218.89489,       83.5625,      139.5000,       14.6152,       13.9574,      0.187501,     2447.2690
    1219.04729,       84.2500,      137.3750,       13.7128,       13.1354,      0.195801,     2441.4100
    1219.19969,       84.8125,      139.6250,       12.3948,       12.0040,      0.195801,     2437.4990
    1219.35209,       85.5000,      132.3750,       10.0062,        9.5808,      0.194337,     2427.7280
    1219.50449,       84.8750,      125.1250,        9.6280,        9.3798,      0.199708,     2410.1570
    1219.65689,       85.8125,      121.0620,        8.7753,        8.6705,      0.205567,     2384.7670
    1219.80929,       86.3750,      117.9380,        7.2401,        6.9707,      0.211913,     2359.3780
    1219.96169,       87.0000,      116.3120,        7.4719,        6.9817,      0.202637,     2347.6610
    1220.11409,       87.5625,      116.9380,        7.3259,        6.9665,      0.199709,     2353.5230
    1220.26649,       88.0000,      119.8750,        7.9873,        7.4139,      0.219729,     2376.9520
