~Version
VERS  .             3.0                                 : CWLS LOG ASCII STANDARD - VERSION 3.0
WRAP  .             NO                                  : One line per depth step
DLM   .             COMMA                               : Delimiter character between data columns
#Delimiting character ( SPACE TAB OR COMMA ).

~Well
#MNEM.UNIT          DATA                                DESCRIPTION
#----- ----        -----------------                   -----------
STRT  .M                  0.00000                       : FIRST INDEX VALUE
STOP  .M               1582.97839                       : LAST INDEX VALUE
STEP  .M                  0.15240                       : STEP OF INDEX
NULL  .             -999.25                             : NULL VALUE
COMP  .                                                 : COMPANY
WELL  .             CAPELLA                             : WELL
FLD   .                                                 : FIELD
LOC   .                                                 : LOCATION
SRVC  .                                                 : SERVICE COMPANY
CTRY  .                                                 : COUNTRY
PROV  .                                                 : PROVINCE
UWI   .                                                 : UNIQUE WELL ID
LIC   .                                                 : LICENSE NUMBER
STAT  .                                                 : STATE
CNTY  .                                                 : COUNTY
API   .                                                 : API NUMBER
DATE  .                                                 : LOG DATE
X     .             652954.2587678                      : X OR EAST-WEST COORDINATE
Y     .             8157948.019637                      : Y OR NORTH-SOUTH COORDINATE
HZCS  .                                                 : HORIZONTAL CO-ORDINATE SYSTEM
LATI  .             -16.65596527778                     : LATITUDE
LONG  .             154.4342336111                      : LONGITUDE
GDAT  .                                                 : GEODETIC DATUM

~TOPS_PARAMETER 
#MNEM.UNIT                    VALUE                        DESCRIPTION
#--------------- ---         ------------                 -----------------

~TOPS_DEFINITION 
#MNEM.UNIT                 LOG CODE                  CURVE DESCRIPTION
#----------- ----         ------------              -----------------
DEPTH       .M                                      :     {F}
TOPS        .                                       :     {S32}

~TOPS_DATA | TOPS_DEFINITION
        0.3137,Doyles Creek Subgroup           
      419.5846,Horseshoe Creek Subgroup        
      504.1290,Apple Tree Flat Subgroup        
      726.8617,Watts Sandstone                 
      738.3121,Denman Fm                       
      898.3032,Mt Leonard Fm                   
      989.4355,Althorpe Fm                     
      998.2193,Malabar Fm                      
     1041.0404,Mt Ogilvie Fm                   
     1082.3066,Milbrodale Fm                   
     1155.5439,Mt Thorley Fm                   
     1204.7961,Burnamwood Fm                   
     1307.8026,Archerfield Sandstone           
     1322.7503,Mulbring Siltstone              
     1398.0403,Muree Sandstone                 
     1503.9168,Branxton Fm                     
     1543.2168,Greta Coal Measures             
     1567.3323,Dalwood Group                   
     1583.1745,                                

~PARAMETER 
#MNEM.UNIT                    VALUE                        DESCRIPTION
#--------------- ---         ------------                 -----------------

~CURVE 
#MNEM.UNIT                 LOG CODE                  CURVE DESCRIPTION
#----------- ----         ------------              -----------------
DEPTH       .M                                      :     {F}
DT          .US/F                                   :     {F}
GR          .GAPI                                   :     {F}
LLD         .OHMM                                   :     {F}
LLS         .OHMM                                   :     {F}
NPHI        .V/V                                    :     {F}
RHOB        .K/M3                                   :     {F}

~ASCII | CURVE 
# ...
     739.29221,      120.0000,       81.2500,        1.5134,        1.6386,   -999.250000,     -999.2500
     739.44461,      120.4380,       82.6250,        1.5098,        1.6622,   -999.250000,     -999.2500
     739.59701,      118.8750,       88.5000,        1.5721,        1.6481,   -999.250000,     -999.2500
     739.74941,      118.0000,       89.0000,        1.5613,        1.6442,   -999.250000,     -999.2500
     739.90181,      106.8750,       86.5625,        1.5765,        1.6340,   -999.250000,     -999.2500
     740.05421,      101.5620,       87.8750,        1.6562,        1.7270,   -999.250000,     -999.2500
     740.20661,       97.8125,       85.8750,        1.8056,        1.9293,   -999.250000,     -999.2500
     740.35901,       97.1875,       86.3125,        1.8847,        1.9977,   -999.250000,     -999.2500
     740.51141,      108.4380,       83.0000,        1.9515,        1.9948,   -999.250000,     -999.2500
     740.66381,      112.1250,       82.8125,        1.9406,        2.0244,   -999.250000,     -999.2500
     740.81621,      115.3750,       83.9375,        1.8400,        1.9725,   -999.250000,     -999.2500
     740.96861,      115.1250,       84.0000,        1.8587,        1.9858,   -999.250000,     -999.2500
     741.12101,      114.1250,       82.9375,        1.9502,        2.0958,   -999.250000,     -999.2500
     741.27341,      113.8120,       83.1250,        1.9049,        2.0931,   -999.250000,     -999.2500
     741.42581,      115.5000,       86.4375,        1.7779,        2.0000,   -999.250000,     -999.2500
     741.57821,      117.6250,       85.7500,        1.6493,        1.8052,   -999.250000,     -999.2500
     741.73061,      120.0620,       83.8125,        1.5643,        1.6830,   -999.250000,     -999.2500
     741.88301,      121.1250,       82.8125,        1.5316,        1.6769,   -999.250000,     -999.2500
     742.03541,      120.2500,       84.3750,        1.5618,        1.7027,   -999.250000,     -999.2500
     742.18781,      119.6250,       90.5000,        1.6074,        1.7401,   -999.250000,     -999.2500
     742.34021,      119.3750,       92.5625,        1.6301,        1.7418,   -999.250000,     -999.2500
     742.49261,      118.7500,       97.6250,        1.6346,        1.7713,   -999.250000,     -999.2500
     742.64501,      129.1250,       94.7500,        1.6221,        1.7614,   -999.250000,     -999.2500
     742.79741,      130.0000,       95.0625,        1.6828,        1.7951,   -999.250000,     -999.2500
     742.94981,      128.7500,       92.3750,        1.7312,        1.8560,   -999.250000,     -999.2500
     743.10221,      127.8750,       91.0000,        1.7932,        1.9082,   -999.250000,     -999.2500
     743.25461,      128.1250,       89.8750,        1.7774,        1.9074,   -999.250000,     -999.2500
     743.40701,      128.5000,       91.5000,        1.7521,        1.8852,   -999.250000,     -999.2500
     743.55941,      129.7500,       95.2500,        1.7517,        1.8914,   -999.250000,     -999.2500
     743.71181,      130.3750,      100.6880,        1.6896,        1.8349,   -999.250000,     -999.2500
     743.86421,      120.2500,       99.2500,        1.7219,        1.8426,   -999.250000,     -999.2500
     744.01661,      129.1250,       97.8125,        1.7531,        1.8474,   -999.250000,     -999.2500
     744.16901,      130.0000,       92.9375,        1.7567,        1.9285,   -999.250000,     -999.2500
     744.32141,      129.6250,       91.2500,        1.7790,        1.8797,   -999.250000,     -999.2500
     744.47381,      128.8750,       88.9375,        1.7783,        1.9177,   -999.250000,     -999.2500
     744.62621,      129.0000,       85.5625,        1.7733,        1.9141,   -999.250000,     -999.2500
     744.77861,      128.7500,       86.3750,        1.7761,        1.9155,   -999.250000,     -999.2500
     744.93101,      129.2500,       88.0625,        1.7545,        1.9017,   -999.250000,     -999.2500
     745.08341,      129.3750,       88.6875,        1.7698,        1.8850,   -999.250000,     -999.2500
     745.23581,      118.7500,       91.7500,        1.7607,        1.8929,   -999.250000,     -999.2500
     745.38821,      117.5620,       91.6875,        1.7409,        1.8812,   -999.250000,     -999.2500
     745.54061,      119.5000,       97.1250,        1.7766,        1.9102,   -999.250000,     -999.2500
     745.69301,      120.5000,       98.7500,        1.7546,        1.8528,   -999.250000,     -999.2500
     745.84541,      121.1250,      101.7500,        1.6767,        1.8029,   -999.250000,     -999.2500
     745.99781,      120.6880,       97.2500,        1.6598,        1.7897,   -999.250000,     -999.2500
     746.15021,      107.8120,       96.6875,        1.6430,        1.7938,   -999.250000,     -999.2500
     746.30261,       96.7500,       95.6250,        1.6885,        1.8695,   -999.250000,     -999.2500
     746.45501,       85.1875,       92.7500,        1.6972,        1.8848,   -999.250000,     -999.2500
     746.60741,       85.5625,       92.1875,        1.6875,        1.8780,   -999.250000,     -999.2500
     746.75981,      100.4380,       94.5625,        1.6308,        1.8462,   -999.250000,     -999.2500
     746.91221,      109.8120,       99.1250,        1.5159,        1.6785,   -999.250000,     -999.2500
     747.06461,      121.6250,      103.3120,        1.4470,        1.6280,   -999.250000,     -999.2500
     747.21701,      123.1250,      100.5000,        1.4569,        1.6053,   -999.250000,     -999.2500
     747.36941,      122.8750,       99.5625,        1.4453,        1.6143,   -999.250000,     -999.2500
     747.52181,      123.8750,       93.6250,        1.4602,        1.6231,   -999.250000,     -999.2500
     747.67421,      123.8750,       93.0000,        1.4752,        1.6432,   -999.250000,     -999.2500
     747.82661,      123.8750,       94.9375,        1.4824,        1.6924,   -999.250000,     -999.2500
     747.97901,      124.0000,       96.8750,        1.4981,        1.6908,   -999.250000,     -999.2500
     748.13141,      124.7500,       89.9375,        1.4804,        1.6513,   -999.250000,     -999.2500
     748.28381,      125.3750,       87.5000,        1.4497,        1.6295,   -999.250000,     -999.2500
     748.43621,      125.7500,       87.0625,        1.4298,        1.6024,   -999.250000,     -999.2500
     748.58861,      126.1250,       97.4375,        1.3788,        1.5589,   -999.250000,     -999.2500
     748.74101,      126.2500,      100.6880,        1.4295,        1.5474,   -999.250000,     -999.2500
     748.89341,      126.0620,      102.3750,        1.4222,        1.5839,   -999.250000,     -999.2500
     749.04581,      125.2500,      101.5620,        1.4612,        1.6226,   -999.250000,     -999.2500
     749.19821,      125.3750,       97.7500,        1.5158,        1.6349,   -999.250000,     -999.2500
     749.35061,      121.2500,       93.6250,        1.5977,        1.7449,   -999.250000,     -999.2500
     749.50301,      119.7500,       89.1875,        1.6706,        1.8224,   -999.250000,     -999.2500
     749.65541,      118.6250,       90.2500,        1.6708,        1.8139,   -999.250000,     -999.2500
     749.80781,      117.3750,       89.3750,        1.7024,        1.8361,   -999.250000,     -999.2500
     749.96021,      105.7500,       90.4375,        1.7351,        1.8770,   -999.250000,     -999.2500
     750.11261,       96.5000,       87.8125,        1.8737,        2.0210,   -999.250000,     -999.2500
     750.26501,       84.6875,       85.5000,        2.0985,        2.2609,   -999.250000,     -999.2500
     750.41741,       74.5625,       82.5625,        2.2275,        2.3925,   -999.250000,     -999.2500
     750.56981,       83.7500,       83.6875,        2.2204,        2.3666,   -999.250000,     -999.2500
     750.72221,       93.0625,       93.0000,        1.9767,        2.1736,   -999.250000,     -999.2500
     750.87461,      104.6250,       96.8750,        1.7426,        1.9367,   -999.250000,     -999.2500
