~Version
VERS  .             3.0                                 : CWLS LOG ASCII STANDARD - VERSION 3.0
WRAP  .             NO                                  : One line per depth step
DLM   .             COMMA                               : Delimiter character between data columns
#Delimiting character ( SPACE TAB OR COMMA ).

~Well
#MNEM.UNIT          DATA                                DESCRIPTION
#----- ----        -----------------                   -----------
STRT  .M                  0.00000                       : FIRST INDEX VALUE
STOP  .M               1582.97839                       : LAST INDEX VALUE
STEP  .M                  0.15240                       : STEP OF INDEX
NULL  .             -999.25                             : NULL VALUE
COMP  .                                                 : COMPANY
WELL  .             CAPELLA                             : WELL
FLD   .                                                 : FIELD
LOC   .                                                 : LOCATION
SRVC  .                                                 : SERVICE COMPANY
CTRY  .                                                 : COUNTRY
PROV  .                                                 : PROVINCE
UWI   .                                                 : UNIQUE WELL ID
LIC   .                                                 : LICENSE NUMBER
STAT  .                                                 : STATE
CNTY  .                                                 : COUNTY
API   .                                                 : API NUMBER
DATE  .                                                 : LOG DATE
X     .             652954.2587678                      : X OR EAST-WEST COORDINATE
Y     .             8157948.019637                      : Y OR NORTH-SOUTH COORDINATE
HZCS  .                                                 : HORIZONTAL CO-ORDINATE SYSTEM
LATI  .             -16.65596527778                     : LATITUDE
LONG  .             154.4342336111                      : LONGITUDE
GDAT  .                                                 : GEODETIC DATUM

~TOPS_PARAMETER 
#MNEM.UNIT                    VALUE                        DESCRIPTION
#--------------- ---         ------------                 -----------------

~TOPS_DEFINITION 
#MNEM.UNIT                 LOG CODE                  CURVE DESCRIPTION
#----------- ----         ------------              -----------------
DEPTH       .M                                      :     {F}
TOPS        .                                       :     {S32}

~TOPS_DATA | TOPS_DEFINITION
        0.3137,Doyles Creek Subgroup           
      419.5846,Horseshoe Creek Subgroup        
      504.1290,Apple Tree Flat Subgroup        
      726.8617,Watts Sandstone                 
      738.3121,Denman Fm                       
      898.3032,Mt Leonard Fm                   
      989.4355,Althorpe Fm                     
      998.2193,Malabar Fm                      
     1041.0404,Mt Ogilvie Fm                   
     1082.3066,Milbrodale Fm                   
     1155.5439,Mt Thorley Fm                   
     1204.7961,Burnamwood Fm                   
     1307.8026,Archerfield Sandstone           
     1322.7503,Mulbring Siltstone              
     1398.0403,Muree Sandstone                 
     1503.9168,Branxton Fm                     
     1543.2168,Greta Coal Measures             
     1567.3323,Dalwood Group                   
     1583.1745,                                

~PARAMETER 
#MNEM.UNIT                    VALUE                        DESCRIPTION
#--------------- ---         ------------                 -----------------

~CURVE 
#MNEM.UNIT                 LOG CODE                  CURVE DESCRIPTION
#----------- ----         ------------              -----------------
DEPTH       .M                                      :     {F}
DT          .US/F                                   :     {F}
GR          .GAPI                                   :     {F}
LLD         .OHMM                                   :     {F}
LLS         .OHMM                                   :     {F}
NPHI        .V/V                                    :     {F}
RHOB        .K/M3                                   :     {F}

~ASCII | CURVE 
# ...
    1290.82767,       82.8125,      108.2500,       20.1181,       10.9709,      0.192383,     2357.4210
    1290.98007,       82.1875,      108.8750,       19.9607,       10.7816,      0.187500,     2367.1900
    1291.13247,       82.0625,      113.6880,       20.2895,       10.8324,      0.186522,     2367.1900
    1291.28487,       82.2500,      117.8750,       20.5151,       10.6814,      0.180177,     2369.1390
    1291.43727,       82.2500,      113.9380,       20.5040,       10.5239,      0.187012,     2359.3800
    1291.58967,       82.4375,      116.2500,       20.7933,       10.5513,      0.188478,     2361.3300
    1291.74207,       82.8125,      114.3750,       20.8247,       10.5471,      0.198730,     2359.3820
    1291.89447,       82.5625,      120.1250,       21.0546,       10.4800,      0.194823,     2378.9100
    1292.04687,       82.5000,      118.6880,       21.4957,       10.7266,      0.188476,     2376.9490
    1292.19927,       82.5000,      113.8750,       21.4108,       10.6380,      0.181641,     2374.9990
    1292.35167,       82.2500,      107.1880,       21.0261,       10.4583,      0.176758,     2365.2300
    1292.50407,       82.3750,      107.2500,       20.7314,       10.3518,      0.177734,     2367.1900
    1292.65647,       82.6250,      109.8750,       20.2144,       10.0545,      0.174805,     2369.1390
    1292.80887,       82.3750,      114.5620,       20.1497,        9.8849,      0.173339,     2365.2300
    1292.96127,       82.7500,      113.3750,       20.5488,        9.8793,      0.166992,     2367.1900
    1293.11367,       82.7500,      114.3120,       20.7817,        9.8476,      0.168457,     2365.2300
    1293.26607,       82.5625,      114.8750,       21.0104,        9.6849,      0.173341,     2365.2290
    1293.41847,       82.5625,      113.6880,       20.6129,        9.5539,      0.180664,     2357.4200
    1293.57087,       82.2500,      114.0620,       20.5225,        9.4803,      0.182617,     2363.2800
    1293.72327,       82.1250,      115.2500,       20.3887,        9.4493,      0.187500,     2363.2800
    1293.87567,       81.9375,      114.9380,       19.8729,        9.2346,      0.188477,     2361.3290
    1294.02807,       82.1250,      114.4380,       19.8734,        9.1741,      0.185547,     2349.6100
    1294.18047,       82.2500,      110.8750,       19.2679,        8.9205,      0.182129,     2349.6100
    1294.33287,       82.1250,      111.2500,       18.9340,        8.6897,      0.180664,     2353.5210
    1294.48527,       82.0625,      111.9380,       19.0301,        8.7069,      0.176758,     2361.3310
    1294.63767,       81.5625,      117.1880,       19.8018,        8.9686,      0.176270,     2371.0910
    1294.79007,       81.6250,      116.7500,       20.7323,        9.1424,      0.177734,     2384.7700
    1294.94247,       81.6875,      118.2500,       20.8027,        9.0018,      0.178223,     2386.7190
    1295.09487,       82.0000,      115.2500,       20.7116,        8.9836,      0.179200,     2378.9090
    1295.24727,       82.3125,      116.4380,       19.7144,        8.6602,      0.186036,     2371.0890
    1295.39967,       82.4375,      118.6880,       19.1308,        8.4644,      0.192871,     2367.1910
    1295.55207,       82.1875,      127.1880,       19.6978,        8.7972,      0.192383,     2375.0000
    1295.70447,       82.0000,      132.7500,       19.8693,        9.0015,      0.190919,     2380.8600
    1295.85687,       81.6250,      127.5000,       19.4012,        8.9380,      0.203126,     2378.9100
    1296.00927,       81.3125,      115.3750,       18.3366,        8.9469,      0.208495,     2373.0480
    1296.16167,       81.0000,      104.6880,       16.7104,        8.6401,      0.203123,     2357.4200
    1296.31407,       81.0625,      100.3750,       15.3741,        7.9841,      0.183103,     2359.3790
    1296.46647,       81.0625,       98.0625,       14.7204,        7.6122,      0.165038,     2351.5630
    1296.61887,       80.8125,      104.1880,       15.8462,        8.0667,      0.156251,     2378.9140
    1296.77127,       80.6250,      116.4380,       19.3539,        9.3194,      0.162600,     2416.0230
    1296.92367,       80.5000,      126.0620,       21.0623,        9.9096,      0.181641,     2445.3100
    1297.07607,       80.1875,      129.6250,       23.2978,       11.1425,      0.179199,     2443.3580
    1297.22847,       80.8750,      129.3750,       24.0331,       12.7401,      0.182617,     2419.9180
    1297.38087,       81.9375,      125.6250,       18.9479,       10.0379,      0.183106,     2398.4390
    1297.53327,       82.7500,      118.8120,       18.3481,        9.5136,      0.198243,     2388.6690
    1297.68567,       83.2500,      111.8120,       18.6052,        9.9080,      0.204102,     2382.8100
    1297.83807,       83.3125,      105.4380,       17.2690,        9.2850,      0.204590,     2380.8580
    1297.99047,       83.7500,      107.7500,       17.1967,        9.0504,      0.201660,     2365.2300
    1298.14287,       83.3125,      101.3120,       18.0124,        9.6622,      0.198730,     2365.2310
    1298.29527,       83.0000,      100.1250,       18.9268,       10.1049,      0.195802,     2378.9100
    1298.44767,       83.1250,      100.1250,       18.4786,        9.4210,      0.205565,     2378.9080
    1298.60007,       82.7500,       97.1250,       18.9080,        9.3140,      0.199707,     2361.3290
    1298.75247,       82.5000,       91.7500,       18.0513,        9.0162,      0.196777,     2345.7000
    1298.90487,       82.6250,       83.1250,       16.6533,        8.3576,      0.193848,     2347.6610
    1299.05727,       82.5000,       91.2500,       17.3275,        8.3778,      0.195312,     2351.5610
    1299.20967,       82.0625,      101.7500,       18.7037,        8.9143,      0.199707,     2355.4700
    1299.36207,       81.9375,      104.3120,       19.4358,        9.0715,      0.198242,     2361.3300
    1299.51447,       81.8125,      100.4380,       19.1034,        8.9854,      0.195312,     2359.3800
    1299.66687,       81.3750,       94.2500,       19.2805,        9.0953,      0.190429,     2357.4200
    1299.81927,       81.5625,       97.5000,       18.9909,        8.8362,      0.178712,     2357.4200
    1299.97167,       81.9375,      102.5000,       18.9373,        8.6444,      0.184570,     2363.2800
    1300.12407,       81.7500,      109.5620,       21.5760,        9.7166,      0.184572,     2365.2300
    1300.27647,       81.9375,      108.8750,       21.5749,        9.4168,      0.207031,     2365.2290
    1300.42887,       81.4375,      101.5000,       20.3605,        8.7733,      0.203124,     2361.3300
    1300.58127,       80.5000,       92.8750,       20.5302,        9.3251,      0.192381,     2361.3310
    1300.73367,       80.8125,       91.8125,       19.1621,        9.2288,      0.172363,     2367.1900
    1300.88607,       80.8125,       97.0625,       18.9900,        9.0371,      0.175294,     2369.1390
    1301.03847,       81.2500,      102.5000,       19.1984,        8.8514,      0.183594,     2367.1890
    1301.19087,       82.1250,      102.5000,       18.8428,        8.9418,      0.180664,     2361.3310
    1301.34327,       82.1250,      110.6880,       19.5631,        9.2923,      0.175782,     2369.1400
    1301.49567,       82.0625,      110.5000,       19.4834,        8.8338,      0.190918,     2376.9510
    1301.64807,       81.5625,      112.3750,       19.5297,        8.6243,      0.194823,     2386.7190
    1301.80047,       81.0000,      100.0000,       19.5434,        9.1969,      0.189451,     2382.8100
    1301.95287,       80.4375,       98.2500,       17.7002,        8.8122,      0.169922,     2384.7710
    1302.10527,       79.8750,       95.5000,       17.2594,        8.5906,      0.166504,     2394.5310
    1302.25767,       79.6875,      101.7500,       19.2457,        9.5477,      0.170899,     2404.3000
    1302.41007,       79.7500,      101.8120,       20.8452,       10.0734,      0.184084,     2402.3380
