~Version
VERS  .             3.0                                 : CWLS LOG ASCII STANDARD - VERSION 3.0
WRAP  .             NO                                  : One line per depth step
DLM   .             COMMA                               : Delimiter character between data columns
#Delimiting character ( SPACE TAB OR COMMA ).

~Well
#MNEM.UNIT          DATA                                DESCRIPTION
#----- ----        -----------------                   -----------
STRT  .M                  0.00000                       : FIRST INDEX VALUE
STOP  .M               1582.97839                       : LAST INDEX VALUE
STEP  .M                  0.15240                       : STEP OF INDEX
NULL  .             -999.25                             : NULL VALUE
COMP  .                                                 : COMPANY
WELL  .             CAPELLA                             : WELL
FLD   .                                                 : FIELD
LOC   .                                                 : LOCATION
SRVC  .                                                 : SERVICE COMPANY
CTRY  .                                                 : COUNTRY
PROV  .                                                 : PROVINCE
UWI   .                                                 : UNIQUE WELL ID
LIC   .                                                 : LICENSE NUMBER
STAT  .                                                 : STATE
CNTY  .                                                 : COUNTY
API   .                                                 : API NUMBER
DATE  .                                                 : LOG DATE
X     .             652954.2587678                      : X OR EAST-WEST COORDINATE
Y     .             8157948.019637                      : Y OR NORTH-SOUTH COORDINATE
HZCS  .                                                 : HORIZONTAL CO-ORDINATE SYSTEM
LATI  .             -16.65596527778                     : LATITUDE
LONG  .             154.4342336111                      : LONGITUDE
GDAT  .                                                 : GEODETIC DATUM

~TOPS_PARAMETER 
#MNEM.UNIT                    VALUE                        DESCRIPTION
#--------------- ---         ------------                 -----------------

~TOPS_DEFINITION 
#MNEM.UNIT                 LOG CODE                  CURVE DESCRIPTION
#----------- ----         ------------              -----------------
DEPTH       .M                                      :     {F}
TOPS        .                                       :     {S32}

~TOPS_DATA | TOPS_DEFINITION
        0.3137,Doyles Creek Subgroup           
      419.5846,Horseshoe Creek Subgroup        
      504.1290,Apple Tree Flat Subgroup        
      726.8617,Watts Sandstone                 
      738.3121,Denman Fm                       
      898.3032,Mt Leonard Fm                   
      989.4355,Althorpe Fm                     
      998.2193,Malabar Fm                      
     1041.0404,Mt Ogilvie Fm                   
     1082.3066,Milbrodale Fm                   
     1155.5439,Mt Thorley Fm                   
     1204.7961,Burnamwood Fm                   
     1307.8026,Archerfield Sandstone           
     1322.7503,Mulbring Siltstone              
     1398.0403,Muree Sandstone                 
     1503.9168,Branxton Fm                     
     1543.2168,Greta Coal Measures             
     1567.3323,Dalwood Group                   
     1583.1745,                                

~PARAMETER 
#MNEM.UNIT                    VALUE                        DESCRIPTION
#--------------- ---         ------------                 -----------------

~CURVE 
#MNEM.UNIT                 LOG CODE                  CURVE DESCRIPTION
#----------- ----         ------------              -----------------
DEPTH       .M                                      :     {F}
DT          .US/F                                   :     {F}
GR          .GAPI                                   :     {F}
LLD         .OHMM                                   :     {F}
LLS         .OHMM                                   :     {F}
NPHI        .V/V                                    :     {F}
RHOB        .K/M3                                   :     {F}

~ASCII | CURVE 
# ...
     281.63513,      141.0000,       74.8750,        1.7416,        1.6504,   -999.250000,     -999.2500
     281.78753,      141.2500,       75.9375,        1.7897,        1.6825,   -999.250000,     -999.2500
     281.93993,      140.7500,       73.0000,        1.8179,        1.7319,   -999.250000,     -999.2500
     282.09233,      139.0000,       68.9375,        1.8173,        1.6729,   -999.250000,     -999.2500
     282.24473,      135.6250,       69.6250,        1.7881,        1.6709,   -999.250000,     -999.2500
     282.39713,      135.1250,       66.3125,        1.8241,        1.6691,   -999.250000,     -999.2500
     282.54953,      135.1250,       70.5625,        1.8459,        1.6320,   -999.250000,     -999.2500
     282.70193,      136.2500,       69.1250,        1.8716,        1.6874,   -999.250000,     -999.2500
     282.85433,      138.5000,       72.5000,        1.9119,        1.7069,   -999.250000,     -999.2500
     283.00673,      136.6250,       68.2500,        1.9338,        1.7275,   -999.250000,     -999.2500
     283.15913,      134.5000,       68.2500,        1.9656,        1.7678,   -999.250000,     -999.2500
     283.31153,      131.3750,       68.5625,        1.9848,        1.7937,   -999.250000,     -999.2500
     283.46393,      131.2500,       72.3125,        2.0105,        1.8066,   -999.250000,     -999.2500
     283.61633,      131.8750,       69.1250,        1.9982,        1.7952,   -999.250000,     -999.2500
     283.76873,      132.8750,       67.7500,        1.9720,        1.8129,   -999.250000,     -999.2500
     283.92113,      133.5000,       67.0625,        1.9909,        1.7925,   -999.250000,     -999.2500
     284.07353,      131.6250,       68.2500,        1.9946,        1.8082,   -999.250000,     -999.2500
     284.22593,      132.6250,       66.6250,        1.9178,        1.7892,   -999.250000,     -999.2500
     284.37833,      134.1250,       66.0625,        1.8849,        1.7117,   -999.250000,     -999.2500
     284.53073,      136.7500,       68.1875,        1.7732,        1.6651,   -999.250000,     -999.2500
     284.68313,      137.6250,       70.0000,        1.7457,        1.6267,   -999.250000,     -999.2500
     284.83553,      139.3750,       71.4375,        1.7729,        1.6085,   -999.250000,     -999.2500
     284.98793,      138.6250,       73.0000,        1.8376,        1.7149,   -999.250000,     -999.2500
     285.14033,      147.7500,       72.7500,        1.8516,        1.7157,   -999.250000,     -999.2500
     285.29273,      139.6250,       74.0000,        1.7775,        1.6512,   -999.250000,     -999.2500
     285.44513,      142.2500,       72.3750,        1.7090,        1.6225,   -999.250000,     -999.2500
     285.59753,      145.0000,       69.8125,        1.6727,        1.5978,   -999.250000,     -999.2500
     285.74993,      146.3750,       67.1875,        1.6390,        1.5109,   -999.250000,     -999.2500
     285.90233,      145.8750,       68.8750,        1.6864,        1.5290,   -999.250000,     -999.2500
     286.05473,      143.8750,       72.5625,        1.7042,        1.5866,   -999.250000,     -999.2500
     286.20713,      142.6250,       70.8750,        1.7447,        1.6254,   -999.250000,     -999.2500
     286.35953,      142.8750,       70.0000,        1.7737,        1.6393,   -999.250000,     -999.2500
     286.51193,      141.8750,       73.1875,        1.8529,        1.7080,   -999.250000,     -999.2500
     286.66433,      139.3750,       73.5000,        1.8979,        1.7506,   -999.250000,     -999.2500
     286.81673,      136.8750,       72.3750,        1.9782,        1.7586,   -999.250000,     -999.2500
     286.96913,      136.1250,       69.9375,        1.9701,        1.7607,   -999.250000,     -999.2500
     287.12153,      134.7500,       74.0625,        1.9588,        1.7809,   -999.250000,     -999.2500
     287.27393,      134.8750,       73.8125,        1.9422,        1.8194,   -999.250000,     -999.2500
     287.42633,      135.8750,       72.6875,        1.9364,        1.8107,   -999.250000,     -999.2500
     287.57873,      150.2500,       70.3125,        1.9176,        1.8478,   -999.250000,     -999.2500
     287.73113,      150.7500,       72.3125,        1.9123,        1.8913,   -999.250000,     -999.2500
     287.88353,      131.2500,       73.5625,        1.8691,        1.8786,   -999.250000,     -999.2500
     288.03593,      147.6250,       71.6875,        1.6679,        1.6885,   -999.250000,     -999.2500
     288.18833,      156.7500,       71.2500,        1.4066,        1.4113,   -999.250000,     -999.2500
     288.34073,      153.7500,       70.5625,        1.2897,        1.2345,   -999.250000,     -999.2500
     288.49313,      156.8750,       72.3750,        1.2113,        1.1935,   -999.250000,     -999.2500
     288.64553,      154.0000,       70.5000,        1.3263,        1.2840,   -999.250000,     -999.2500
     288.79793,      144.2500,       73.7500,        1.5509,        1.4905,   -999.250000,     -999.2500
     288.95033,      137.6250,       73.5000,        1.9256,        1.8456,   -999.250000,     -999.2500
     289.10273,      133.1250,       70.6250,        2.1975,        2.1043,   -999.250000,     -999.2500
     289.25513,      135.5000,       66.5625,        2.2115,        2.0463,   -999.250000,     -999.2500
     289.40753,      136.2500,       63.9688,        2.2336,        2.0443,   -999.250000,     -999.2500
     289.55993,      134.0000,       64.8750,        2.2996,        2.0822,   -999.250000,     -999.2500
     289.71233,      130.2500,       65.4375,        2.3267,        2.0714,   -999.250000,     -999.2500
     289.86473,      123.3120,       69.6875,        2.4049,        2.1054,   -999.250000,     -999.2500
     290.01713,      108.2500,       70.8750,        2.7660,        2.4097,   -999.250000,     -999.2500
     290.16953,       91.7500,       66.2500,        3.5919,        3.1153,   -999.250000,     -999.2500
     290.32193,       77.1875,       59.3750,        4.3785,        3.8659,   -999.250000,     -999.2500
     290.47433,       71.7500,       56.4375,        5.3417,        4.5924,   -999.250000,     -999.2500
     290.62673,       71.1250,       57.1250,        4.4926,        4.0994,   -999.250000,     -999.2500
     290.77913,       74.6250,       57.2188,        3.3342,        3.1871,   -999.250000,     -999.2500
     290.93153,       86.0000,       61.2500,        2.6986,        2.6753,   -999.250000,     -999.2500
     291.08393,      102.5000,       60.5000,        2.4350,        2.4058,   -999.250000,     -999.2500
     291.23633,      114.7500,       63.5000,        2.3061,        2.2961,   -999.250000,     -999.2500
     291.38873,      127.4380,       61.1250,        2.2399,        2.2895,   -999.250000,     -999.2500
     291.54113,      129.7500,       65.3125,        2.2050,        2.2559,   -999.250000,     -999.2500
     291.69353,      142.7500,       63.2500,        2.1136,        2.1840,   -999.250000,     -999.2500
     291.84593,      134.3750,       65.3750,        2.0682,        2.0912,   -999.250000,     -999.2500
     291.99833,      136.5000,       61.7500,        1.9537,        1.9552,   -999.250000,     -999.2500
     292.15072,      138.1250,       61.0000,        2.0018,        1.9416,   -999.250000,     -999.2500
     292.30312,      139.1250,       60.2812,        2.0452,        2.0016,   -999.250000,     -999.2500
     292.45552,      141.6250,       62.9062,        2.1021,        2.0048,   -999.250000,     -999.2500
     292.60792,      143.1250,       65.1875,        2.2181,        2.1061,   -999.250000,     -999.2500
     292.76032,      141.2500,       66.0000,        2.2559,        2.1200,   -999.250000,     -999.2500
     292.91272,      139.6250,       67.7500,        2.2994,        2.1468,   -999.250000,     -999.2500
     293.06512,      137.2500,       67.6250,        2.3380,        2.1248,   -999.250000,     -999.2500
     293.21752,      134.0000,       69.0625,        2.2386,        1.9873,   -999.250000,     -999.2500
