~Version
VERS  .             3.0                                 : CWLS LOG ASCII STANDARD - VERSION 3.0
WRAP  .             NO                                  : One line per depth step
DLM   .             COMMA                               : Delimiter character between data columns
#Delimiting character ( SPACE TAB OR COMMA ).

~Well
#MNEM.UNIT          DATA                                DESCRIPTION
#----- ----        -----------------                   -----------
STRT  .M                  0.00000                       : FIRST INDEX VALUE
STOP  .M               1582.97839                       : LAST INDEX VALUE
STEP  .M                  0.15240                       : STEP OF INDEX
NULL  .             -999.25                             : NULL VALUE
COMP  .                                                 : COMPANY
WELL  .             CAPELLA                             : WELL
FLD   .                                                 : FIELD
LOC   .                                                 : LOCATION
SRVC  .                                                 : SERVICE COMPANY
CTRY  .                                                 : COUNTRY
PROV  .                                                 : PROVINCE
UWI   .                                                 : UNIQUE WELL ID
LIC   .                                                 : LICENSE NUMBER
STAT  .                                                 : STATE
CNTY  .                                                 : COUNTY
API   .                                                 : API NUMBER
DATE  .                                                 : LOG DATE
X     .             652954.2587678                      : X OR EAST-WEST COORDINATE
Y     .             8157948.019637                      : Y OR NORTH-SOUTH COORDINATE
HZCS  .                                                 : HORIZONTAL CO-ORDINATE SYSTEM
LATI  .             -16.65596527778                     : LATITUDE
LONG  .             154.4342336111                      : LONGITUDE
GDAT  .                                                 : GEODETIC DATUM

~TOPS_PARAMETER 
#MNEM.UNIT                    VALUE                        DESCRIPTION
#--------------- ---         ------------                 -----------------

~TOPS_DEFINITION 
#MNEM.UNIT                 LOG CODE                  CURVE DESCRIPTION
#----------- ----         ------------              -----------------
DEPTH       .M                                      :     {F}
TOPS        .                                       :     {S32}

~TOPS_DATA | TOPS_DEFINITION
        0.3137,Doyles Creek Subgroup           
      419.5846,Horseshoe Creek Subgroup        
      504.1290,Apple Tree Flat Subgroup        
      726.8617,Watts Sandstone                 
      738.3121,Denman Fm                       
      898.3032,Mt Leonard Fm                   
      989.4355,Althorpe Fm                     
      998.2193,Malabar Fm                      
     1041.0404,Mt Ogilvie Fm                   
     1082.3066,Milbrodale Fm                   
     1155.5439,Mt Thorley Fm                   
     1204.7961,Burnamwood Fm                   
     1307.8026,Archerfield Sandstone           
     1322.7503,Mulbring Siltstone              
     1398.0403,Muree Sandstone                 
     1503.9168,Branxton Fm                     
     1543.2168,Greta Coal Measures             
     1567.3323,Dalwood Group                   
     1583.1745,                                

~PARAMETER 
#MNEM.UNIT                    VALUE                        DESCRIPTION
#--------------- ---         ------------                 -----------------

~CURVE 
#MNEM.UNIT                 LOG CODE                  CURVE DESCRIPTION
#----------- ----         ------------              -----------------
DEPTH       .M                                      :     {F}
DT          .US/F                                   :     {F}
GR          .GAPI                                   :     {F}
LLD         .OHMM                                   :     {F}
LLS         .OHMM                                   :     {F}
NPHI        .V/V                                    :     {F}
RHOB        .K/M3                                   :     {F}

~ASCII | CURVE 
# ...
    1572.46280,       53.3125,       62.0000,       72.7580,       75.9948,      0.078125,     2773.4400
    1572.61520,       53.3125,       62.7500,       72.0080,       77.2218,      0.080078,     2773.4400
    1572.76760,       52.8750,       63.1250,       70.9411,       76.9389,      0.079590,     2755.8600
    1572.92000,       52.7500,       65.1875,       71.2607,       79.0831,      0.075684,     2744.1400
    1573.07240,       52.3750,       60.0000,       69.1756,       79.1370,      0.072266,     2750.0000
    1573.22480,       52.4375,       57.9062,       60.0826,       69.8337,      0.070801,     2750.0000
    1573.37720,       53.4375,       57.2188,       53.4352,       62.6796,      0.063965,     2757.8100
    1573.52960,       54.9375,       61.2188,       47.2529,       57.8078,      0.067383,     2750.0000
    1573.68200,       56.4375,       67.0000,       37.1476,       46.5286,      0.079102,     2761.7200
    1573.83440,       57.0000,       68.9375,       33.5324,       42.3234,      0.092773,     2751.9500
    1573.98680,       56.5000,       62.9688,       30.5559,       38.8937,      0.085938,     2732.4200
    1574.13920,       55.4375,       55.1562,       26.5936,       34.0042,      0.063477,     2710.9400
    1574.29160,       55.3125,       53.5312,       27.0517,       34.3548,      0.051758,     2740.2300
    1574.44400,       54.6250,       62.7500,       29.4576,       37.0774,      0.053223,     2757.8100
    1574.59640,       54.1250,       68.4375,       34.2902,       41.9921,      0.054688,     2753.9100
    1574.74880,       54.5625,       69.0625,       44.5137,       53.1104,      0.053711,     2755.8600
    1574.90120,       53.2500,       63.1250,       55.6671,       65.1977,      0.047852,     2779.3000
    1575.05360,       51.0625,       53.0312,       66.9722,       75.9391,      0.041016,     2806.6400
    1575.20600,       49.8750,       46.3125,       93.2689,      101.5920,      0.029785,     2816.4100
    1575.35840,       49.0000,       49.9375,      140.0320,      149.1140,      0.022461,     2794.9200
    1575.51080,       50.1875,       53.7188,      125.7770,      146.6890,      0.021973,     2775.3900
    1575.66320,       49.0000,       60.2812,      102.6020,      122.7640,      0.023438,     2769.5300
    1575.81560,       47.9375,       60.4062,      100.5940,      122.3040,      0.020019,     2796.8800
    1575.96800,       46.6250,       63.4375,       99.6850,      122.0630,      0.014160,     2843.7500
    1576.12040,       45.8125,       64.3750,      153.5400,      181.1510,      0.011230,     2869.1400
    1576.27280,       46.3125,       64.3125,      336.7490,      383.5240,      0.012695,     2849.6100
    1576.42520,       47.5625,       66.5625,      258.0850,      317.2690,      0.018066,     2826.1700
    1576.57760,       48.6875,       66.5000,      220.1930,      283.4960,      0.022461,     2806.6400
    1576.73000,       48.6875,       64.5625,      192.6950,      256.2100,      0.024902,     2814.4500
    1576.88240,       48.5625,       63.6562,      200.5940,      267.6090,      0.022949,     2824.2200
    1577.03480,       48.4375,       64.1250,      223.4180,      300.6120,      0.021484,     2820.3100
    1577.18720,       47.8125,       65.4375,      213.6420,      288.1060,      0.020508,     2814.4500
    1577.33960,       47.8750,       64.4375,      210.7260,      281.1430,      0.020996,     2820.3100
    1577.49199,       48.0000,       64.0000,      200.6130,      267.3110,      0.020508,     2835.9400
    1577.64439,       47.8125,       65.3750,      199.0670,      263.4050,      0.020996,     2835.9400
    1577.79679,       48.2500,       64.1250,      203.2540,      265.4550,      0.022461,     2824.2200
    1577.94919,       47.8125,       63.9375,      209.9110,      274.5200,      0.021484,     2808.5900
    1578.10159,       47.6875,       61.9062,      204.3020,      265.2660,      0.021484,     2808.5900
    1578.25399,       47.3125,       63.0312,      205.7200,      270.1340,      0.020508,     2816.4100
    1578.40639,       47.3750,       61.0938,      208.5360,      275.7300,      0.021973,     2810.5500
    1578.55879,       47.4375,       59.9062,      199.8010,      267.8770,      0.022461,     2814.4500
    1578.71119,       47.5625,       60.7812,      168.6450,      229.0390,      0.022949,     2820.3100
    1578.86359,       47.5000,       60.4375,      161.4950,      219.6320,      0.022461,     2830.0800
    1579.01599,       47.5000,       60.4688,      158.2430,      217.9070,      0.021973,     2832.0300
    1579.16839,       47.5000,       58.8125,      160.5360,      222.4810,      0.022949,     2828.1200
    1579.32079,       47.8750,       58.8125,      161.4780,      226.5390,      0.021484,     2822.2700
    1579.47319,       48.5000,       58.8125,      138.2210,      195.8790,      0.020996,     2826.1700
    1579.62559,       48.4375,       58.8125,      120.4510,      174.3670,      0.018555,     2830.0800
    1579.77799,       48.7500,       58.8125,      110.7840,      162.1590,      0.020019,     2828.1200
    1579.93039,       49.0625,       58.8125,      110.0730,      161.9320,      0.027832,     2818.3600
    1580.08279,       48.8125,       58.8125,      103.1400,      150.3270,      0.040527,     2808.5900
    1580.23519,       49.0625,       58.8125,       91.9818,      131.7590,      0.052246,     2806.6400
    1580.38759,       49.4375,       58.8125,      101.4740,      146.3020,      0.052246,     2802.7300
    1580.53999,       49.6875,       58.8125,       89.7003,      127.3010,      0.052246,     2800.7800
    1580.69239,       49.8750,       58.8125,       86.1909,      120.6770,      0.052246,     2787.1100
    1580.84479,       50.5625,       58.8125,       87.5087,      122.5160,      0.052734,     2775.3900
    1580.99719,       51.1875,       58.8125,       87.4632,      122.8550,      0.052734,     2765.6200
    1581.14959,       51.4375,       58.8125,       87.7126,      122.8370,      0.052734,     2769.5300
    1581.30199,       52.1875,       58.8125,       87.7818,      123.0630,      0.053223,     2771.4800
    1581.45439,       52.8750,       58.8125,       87.7677,      123.2360,      0.053223,     2765.6200
    1581.60679,       52.0625,       58.8125,       87.8774,      123.1770,      0.053223,     2759.7700
    1581.75919,       51.7500,       58.8125,       87.7582,      123.5240,      0.053223,     2750.0000
    1581.91159,       51.9375,       58.8125,       87.9044,      123.2730,      0.053223,     2750.0000
    1582.06399,       52.3125,       58.8125,       87.8468,      123.2890,      0.053223,     2744.1400
    1582.21639,       51.6250,       58.8125,       87.8600,      123.4780,      0.053223,     2751.9500
    1582.36879,       51.8750,       58.8125,       87.8733,      123.2610,      0.053711,     2746.0900
    1582.52119,       53.8125,       58.8125,       87.8894,      123.3270,      0.053223,     2765.6200
    1582.67359,       50.8750,       58.8125,       87.8050,      123.4970,      0.053223,     2781.2500
    1582.82599,       50.1875,       58.8125,       87.8327,      123.4420,      0.053711,     2791.0200
    1582.97839,       50.3125,       58.8125,       87.8090,      123.5780,      0.054688,     2791.0200
