~Version
VERS  .             3.0                                 : CWLS LOG ASCII STANDARD - VERSION 3.0
WRAP  .             NO                                  : One line per depth step
DLM   .             COMMA                               : Delimiter character between data columns
#Delimiting character ( SPACE TAB OR COMMA ).

~Well
#MNEM.UNIT          DATA                                DESCRIPTION
#----- ----        -----------------                   -----------
STRT  .M                  0.00000                       : FIRST INDEX VALUE
STOP  .M               1582.97839                       : LAST INDEX VALUE
STEP  .M                  0.15240                       : STEP OF INDEX
NULL  .             -999.25                             : NULL VALUE
COMP  .                                                 : COMPANY
WELL  .             CAPELLA                             : WELL
FLD   .                                                 : FIELD
LOC   .                                                 : LOCATION
SRVC  .                                                 : SERVICE COMPANY
CTRY  .                                                 : COUNTRY
PROV  .                                                 : PROVINCE
UWI   .                                                 : UNIQUE WELL ID
LIC   .                                                 : LICENSE NUMBER
STAT  .                                                 : STATE
CNTY  .                                                 : COUNTY
API   .                                                 : API NUMBER
DATE  .                                                 : LOG DATE
X     .             652954.2587678                      : X OR EAST-WEST COORDINATE
Y     .             8157948.019637                      : Y OR NORTH-SOUTH COORDINATE
HZCS  .                                                 : HORIZONTAL CO-ORDINATE SYSTEM
LATI  .             -16.65596527778                     : LATITUDE
LONG  .             154.4342336111                      : LONGITUDE
GDAT  .                                                 : GEODETIC DATUM

~TOPS_PARAMETER 
#MNEM.UNIT                    VALUE                        DESCRIPTION
#--------------- ---         ------------                 -----------------

~TOPS_DEFINITION 
#MNEM.UNIT                 LOG CODE                  CURVE DESCRIPTION
#----------- ----         ------------              -----------------
DEPTH       .M                                      :     {F}
TOPS        .                                       :     {S32}

~TOPS_DATA | TOPS_DEFINITION
        0.3137,Doyles Creek Subgroup           
      419.5846,Horseshoe Creek Subgroup        
      504.1290,Apple Tree Flat Subgroup        
      726.8617,Watts Sandstone                 
      738.3121,Denman Fm                       
      898.3032,Mt Leonard Fm                   
      989.4355,Althorpe Fm                     
      998.2193,Malabar Fm                      
     1041.0404,Mt Ogilvie Fm                   
     1082.3066,Milbrodale Fm                   
     1155.5439,Mt Thorley Fm                   
     1204.7961,Burnamwood Fm                   
     1307.8026,Archerfield Sandstone           
     1322.7503,Mulbring Siltstone              
     1398.0403,Muree Sandstone                 
     1503.9168,Branxton Fm                     
     1543.2168,Greta Coal Measures             
     1567.3323,Dalwood Group                   
     1583.1745,                                

~PARAMETER 
#MNEM.UNIT                    VALUE                        DESCRIPTION
#--------------- ---         ------------                 -----------------

~CURVE 
#MNEM.UNIT                 LOG CODE                  CURVE DESCRIPTION
#----------- ----         ------------              -----------------
DEPTH       .M                                      :     {F}
DT          .US/F                                   :     {F}
GR          .GAPI                                   :     {F}
LLD         .OHMM                                   :     {F}
LLS         .OHMM                                   :     {F}
NPHI        .V/V                                    :     {F}
RHOB        .K/M3                                   :     {F}

~ASCII | CURVE 
# ...
     645.41383,      143.0000,       89.6250,        1.3824,        1.5128,   -999.250000,     -999.2500
     645.56623,      142.2500,       86.3750,        1.4200,        1.5698,   -999.250000,     -999.2500
     645.71863,      142.3750,       87.6250,        1.4528,        1.5966,   -999.250000,     -999.2500
     645.87103,      141.6250,       84.4375,        1.4840,        1.6576,   -999.250000,     -999.2500
     646.02343,      140.5000,       84.9375,        1.5065,        1.7088,   -999.250000,     -999.2500
     646.17583,      139.3750,       80.5000,        1.5239,        1.6853,   -999.250000,     -999.2500
     646.32823,      141.2500,       79.4375,        1.4970,        1.6556,   -999.250000,     -999.2500
     646.48063,      142.2500,       79.7500,        1.4437,        1.5853,   -999.250000,     -999.2500
     646.63303,      144.0000,       84.2500,        1.3301,        1.4825,   -999.250000,     -999.2500
     646.78543,      145.1250,       86.0000,        1.2985,        1.4822,   -999.250000,     -999.2500
     646.93783,      144.5000,       87.0625,        1.3464,        1.4847,   -999.250000,     -999.2500
     647.09023,      144.0000,       85.6875,        1.3697,        1.5300,   -999.250000,     -999.2500
     647.24263,      143.1250,       85.6875,        1.4044,        1.5553,   -999.250000,     -999.2500
     647.39503,      142.3750,       86.2500,        1.4382,        1.6157,   -999.250000,     -999.2500
     647.54743,      142.8750,       86.0000,        1.4231,        1.5857,   -999.250000,     -999.2500
     647.69983,      142.5000,       83.6250,        1.4358,        1.6317,   -999.250000,     -999.2500
     647.85223,      142.3750,       86.3750,        1.4484,        1.6086,   -999.250000,     -999.2500
     648.00463,      141.8750,       87.2500,        1.4506,        1.6238,   -999.250000,     -999.2500
     648.15703,      141.5000,       91.0000,        1.4877,        1.6681,   -999.250000,     -999.2500
     648.30943,      140.5000,       89.4375,        1.5069,        1.6673,   -999.250000,     -999.2500
     648.46183,      140.0000,       87.3750,        1.5056,        1.6946,   -999.250000,     -999.2500
     648.61423,      141.0000,       86.6250,        1.4764,        1.6609,   -999.250000,     -999.2500
     648.76663,      143.0000,       86.4375,        1.4531,        1.6350,   -999.250000,     -999.2500
     648.91903,      143.6250,       89.0625,        1.4716,        1.6489,   -999.250000,     -999.2500
     649.07143,      141.7500,       86.8750,        1.5929,        1.7514,   -999.250000,     -999.2500
     649.22383,      139.6250,       85.1875,        1.6524,        1.8254,   -999.250000,     -999.2500
     649.37623,      138.3750,       85.0000,        1.7147,        1.9159,   -999.250000,     -999.2500
     649.52863,      138.1250,       87.3750,        1.7348,        1.9282,   -999.250000,     -999.2500
     649.68103,      139.8750,       92.9375,        1.5878,        1.8470,   -999.250000,     -999.2500
     649.83343,      142.5000,       93.7500,        1.5106,        1.7542,   -999.250000,     -999.2500
     649.98583,      143.1250,       93.4375,        1.5054,        1.7393,   -999.250000,     -999.2500
     650.13823,      142.2500,       92.1875,        1.5284,        1.7658,   -999.250000,     -999.2500
     650.29063,      141.5000,       87.2500,        1.5923,        1.8159,   -999.250000,     -999.2500
     650.44303,      141.2500,       88.3125,        1.5801,        1.7907,   -999.250000,     -999.2500
     650.59543,      141.7500,       86.1250,        1.5889,        1.8035,   -999.250000,     -999.2500
     650.74783,      142.0000,       91.1875,        1.5319,        1.7212,   -999.250000,     -999.2500
     650.90023,      142.3750,       92.0625,        1.5128,        1.7067,   -999.250000,     -999.2500
     651.05263,      142.7500,       90.6875,        1.5216,        1.6902,   -999.250000,     -999.2500
     651.20503,      143.1250,       86.0625,        1.4826,        1.7355,   -999.250000,     -999.2500
     651.35743,      142.3750,       84.8125,        1.5212,        1.7411,   -999.250000,     -999.2500
     651.50983,      140.8750,       87.3750,        1.5631,        1.7935,   -999.250000,     -999.2500
     651.66223,      140.5000,       89.8750,        1.6203,        1.7901,   -999.250000,     -999.2500
     651.81463,      140.7500,       90.9375,        1.6139,        1.8345,   -999.250000,     -999.2500
     651.96703,      138.2500,       87.0625,        1.6088,        1.8221,   -999.250000,     -999.2500
     652.11943,      138.2500,       86.1875,        1.5602,        1.7842,   -999.250000,     -999.2500
     652.27183,      138.8750,       81.5000,        1.6146,        1.8310,   -999.250000,     -999.2500
     652.42423,      139.7500,       84.1875,        1.6039,        1.7681,   -999.250000,     -999.2500
     652.57663,      138.5000,       86.0625,        1.5843,        1.7971,   -999.250000,     -999.2500
     652.72903,      137.1250,       86.8125,        1.6732,        1.8738,   -999.250000,     -999.2500
     652.88143,      137.8750,       85.7500,        1.6780,        1.8694,   -999.250000,     -999.2500
     653.03383,      137.8750,       80.3750,        1.7088,        1.9198,   -999.250000,     -999.2500
     653.18623,      136.8750,       78.0000,        1.7855,        1.9897,   -999.250000,     -999.2500
     653.33863,      137.0000,       79.5625,        1.7636,        1.9883,   -999.250000,     -999.2500
     653.49103,      137.2500,       85.4375,        1.7178,        1.9389,   -999.250000,     -999.2500
     653.64343,      137.6250,       88.2500,        1.7045,        1.9062,   -999.250000,     -999.2500
     653.79583,      138.7500,       88.5000,        1.6039,        1.8363,   -999.250000,     -999.2500
     653.94823,      141.1250,       87.0000,        1.5299,        1.7571,   -999.250000,     -999.2500
     654.10063,      141.0000,       85.6250,        1.5276,        1.7766,   -999.250000,     -999.2500
     654.25303,      140.5000,       87.1875,        1.5898,        1.7697,   -999.250000,     -999.2500
     654.40543,      141.1250,       87.1250,        1.5972,        1.7871,   -999.250000,     -999.2500
     654.55783,      140.5000,       89.5625,        1.5608,        1.7374,   -999.250000,     -999.2500
     654.71023,      140.5000,       88.8750,        1.4999,        1.6776,   -999.250000,     -999.2500
     654.86263,      141.3750,       89.1875,        1.4962,        1.6929,   -999.250000,     -999.2500
     655.01503,      141.5000,       88.0625,        1.4734,        1.6900,   -999.250000,     -999.2500
     655.16743,      141.3750,       87.0000,        1.4513,        1.6535,   -999.250000,     -999.2500
     655.31983,      141.8750,       86.6250,        1.5290,        1.6565,   -999.250000,     -999.2500
     655.47223,      142.8750,       85.5000,        1.4788,        1.6781,   -999.250000,     -999.2500
     655.62463,      142.1250,       84.5000,        1.4693,        1.6503,   -999.250000,     -999.2500
     655.77703,      140.6250,       82.0000,        1.4844,        1.6439,   -999.250000,     -999.2500
     655.92943,      141.8750,       82.7500,        1.4314,        1.6465,   -999.250000,     -999.2500
     656.08183,      144.2500,       79.1250,        1.3657,        1.5561,   -999.250000,     -999.2500
     656.23423,      144.6250,       82.3125,        1.3810,        1.5321,   -999.250000,     -999.2500
     656.38663,      144.7500,       80.0625,        1.3619,        1.5183,   -999.250000,     -999.2500
     656.53903,      143.5000,       82.4375,        1.3992,        1.5621,   -999.250000,     -999.2500
     656.69143,      142.3750,       79.6875,        1.4268,        1.6058,   -999.250000,     -999.2500
     656.84383,      143.7500,       81.5625,        1.3791,        1.5609,   -999.250000,     -999.2500
     656.99623,      145.3750,       83.8125,        1.3778,        1.5494,   -999.250000,     -999.2500
