~Version
VERS  .             3.0                                 : CWLS LOG ASCII STANDARD - VERSION 3.0
WRAP  .             NO                                  : One line per depth step
DLM   .             COMMA                               : Delimiter character between data columns
#Delimiting character ( SPACE TAB OR COMMA ).

~Well
#MNEM.UNIT          DATA                                DESCRIPTION
#----- ----        -----------------                   -----------
STRT  .M                  0.00000                       : FIRST INDEX VALUE
STOP  .M               1582.97839                       : LAST INDEX VALUE
STEP  .M                  0.15240                       : STEP OF INDEX
NULL  .             -999.25                             : NULL VALUE
COMP  .                                                 : COMPANY
WELL  .             CAPELLA                             : WELL
FLD   .                                                 : FIELD
LOC   .                                                 : LOCATION
SRVC  .                                                 : SERVICE COMPANY
CTRY  .                                                 : COUNTRY
PROV  .                                                 : PROVINCE
UWI   .                                                 : UNIQUE WELL ID
LIC   .                                                 : LICENSE NUMBER
STAT  .                                                 : STATE
CNTY  .                                                 : COUNTY
API   .                                                 : API NUMBER
DATE  .                                                 : LOG DATE
X     .             652954.2587678                      : X OR EAST-WEST COORDINATE
Y     .             8157948.019637                      : Y OR NORTH-SOUTH COORDINATE
HZCS  .                                                 : HORIZONTAL CO-ORDINATE SYSTEM
LATI  .             -16.65596527778                     : LATITUDE
LONG  .             154.4342336111                      : LONGITUDE
GDAT  .                                                 : GEODETIC DATUM

~TOPS_PARAMETER 
#MNEM.UNIT                    VALUE                        DESCRIPTION
#--------------- ---         ------------                 -----------------

~TOPS_DEFINITION 
#MNEM.UNIT                 LOG CODE                  CURVE DESCRIPTION
#----------- ----         ------------              -----------------
DEPTH       .M                                      :     {F}
TOPS        .                                       :     {S32}

~TOPS_DATA | TOPS_DEFINITION
        0.3137,Doyles Creek Subgroup           
      419.5846,Horseshoe Creek Subgroup        
      504.1290,Apple Tree Flat Subgroup        
      726.8617,Watts Sandstone                 
      738.3121,Denman Fm                       
      898.3032,Mt Leonard Fm                   
      989.4355,Althorpe Fm                     
      998.2193,Malabar Fm                      
     1041.0404,Mt Ogilvie Fm                   
     1082.3066,Milbrodale Fm                   
     1155.5439,Mt Thorley Fm                   
     1204.7961,Burnamwood Fm                   
     1307.8026,Archerfield Sandstone           
     1322.7503,Mulbring Siltstone              
     1398.0403,Muree Sandstone                 
     1503.9168,Branxton Fm                     
     1543.2168,Greta Coal Measures             
     1567.3323,Dalwood Group                   
     1583.1745,                                

~PARAMETER 
#MNEM.UNIT                    VALUE                        DESCRIPTION
#--------------- ---         ------------                 -----------------

~CURVE 
#MNEM.UNIT                 LOG CODE                  CURVE DESCRIPTION
#----------- ----         ------------              -----------------
DEPTH       .M                                      :     {F}
DT          .US/F                                   :     {F}
GR          .GAPI                                   :     {F}
LLD         .OHMM                                   :     {F}
LLS         .OHMM                                   :     {F}
NPHI        .V/V                                    :     {F}
RHOB        .K/M3                                   :     {F}

~ASCII | CURVE 
# ...
    1478.58442,       79.1250,       96.5625,       31.5990,       17.5579,      0.196777,     2400.3920
    1478.73682,       76.9375,      109.0620,       33.9299,       18.4361,      0.205566,     2468.7510
    1478.88922,       75.0625,      122.8750,       42.6582,       24.7974,      0.203125,     2509.7710
    1479.04162,       74.7500,      136.1250,       45.8491,       29.5239,      0.194824,     2535.1600
    1479.19402,       75.7500,      132.0000,       43.2681,       26.5408,      0.198242,     2519.5280
    1479.34642,       77.5625,      112.2500,       26.5510,       12.8452,      0.206543,     2460.9380
    1479.49882,       79.5625,       86.2500,       17.8084,        8.7560,      0.207520,     2398.4380
    1479.65122,       80.7500,       62.9375,       13.4675,        7.0738,      0.199218,     2353.5200
    1479.80362,       80.8125,       64.1875,       11.4759,        6.3077,      0.185059,     2337.8900
    1479.95602,       79.7500,       62.2500,       12.3943,        6.7615,      0.182617,     2339.8410
    1480.10842,       79.0000,       65.3125,       14.7440,        7.8954,      0.180176,     2357.4210
    1480.26082,       78.2500,       60.0000,       18.2681,        9.1307,      0.174316,     2378.9100
    1480.41322,       78.0625,       62.9062,       21.4335,        9.3547,      0.160644,     2388.6700
    1480.56562,       78.1250,       62.1562,       24.3527,        9.3849,      0.145996,     2394.5290
    1480.71802,       77.8750,       64.6250,       26.7510,        8.8734,      0.145996,     2382.8100
    1480.87042,       78.7500,       64.3125,       26.8902,        7.8966,      0.146484,     2380.8590
    1481.02282,       78.6875,       62.3438,       26.5975,        7.6157,      0.155762,     2363.2800
    1481.17522,       78.9375,       58.8750,       24.6475,        7.5569,      0.156739,     2365.2300
    1481.32762,       79.0000,       57.4688,       23.2486,        7.5383,      0.172852,     2361.3300
    1481.48002,       78.7500,       58.8125,       23.6247,        7.5815,      0.167480,     2359.3790
    1481.63242,       79.0625,       57.6875,       24.5853,        7.4209,      0.163574,     2347.6600
    1481.78482,       78.9375,       58.2188,       26.5117,        7.5034,      0.152832,     2339.8400
    1481.93722,       79.0000,       55.6250,       26.7161,        7.3085,      0.153809,     2351.5610
    1482.08962,       79.0625,       56.5938,       26.7382,        7.2635,      0.159180,     2363.2800
    1482.24202,       78.6875,       56.1562,       26.7514,        7.3207,      0.155273,     2367.1900
    1482.39442,       78.6250,       58.4062,       26.5502,        7.5424,      0.160156,     2359.3800
    1482.54682,       78.3125,       61.2812,       26.5375,        7.7356,      0.159668,     2357.4200
    1482.69922,       78.5000,       62.3438,       26.7186,        7.7091,      0.159668,     2361.3300
    1482.85162,       78.4375,       64.1250,       27.7113,        7.7566,      0.156738,     2363.2800
    1483.00402,       78.5000,       62.4062,       27.9290,        7.6535,      0.150391,     2355.4690
    1483.15642,       78.9375,       65.3750,       27.7574,        7.5740,      0.157227,     2351.5600
    1483.30882,       78.8750,       67.6875,       27.7968,        7.6506,      0.153809,     2351.5600
    1483.46122,       79.1250,       67.0000,       26.5965,        7.5187,      0.156738,     2361.3300
    1483.61362,       78.8125,       60.2500,       26.7497,        7.7083,      0.153320,     2359.3800
    1483.76602,       78.6875,       58.5625,       26.8941,        7.9537,      0.155762,     2373.0500
    1483.91842,       78.5625,       58.5312,       26.3443,        7.8765,      0.158691,     2371.0900
    1484.07082,       78.0625,       63.5000,       27.0123,        8.0982,      0.152344,     2380.8590
    1484.22322,       78.1250,       66.8750,       27.2915,        8.0625,      0.148438,     2365.2300
    1484.37562,       78.0000,       67.6875,       26.2400,        7.7481,      0.147461,     2365.2290
    1484.52802,       78.4375,       64.6875,       26.2930,        7.7478,      0.156738,     2353.5200
    1484.68042,       78.1250,       58.9062,       26.5127,        7.8098,      0.160156,     2355.4690
    1484.83282,       78.4375,       56.3750,       25.7873,        7.5846,      0.162109,     2347.6600
    1484.98522,       78.2500,       54.0312,       26.4656,        7.6795,      0.160156,     2353.5200
    1485.13762,       77.9375,       55.9375,       26.7401,        7.8361,      0.165039,     2355.4700
    1485.29002,       78.0000,       58.8125,       26.8588,        7.7749,      0.163574,     2378.9100
    1485.44242,       77.9375,       65.8750,       27.4996,        7.7789,      0.157227,     2386.7200
    1485.59482,       77.5000,       68.1875,       27.9389,        7.7366,      0.147949,     2386.7190
    1485.74722,       77.3125,       67.1875,       27.9530,        7.8467,      0.134277,     2375.0000
    1485.89962,       77.2500,       63.8438,       27.9356,        7.9341,      0.131348,     2378.9100
    1486.05202,       77.5000,       62.0000,       27.7874,        7.8356,      0.129883,     2378.9100
    1486.20442,       77.5000,       61.8438,       27.8609,        7.8742,      0.139160,     2378.9100
    1486.35682,       77.5625,       64.3125,       26.1719,        7.5811,      0.152832,     2371.0900
    1486.50922,       77.6875,       59.9062,       25.1200,        7.5282,      0.161133,     2367.1900
    1486.66162,       77.2500,       60.5938,       25.3881,        7.5938,      0.166992,     2367.1900
    1486.81402,       77.3750,       58.8750,       26.0998,        7.6167,      0.153320,     2373.0500
    1486.96642,       77.4375,       58.9375,       28.4744,        8.0851,      0.147949,     2373.0500
    1487.11882,       77.3125,       58.5625,       29.7396,        8.2935,      0.143555,     2373.0500
    1487.27122,       78.0000,       59.2188,       29.1598,        8.1663,      0.151367,     2363.2800
    1487.42362,       77.8125,       59.2188,       29.0544,        8.1849,      0.157227,     2357.4200
    1487.57602,       77.7500,       62.5625,       28.8384,        8.1642,      0.152832,     2351.5600
    1487.72842,       77.5000,       61.5625,       29.2828,        8.3112,      0.148438,     2347.6600
    1487.88082,       77.3125,       62.5938,       29.7376,        8.5835,      0.150391,     2357.4200
    1488.03322,       77.1250,       54.8438,       29.2339,        8.7271,      0.152344,     2363.2800
    1488.18562,       77.6250,       53.7500,       28.0134,        8.6771,      0.154785,     2361.3300
    1488.33802,       77.6250,       59.1250,       26.6548,        8.4952,      0.152344,     2371.0900
    1488.49042,       78.3125,       70.2500,       25.5639,        8.3249,      0.153320,     2402.3400
    1488.64282,       78.6875,       76.5000,       25.4753,        8.4037,      0.151855,     2427.7300
    1488.79522,       78.9375,       79.1875,       26.0613,        8.6665,      0.147949,     2433.5900
    1488.94762,       79.2500,       75.8125,       26.2978,        8.8779,      0.152832,     2390.6200
    1489.10002,       79.8125,       71.5625,       25.9998,        9.1220,      0.162109,     2382.8100
    1489.25242,       79.6250,       67.6875,       25.3193,        9.4268,      0.166504,     2365.2300
    1489.40482,       79.9375,       71.6250,       24.8222,        9.4795,      0.166504,     2375.0000
    1489.55722,       79.3125,       77.4375,       25.4864,        9.6760,      0.163086,     2371.0900
    1489.70962,       79.1875,       80.7500,       27.5479,       10.3141,      0.170410,     2378.9100
    1489.86202,       79.0625,       76.1875,       29.6611,       11.0424,      0.180664,     2380.8600
    1490.01442,       79.0000,       75.1875,       31.3809,       11.6236,      0.183105,     2398.4400
    1490.16682,       79.1250,       75.5625,       32.3714,       12.0304,      0.180176,     2402.3400
