~Version
VERS  .             3.0                                 : CWLS LOG ASCII STANDARD - VERSION 3.0
WRAP  .             NO                                  : One line per depth step
DLM   .             COMMA                               : Delimiter character between data columns
#Delimiting character ( SPACE TAB OR COMMA ).

~Well
#MNEM.UNIT          DATA                                DESCRIPTION
#----- ----        -----------------                   -----------
STRT  .M                  0.00000                       : FIRST INDEX VALUE
STOP  .M               1582.97839                       : LAST INDEX VALUE
STEP  .M                  0.15240                       : STEP OF INDEX
NULL  .             -999.25                             : NULL VALUE
COMP  .                                                 : COMPANY
WELL  .             CAPELLA                             : WELL
FLD   .                                                 : FIELD
LOC   .                                                 : LOCATION
SRVC  .                                                 : SERVICE COMPANY
CTRY  .                                                 : COUNTRY
PROV  .                                                 : PROVINCE
UWI   .                                                 : UNIQUE WELL ID
LIC   .                                                 : LICENSE NUMBER
STAT  .                                                 : STATE
CNTY  .                                                 : COUNTY
API   .                                                 : API NUMBER
DATE  .                                                 : LOG DATE
X     .             652954.2587678                      : X OR EAST-WEST COORDINATE
Y     .             8157948.019637                      : Y OR NORTH-SOUTH COORDINATE
HZCS  .                                                 : HORIZONTAL CO-ORDINATE SYSTEM
LATI  .             -16.65596527778                     : LATITUDE
LONG  .             154.4342336111                      : LONGITUDE
GDAT  .                                                 : GEODETIC DATUM

~TOPS_PARAMETER 
#MNEM.UNIT                    VALUE                        DESCRIPTION
#--------------- ---         ------------                 -----------------

~TOPS_DEFINITION 
#MNEM.UNIT                 LOG CODE                  CURVE DESCRIPTION
#----------- ----         ------------              -----------------
DEPTH       .M                                      :     {F}
TOPS        .                                       :     {S32}

~TOPS_DATA | TOPS_DEFINITION
        0.3137,Doyles Creek Subgroup           
      419.5846,Horseshoe Creek Subgroup        
      504.1290,Apple Tree Flat Subgroup        
      726.8617,Watts Sandstone                 
      738.3121,Denman Fm                       
      898.3032,Mt Leonard Fm                   
      989.4355,Althorpe Fm                     
      998.2193,Malabar Fm                      
     1041.0404,Mt Ogilvie Fm                   
     1082.3066,Milbrodale Fm                   
     1155.5439,Mt Thorley Fm                   
     1204.7961,Burnamwood Fm                   
     1307.8026,Archerfield Sandstone           
     1322.7503,Mulbring Siltstone              
     1398.0403,Muree Sandstone                 
     1503.9168,Branxton Fm                     
     1543.2168,Greta Coal Measures             
     1567.3323,Dalwood Group                   
     1583.1745,                                

~PARAMETER 
#MNEM.UNIT                    VALUE                        DESCRIPTION
#--------------- ---         ------------                 -----------------

~CURVE 
#MNEM.UNIT                 LOG CODE                  CURVE DESCRIPTION
#----------- ----         ------------              -----------------
DEPTH       .M                                      :     {F}
DT          .US/F                                   :     {F}
GR          .GAPI                                   :     {F}
LLD         .OHMM                                   :     {F}
LLS         .OHMM                                   :     {F}
NPHI        .V/V                                    :     {F}
RHOB        .K/M3                                   :     {F}

~ASCII | CURVE 
# ...
     375.51350,      119.1250,       82.5625,        1.8405,        1.3601,   -999.250000,     -999.2500
     375.66590,      119.0000,       83.0625,        1.9114,        1.3095,   -999.250000,     -999.2500
     375.81830,       99.0625,       82.3750,        1.9304,        1.2886,   -999.250000,     -999.2500
     375.97070,      117.8120,       83.9375,        1.9131,        1.2629,   -999.250000,     -999.2500
     376.12310,      119.4380,       81.1250,        1.8834,        1.2466,   -999.250000,     -999.2500
     376.27550,      118.3750,       81.3125,        2.0275,        1.3184,   -999.250000,     -999.2500
     376.42790,      121.2500,       83.7500,        2.1872,        1.3863,   -999.250000,     -999.2500
     376.58030,      117.7500,       85.4375,        2.3573,        1.4307,   -999.250000,     -999.2500
     376.73270,      115.8120,       79.6250,        2.4092,        1.4725,   -999.250000,     -999.2500
     376.88510,      115.5620,       76.3750,        2.2925,        1.4385,   -999.250000,     -999.2500
     377.03750,      103.3750,       77.0625,        2.1680,        1.3918,   -999.250000,     -999.2500
     377.18990,      116.1250,       79.0625,        2.0943,        1.3176,   -999.250000,     -999.2500
     377.34230,      112.3750,       80.4375,        2.0689,        1.2781,   -999.250000,     -999.2500
     377.49470,      110.0000,       77.7500,        2.1222,        1.2987,   -999.250000,     -999.2500
     377.64710,      139.5000,       80.5625,        2.1155,        1.2824,   -999.250000,     -999.2500
     377.79950,      145.1250,       81.0000,        2.0124,        1.2044,   -999.250000,     -999.2500
     377.95190,      150.7500,       84.6875,        2.0454,        1.2305,   -999.250000,     -999.2500
     378.10430,      152.6250,       81.1250,        2.2674,        1.3586,   -999.250000,     -999.2500
     378.25670,      152.6250,       81.2500,        2.7582,        1.6444,   -999.250000,     -999.2500
     378.40910,      153.5000,       77.1875,        3.0699,        1.7153,   -999.250000,     -999.2500
     378.56150,      153.6250,       79.1250,        2.9489,        1.6753,   -999.250000,     -999.2500
     378.71390,      153.2500,       78.4375,        2.5300,        1.4962,   -999.250000,     -999.2500
     378.86630,      153.2500,       81.4375,        2.0732,        1.2563,   -999.250000,     -999.2500
     379.01870,      151.8750,       78.1250,        2.0798,        1.2248,   -999.250000,     -999.2500
     379.17110,      151.3750,       78.0625,        2.1723,        1.3051,   -999.250000,     -999.2500
     379.32350,      151.2500,       75.1875,        2.3358,        1.3473,   -999.250000,     -999.2500
     379.47590,      151.5000,       79.2500,        2.4383,        1.4004,   -999.250000,     -999.2500
     379.62830,      153.0000,       80.0625,        2.4128,        1.4088,   -999.250000,     -999.2500
     379.78070,      154.6250,       83.6875,        2.4293,        1.3871,   -999.250000,     -999.2500
     379.93310,      154.5000,       80.8125,        2.4922,        1.4417,   -999.250000,     -999.2500
     380.08550,      153.7500,       77.1875,        2.4936,        1.4552,   -999.250000,     -999.2500
     380.23790,      153.3750,       76.3750,        2.4535,        1.4143,   -999.250000,     -999.2500
     380.39030,      152.8750,       78.2500,        2.3605,        1.4041,   -999.250000,     -999.2500
     380.54270,      153.7500,       78.7500,        2.3056,        1.4002,   -999.250000,     -999.2500
     380.69510,      155.6250,       79.0625,        2.2397,        1.3858,   -999.250000,     -999.2500
     380.84750,      157.1250,       78.5625,        2.1490,        1.3626,   -999.250000,     -999.2500
     380.99990,      158.5000,       81.4375,        2.0422,        1.2889,   -999.250000,     -999.2500
     381.15230,      158.1250,       76.3125,        2.0215,        1.3186,   -999.250000,     -999.2500
     381.30470,      157.6250,       75.8750,        1.9192,        1.2508,   -999.250000,     -999.2500
     381.45710,      159.0000,       73.5000,        1.9028,        1.2478,   -999.250000,     -999.2500
     381.60950,      160.7500,       77.0000,        1.9373,        1.2635,   -999.250000,     -999.2500
     381.76190,      162.8750,       79.6250,        1.9037,        1.2496,   -999.250000,     -999.2500
     381.91430,      164.8750,       81.1250,        1.8516,        1.2546,   -999.250000,     -999.2500
     382.06670,      165.1250,       82.3750,        1.7977,        1.2044,   -999.250000,     -999.2500
     382.21910,      165.1250,       79.6250,        1.8077,        1.2124,   -999.250000,     -999.2500
     382.37150,      164.1250,       80.5000,        1.7380,        1.1734,   -999.250000,     -999.2500
     382.52390,      164.0000,       76.5625,        1.8127,        1.2285,   -999.250000,     -999.2500
     382.67630,      164.7500,       78.0000,        1.8934,        1.2802,   -999.250000,     -999.2500
     382.82870,      164.6250,       77.6875,        2.0075,        1.3155,   -999.250000,     -999.2500
     382.98110,      164.5000,       81.8125,        2.0818,        1.3365,   -999.250000,     -999.2500
     383.13350,      163.1250,       81.9375,        1.9677,        1.2527,   -999.250000,     -999.2500
     383.28590,      161.8750,       81.8125,        1.8372,        1.2063,   -999.250000,     -999.2500
     383.43830,      160.7500,       85.0625,        1.7757,        1.1583,   -999.250000,     -999.2500
     383.59070,      159.7500,       89.0625,        1.9147,        1.2506,   -999.250000,     -999.2500
     383.74310,      160.6250,       90.1250,        2.0624,        1.3161,   -999.250000,     -999.2500
     383.89550,      161.1250,       89.6875,        2.1860,        1.3783,   -999.250000,     -999.2500
     384.04790,      161.6250,       86.3125,        2.2786,        1.3775,   -999.250000,     -999.2500
     384.20030,      162.5000,       83.3750,        2.0810,        1.3111,   -999.250000,     -999.2500
     384.35270,      162.3750,       83.3750,        2.0572,        1.2830,   -999.250000,     -999.2500
     384.50510,      162.3750,       83.3750,        2.0995,        1.3481,   -999.250000,     -999.2500
     384.65750,      161.2500,       86.0625,        2.1782,        1.4248,   -999.250000,     -999.2500
     384.80990,      161.2500,       81.8125,        2.2380,        1.4884,   -999.250000,     -999.2500
     384.96230,      161.0000,       81.8750,        2.4033,        1.6156,   -999.250000,     -999.2500
     385.11470,      160.5000,       83.6875,        2.3957,        1.6822,   -999.250000,     -999.2500
     385.26710,      155.5000,       86.2500,        2.4334,        1.7035,   -999.250000,     -999.2500
     385.41950,      143.7500,       84.2500,        2.4629,        1.6995,   -999.250000,     -999.2500
     385.57190,      141.5000,       79.8750,        2.5215,        1.6954,   -999.250000,     -999.2500
     385.72430,      143.1250,       77.8125,        2.4144,        1.6591,   -999.250000,     -999.2500
     385.87670,      142.2500,       79.9375,        2.2590,        1.5246,   -999.250000,     -999.2500
     386.02910,      139.2500,       79.8125,        2.1067,        1.4292,   -999.250000,     -999.2500
     386.18150,      132.3750,       75.2500,        2.7152,        1.7246,   -999.250000,     -999.2500
     386.33390,      108.0620,       66.4375,        4.4732,        2.4960,   -999.250000,     -999.2500
     386.48630,       83.6875,       60.0938,        9.8867,        4.6332,   -999.250000,     -999.2500
     386.63870,       71.4375,       55.2500,       30.4331,       15.0576,   -999.250000,     -999.2500
     386.79110,       72.7500,       53.2812,       17.3623,       23.5341,   -999.250000,     -999.2500
     386.94350,       84.1250,       56.0312,        6.3422,        6.2651,   -999.250000,     -999.2500
     387.09590,      104.7500,       63.2812,        3.0020,        2.7865,   -999.250000,     -999.2500
