~Version
VERS  .             3.0                                 : CWLS LOG ASCII STANDARD - VERSION 3.0
WRAP  .             NO                                  : One line per depth step
DLM   .             COMMA                               : Delimiter character between data columns
#Delimiting character ( SPACE TAB OR COMMA ).

~Well
#MNEM.UNIT          DATA                                DESCRIPTION
#----- ----        -----------------                   -----------
STRT  .M                  0.00000                       : FIRST INDEX VALUE
STOP  .M               1582.97839                       : LAST INDEX VALUE
STEP  .M                  0.15240                       : STEP OF INDEX
NULL  .             -999.25                             : NULL VALUE
COMP  .                                                 : COMPANY
WELL  .             CAPELLA                             : WELL
FLD   .                                                 : FIELD
LOC   .                                                 : LOCATION
SRVC  .                                                 : SERVICE COMPANY
CTRY  .                                                 : COUNTRY
PROV  .                                                 : PROVINCE
UWI   .                                                 : UNIQUE WELL ID
LIC   .                                                 : LICENSE NUMBER
STAT  .                                                 : STATE
CNTY  .                                                 : COUNTY
API   .                                                 : API NUMBER
DATE  .                                                 : LOG DATE
X     .             652954.2587678                      : X OR EAST-WEST COORDINATE
Y     .             8157948.019637                      : Y OR NORTH-SOUTH COORDINATE
HZCS  .                                                 : HORIZONTAL CO-ORDINATE SYSTEM
LATI  .             -16.65596527778                     : LATITUDE
LONG  .             154.4342336111                      : LONGITUDE
GDAT  .                                                 : GEODETIC DATUM

~TOPS_PARAMETER 
#MNEM.UNIT                    VALUE                        DESCRIPTION
#--------------- ---         ------------                 -----------------

~TOPS_DEFINITION 
#MNEM.UNIT                 LOG CODE                  CURVE DESCRIPTION
#----------- ----         ------------              -----------------
DEPTH       .M                                      :     {F}
TOPS        .                                       :     {S32}

~TOPS_DATA | TOPS_DEFINITION
        0.3137,Doyles Creek Subgroup           
      419.5846,Horseshoe Creek Subgroup        
      504.1290,Apple Tree Flat Subgroup        
      726.8617,Watts Sandstone                 
      738.3121,Denman Fm                       
      898.3032,Mt Leonard Fm                   
      989.4355,Althorpe Fm                     
      998.2193,Malabar Fm                      
     1041.0404,Mt Ogilvie Fm                   
     1082.3066,Milbrodale Fm                   
     1155.5439,Mt Thorley Fm                   
     1204.7961,Burnamwood Fm                   
     1307.8026,Archerfield Sandstone           
     1322.7503,Mulbring Siltstone              
     1398.0403,Muree Sandstone                 
     1503.9168,Branxton Fm                     
     1543.2168,Greta Coal Measures             
     1567.3323,Dalwood Group                   
     1583.1745,                                

~PARAMETER 
#MNEM.UNIT                    VALUE                        DESCRIPTION
#--------------- ---         ------------                 -----------------

~CURVE 
#MNEM.UNIT                 LOG CODE                  CURVE DESCRIPTION
#----------- ----         ------------              -----------------
DEPTH       .M                                      :     {F}
DT          .US/F                                   :     {F}
GR          .GAPI                                   :     {F}
LLD         .OHMM                                   :     {F}
LLS         .OHMM                                   :     {F}
NPHI        .V/V                                    :     {F}
RHOB        .K/M3                                   :     {F}

~ASCII | CURVE 
# ...
     927.04896,      117.0000,       84.8125,        1.5431,        1.7659,      0.299316,     2365.2320
     927.20136,      116.8120,       87.6875,        1.5417,        1.7691,      0.298340,     2373.0500
     927.35376,      116.6880,       88.1875,        1.5421,        1.7817,      0.298341,     2375.0000
     927.50616,      116.7500,       84.6875,        1.5351,        1.7105,      0.304686,     2374.9970
     927.65856,      117.8120,       86.7500,        1.5341,        1.7415,      0.295900,     2363.2800
     927.81096,      118.6250,       87.2500,        1.5246,        1.7384,      0.304200,     2363.2780
     927.96336,      118.4380,       88.5625,        1.5324,        1.7613,      0.309082,     2355.4700
     928.11576,      117.9380,       87.8750,        1.5822,        1.8258,      0.308105,     2357.4170
     928.26816,      117.1880,       85.0000,        1.6480,        1.8594,      0.309567,     2345.7000
     928.42056,      116.3120,       84.1250,        1.6916,        1.9159,      0.296386,     2347.6600
     928.57296,      116.1880,       81.5000,        1.7145,        1.9482,      0.293456,     2347.6620
     928.72536,      116.5000,       83.0000,        1.6736,        1.9285,      0.287598,     2355.4700
     928.87776,      116.8120,       83.3750,        1.6625,        1.9257,      0.286135,     2355.4680
     929.03016,      116.8750,       84.4375,        1.6360,        1.8607,      0.297362,     2347.6600
     929.18256,      116.8120,       85.8750,        1.6416,        1.8660,      0.292972,     2347.6590
     929.33496,      115.9380,       84.6250,        1.6651,        1.8667,      0.308107,     2343.7510
     929.48736,      116.7500,       84.0000,        1.6281,        1.8542,      0.316407,     2349.6100
     929.63976,      110.4380,       81.0000,        1.6366,        1.8714,      0.319335,     2349.6110
     929.79216,      116.8750,       82.6875,        1.6080,        1.8345,      0.315917,     2355.4710
     929.94456,      117.3120,       83.1250,        1.5593,        1.8024,      0.312013,     2363.2790
     930.09696,      117.5000,       86.7500,        1.5102,        1.7449,      0.315919,     2361.3310
     930.24936,      117.3750,       84.7500,        1.4869,        1.6953,      0.321775,     2365.2330
     930.40176,      113.5620,       86.3125,        1.5408,        1.7888,      0.311031,     2380.8620
     930.55416,      104.2500,       82.5000,        1.6115,        1.8880,      0.292965,     2390.6210
     930.70656,      103.6250,       84.3750,        1.5849,        1.8474,      0.274900,     2396.4770
     930.85896,      104.5000,       85.8125,        1.5413,        1.7735,      0.264652,     2382.8090
     931.01136,      110.2500,       89.6875,        1.4124,        1.6491,      0.284672,     2376.9470
     931.16376,      118.8750,       87.3750,        1.3240,        1.5301,      0.302251,     2365.2290
     931.31616,      118.6880,       84.2500,        1.3791,        1.5802,      0.324222,     2359.3790
     931.46856,      118.3120,       84.9375,        1.4111,        1.6185,      0.336427,     2357.4190
     931.62096,      117.8750,       86.3125,        1.4357,        1.6165,      0.340820,     2353.5210
     931.77336,      117.6250,       83.5625,        1.4392,        1.6548,      0.339842,     2355.4700
     931.92576,      116.4380,       82.3750,        1.4314,        1.6395,      0.333004,     2355.4700
     932.07816,      116.7500,       83.0625,        1.4330,        1.6187,      0.315918,     2357.4210
     932.23056,      116.5000,       85.6875,        1.4177,        1.6395,      0.313960,     2361.3310
     932.38296,      116.2500,       85.3125,        1.4333,        1.6447,      0.292972,     2363.2810
     932.53536,      116.8750,       87.4375,        1.4053,        1.5976,      0.304691,     2369.1400
     932.68776,      117.7500,       91.3750,        1.3574,        1.5801,      0.317873,     2371.0900
     932.84016,      119.4380,       93.9375,        1.3159,        1.5348,      0.329103,     2371.0890
     932.99256,      119.8120,       93.5000,        1.3000,        1.4745,      0.335937,     2369.1370
     933.14496,      120.1250,       92.7500,        1.2967,        1.4852,      0.330568,     2359.3790
     933.29736,      120.2500,       93.2500,        1.2973,        1.4785,      0.337889,     2353.5210
     933.44976,      120.1880,       98.1875,        1.3063,        1.4892,      0.326659,     2357.4220
     933.60216,      119.3120,       95.8125,        1.3092,        1.4948,      0.322264,     2367.1890
     933.75456,      118.8750,       90.0625,        1.3002,        1.5149,      0.312989,     2361.3300
     933.90696,      118.5620,       88.6250,        1.3391,        1.5188,      0.318361,     2359.3790
     934.05936,      118.1880,       90.3125,        1.3339,        1.4980,      0.326172,     2353.5210
     934.21176,      118.1250,       96.3750,        1.3589,        1.5450,      0.326170,     2355.4700
     934.36416,      117.7500,       90.1875,        1.3756,        1.5923,      0.314938,     2355.4710
     934.51656,      117.6880,       89.5625,        1.4130,        1.6012,      0.303223,     2359.3820
     934.66896,      117.5620,       88.8125,        1.4339,        1.6253,      0.302737,     2369.1400
     934.82136,      117.6250,       92.3125,        1.4022,        1.6012,      0.316410,     2371.0900
     934.97376,      117.5620,       93.9375,        1.3810,        1.5701,      0.335449,     2371.0880
     935.12616,      118.0000,       95.3125,        1.3901,        1.5339,      0.335451,     2363.2770
     935.27856,      119.0620,       94.2500,        1.3637,        1.5280,      0.344726,     2351.5600
     935.43096,      121.8120,       92.4375,        1.3655,        1.5495,      0.338377,     2349.6110
     935.58336,      118.6880,       86.6875,        1.3989,        1.6040,      0.331048,     2353.5230
     935.73576,      117.5620,       87.5625,        1.4459,        1.6299,      0.301266,     2369.1420
     935.88816,      117.4380,       81.1875,        1.4934,        1.6750,      0.284188,     2380.8610
     936.04056,      118.5000,       82.3125,        1.4266,        1.6300,      0.319827,     2386.7200
     936.19296,      115.2500,       78.0625,        1.4536,        1.6450,      0.332519,     2386.7200
     936.34536,      108.1250,       82.3125,        1.5500,        1.7910,      0.329095,     2386.7200
     936.49776,      106.1250,       77.7500,        1.5485,        1.7779,      0.296387,     2388.6700
     936.65016,      107.4380,       78.6875,        1.6522,        1.8560,      0.296389,     2388.6690
     936.80256,      110.8750,       77.0000,        1.6200,        1.8425,      0.306152,     2386.7190
     936.95496,      117.0620,       83.5000,        1.4436,        1.6621,      0.306643,     2382.8100
     937.10736,      118.5000,       86.8125,        1.4092,        1.6112,      0.315430,     2382.8100
     937.25976,      116.3120,       91.8750,        1.4301,        1.6106,      0.316406,     2380.8620
     937.41216,      106.8750,       90.8125,        1.5387,        1.7627,      0.316891,     2392.5800
     937.56456,       98.1250,       82.8125,        1.7372,        1.9769,      0.298823,     2390.6190
     937.71696,       94.0625,       77.5625,        1.7792,        2.0159,      0.274416,     2384.7670
     937.86936,       96.6250,       73.6250,        1.6968,        1.9437,      0.282718,     2369.1390
     938.02176,      108.3750,       80.3125,        1.5276,        1.7193,      0.295903,     2367.1890
     938.17416,      118.9380,       81.6875,        1.3321,        1.5268,      0.319338,     2361.3310
     938.32656,      119.3120,       86.8750,        1.3564,        1.5314,      0.327636,     2363.2790
     938.47896,      118.8750,       84.8125,        1.4124,        1.5945,      0.321291,     2357.4200
     938.63136,      118.8750,       85.1875,        1.4247,        1.5830,      0.330074,     2357.4190
