~Version
VERS  .             3.0                                 : CWLS LOG ASCII STANDARD - VERSION 3.0
WRAP  .             NO                                  : One line per depth step
DLM   .             COMMA                               : Delimiter character between data columns
#Delimiting character ( SPACE TAB OR COMMA ).

~Well
#MNEM.UNIT          DATA                                DESCRIPTION
#----- ----        -----------------                   -----------
STRT  .M                  0.00000                       : FIRST INDEX VALUE
STOP  .M               1582.97839                       : LAST INDEX VALUE
STEP  .M                  0.15240                       : STEP OF INDEX
NULL  .             -999.25                             : NULL VALUE
COMP  .                                                 : COMPANY
WELL  .             CAPELLA                             : WELL
FLD   .                                                 : FIELD
LOC   .                                                 : LOCATION
SRVC  .                                                 : SERVICE COMPANY
CTRY  .                                                 : COUNTRY
PROV  .                                                 : PROVINCE
UWI   .                                                 : UNIQUE WELL ID
LIC   .                                                 : LICENSE NUMBER
STAT  .                                                 : STATE
CNTY  .                                                 : COUNTY
API   .                                                 : API NUMBER
DATE  .                                                 : LOG DATE
X     .             652954.2587678                      : X OR EAST-WEST COORDINATE
Y     .             8157948.019637                      : Y OR NORTH-SOUTH COORDINATE
HZCS  .                                                 : HORIZONTAL CO-ORDINATE SYSTEM
LATI  .             -16.65596527778                     : LATITUDE
LONG  .             154.4342336111                      : LONGITUDE
GDAT  .                                                 : GEODETIC DATUM

~TOPS_PARAMETER 
#MNEM.UNIT                    VALUE                        DESCRIPTION
#--------------- ---         ------------                 -----------------

~TOPS_DEFINITION 
#MNEM.UNIT                 LOG CODE                  CURVE DESCRIPTION
#----------- ----         ------------              -----------------
DEPTH       .M                                      :     {F}
TOPS        .                                       :     {S32}

~TOPS_DATA | TOPS_DEFINITION
        0.3137,Doyles Creek Subgroup           
      419.5846,Horseshoe Creek Subgroup        
      504.1290,Apple Tree Flat Subgroup        
      726.8617,Watts Sandstone                 
      738.3121,Denman Fm                       
      898.3032,Mt Leonard Fm                   
      989.4355,Althorpe Fm                     
      998.2193,Malabar Fm                      
     1041.0404,Mt Ogilvie Fm                   
     1082.3066,Milbrodale Fm                   
     1155.5439,Mt Thorley Fm                   
     1204.7961,Burnamwood Fm                   
     1307.8026,Archerfield Sandstone           
     1322.7503,Mulbring Siltstone              
     1398.0403,Muree Sandstone                 
     1503.9168,Branxton Fm                     
     1543.2168,Greta Coal Measures             
     1567.3323,Dalwood Group                   
     1583.1745,                                

~PARAMETER 
#MNEM.UNIT                    VALUE                        DESCRIPTION
#--------------- ---         ------------                 -----------------

~CURVE 
#MNEM.UNIT                 LOG CODE                  CURVE DESCRIPTION
#----------- ----         ------------              -----------------
DEPTH       .M                                      :     {F}
DT          .US/F                                   :     {F}
GR          .GAPI                                   :     {F}
LLD         .OHMM                                   :     {F}
LLS         .OHMM                                   :     {F}
NPHI        .V/V                                    :     {F}
RHOB        .K/M3                                   :     {F}

~ASCII | CURVE 
# ...
     187.75675,       56.9375,       54.8438,     -999.2500,     -999.2500,   -999.250000,     -999.2500
     187.90915,       55.8750,       57.4375,     -999.2500,     -999.2500,   -999.250000,     -999.2500
     188.06155,       56.1250,       57.9688,     -999.2500,     -999.2500,   -999.250000,     -999.2500
     188.21395,       55.8750,       55.8125,     -999.2500,     -999.2500,   -999.250000,     -999.2500
     188.36635,       56.0625,       55.8750,     -999.2500,     -999.2500,   -999.250000,     -999.2500
     188.51875,       55.8750,       58.4688,     -999.2500,     -999.2500,   -999.250000,     -999.2500
     188.67115,       56.3750,       59.5625,     -999.2500,     -999.2500,   -999.250000,     -999.2500
     188.82355,       56.2500,       59.0000,     -999.2500,     -999.2500,   -999.250000,     -999.2500
     188.97595,       56.0625,       59.2500,     -999.2500,     -999.2500,   -999.250000,     -999.2500
     189.12835,       55.8750,       59.0312,     -999.2500,     -999.2500,   -999.250000,     -999.2500
     189.28075,       56.2500,       59.9375,     -999.2500,     -999.2500,   -999.250000,     -999.2500
     189.43315,       56.0000,       56.0938,     -999.2500,     -999.2500,   -999.250000,     -999.2500
     189.58555,       56.1875,       57.4688,     -999.2500,     -999.2500,   -999.250000,     -999.2500
     189.73795,       56.0000,       59.3438,     -999.2500,     -999.2500,   -999.250000,     -999.2500
     189.89035,       56.0625,       61.0000,     -999.2500,     -999.2500,   -999.250000,     -999.2500
     190.04275,       56.1250,       60.2188,     -999.2500,     -999.2500,   -999.250000,     -999.2500
     190.19515,       56.2500,       57.7188,     -999.2500,     -999.2500,   -999.250000,     -999.2500
     190.34755,       56.3750,       56.2188,     -999.2500,     -999.2500,   -999.250000,     -999.2500
     190.49995,       56.3125,       52.0625,     -999.2500,     -999.2500,   -999.250000,     -999.2500
     190.65235,       56.4375,       51.0625,     -999.2500,     -999.2500,   -999.250000,     -999.2500
     190.80475,       56.3125,       50.0312,     -999.2500,     -999.2500,   -999.250000,     -999.2500
     190.95715,       56.0625,       52.9688,     -999.2500,     -999.2500,   -999.250000,     -999.2500
     191.10955,       56.4375,       55.3125,     -999.2500,     -999.2500,   -999.250000,     -999.2500
     191.26195,       56.4375,       56.4375,     -999.2500,     -999.2500,   -999.250000,     -999.2500
     191.41435,       56.5625,       56.7188,     -999.2500,     -999.2500,   -999.250000,     -999.2500
     191.56675,       56.1250,       53.7500,     -999.2500,     -999.2500,   -999.250000,     -999.2500
     191.71915,       55.9375,       55.6250,     -999.2500,     -999.2500,   -999.250000,     -999.2500
     191.87155,       56.0625,       53.0938,     -999.2500,     -999.2500,   -999.250000,     -999.2500
     192.02395,       56.0000,       53.4688,     -999.2500,     -999.2500,   -999.250000,     -999.2500
     192.17635,       55.9375,       50.8125,     -999.2500,     -999.2500,   -999.250000,     -999.2500
     192.32875,       55.7500,       49.2188,        0.1218,        0.2560,   -999.250000,     -999.2500
     192.48115,       55.7500,       49.5000,        0.1218,        0.2543,   -999.250000,     -999.2500
     192.63355,       55.9375,       50.6875,        0.1223,        0.2551,   -999.250000,     -999.2500
     192.78595,       56.1250,       53.4688,        0.1232,        0.2555,   -999.250000,     -999.2500
     192.93835,       56.0625,       57.5938,        0.1231,        0.2563,   -999.250000,     -999.2500
     193.09075,       56.0000,       54.3750,        0.1230,        0.2570,   -999.250000,     -999.2500
     193.24315,       55.8125,       53.5312,        0.1230,        0.2570,   -999.250000,     -999.2500
     193.39555,       55.8750,       49.8750,        0.1238,        0.2561,   -999.250000,     -999.2500
     193.54795,       56.0625,       54.4062,        0.1236,        0.2558,   -999.250000,     -999.2500
     193.70035,       55.9375,       55.3125,        0.1220,        0.2563,   -999.250000,     -999.2500
     193.85275,       56.2500,       54.4375,        0.1226,        0.2567,   -999.250000,     -999.2500
     194.00515,       56.5625,       53.0312,        0.1221,        0.2565,   -999.250000,     -999.2500
     194.15755,       56.5625,       51.1250,        0.1245,        0.2572,   -999.250000,     -999.2500
     194.30995,       56.4375,       50.6250,        0.1236,        0.2556,   -999.250000,     -999.2500
     194.46235,       56.1875,       51.2188,        0.1236,        0.2575,   -999.250000,     -999.2500
     194.61475,       56.0000,       53.0312,        0.1220,        0.2564,   -999.250000,     -999.2500
     194.76715,       55.9375,       53.1875,        0.1223,        0.2547,   -999.250000,     -999.2500
     194.91955,       55.9375,       53.5312,        0.1228,        0.2569,   -999.250000,     -999.2500
     195.07195,       56.0000,       53.8125,        0.1224,        0.2568,   -999.250000,     -999.2500
     195.22435,       56.1250,       54.2812,        0.1237,        0.2557,   -999.250000,     -999.2500
     195.37675,       56.3125,       50.6875,        0.1220,        0.2547,   -999.250000,     -999.2500
     195.52915,       56.3750,       49.4375,        0.1289,        0.2565,   -999.250000,     -999.2500
     195.68155,       56.0625,       50.3750,        0.1323,        0.2516,   -999.250000,     -999.2500
     195.83395,       56.4375,       54.8125,        0.1409,        0.2551,   -999.250000,     -999.2500
     195.98635,       56.0625,       55.8438,        0.1540,        0.2523,   -999.250000,     -999.2500
     196.13875,       56.5000,       54.1562,        0.1754,        0.2511,   -999.250000,     -999.2500
     196.29115,       56.3125,       50.2188,        0.2066,        0.2482,   -999.250000,     -999.2500
     196.44355,       56.3750,       49.8438,        0.1446,        0.2574,   -999.250000,     -999.2500
     196.59595,       56.6250,       47.7500,        0.1914,        0.2583,   -999.250000,     -999.2500
     196.74835,       56.6875,       50.0625,        0.1283,        0.2539,   -999.250000,     -999.2500
     196.90075,       56.8750,       48.1562,        0.1298,        0.2559,   -999.250000,     -999.2500
     197.05315,       56.9375,       49.5625,        0.1288,        0.2567,   -999.250000,     -999.2500
     197.20555,       57.3750,       48.1562,        0.1298,        0.2553,   -999.250000,     -999.2500
     197.35795,       57.2500,       49.6250,        0.1296,        0.2555,   -999.250000,     -999.2500
     197.51035,       57.1875,       50.7500,        0.1300,        0.2578,   -999.250000,     -999.2500
     197.66275,       57.3125,       52.4688,        0.1277,        0.2600,   -999.250000,     -999.2500
     197.81515,       57.0000,       53.4375,        0.1277,        0.2594,   -999.250000,     -999.2500
     197.96755,       57.0000,       53.3125,        0.1255,        0.2613,   -999.250000,     -999.2500
     198.11995,       56.7500,       51.8438,        0.1231,        0.2655,   -999.250000,     -999.2500
     198.27235,       56.5625,       50.5625,        0.1226,        0.2729,   -999.250000,     -999.2500
     198.42475,       56.9375,       50.3125,        0.1178,        0.2854,   -999.250000,     -999.2500
     198.57715,       56.5625,       54.3438,        0.1151,        0.3178,   -999.250000,     -999.2500
     198.72955,       56.9375,       55.2812,        0.1052,        0.3801,   -999.250000,     -999.2500
     198.88195,       57.0625,       54.2812,        0.0976,        0.5161,   -999.250000,     -999.2500
     199.03435,       75.7500,       52.3125,        0.1247,        0.4214,   -999.250000,     -999.2500
     199.18675,       79.5000,       52.5625,        0.0777,        0.1478,   -999.250000,     -999.2500
     199.33915,       76.6250,       53.2500,        0.0741,        0.2071,   -999.250000,     -999.2500
