~Version
VERS  .             3.0                                 : CWLS LOG ASCII STANDARD - VERSION 3.0
WRAP  .             NO                                  : One line per depth step
DLM   .             COMMA                               : Delimiter character between data columns
#Delimiting character ( SPACE TAB OR COMMA ).

~Well
#MNEM.UNIT          DATA                                DESCRIPTION
#----- ----        -----------------                   -----------
STRT  .M                  0.00000                       : FIRST INDEX VALUE
STOP  .M               1582.97839                       : LAST INDEX VALUE
STEP  .M                  0.15240                       : STEP OF INDEX
NULL  .             -999.25                             : NULL VALUE
COMP  .                                                 : COMPANY
WELL  .             CAPELLA                             : WELL
FLD   .                                                 : FIELD
LOC   .                                                 : LOCATION
SRVC  .                                                 : SERVICE COMPANY
CTRY  .                                                 : COUNTRY
PROV  .                                                 : PROVINCE
UWI   .                                                 : UNIQUE WELL ID
LIC   .                                                 : LICENSE NUMBER
STAT  .                                                 : STATE
CNTY  .                                                 : COUNTY
API   .                                                 : API NUMBER
DATE  .                                                 : LOG DATE
X     .             652954.2587678                      : X OR EAST-WEST COORDINATE
Y     .             8157948.019637                      : Y OR NORTH-SOUTH COORDINATE
HZCS  .                                                 : HORIZONTAL CO-ORDINATE SYSTEM
LATI  .             -16.65596527778                     : LATITUDE
LONG  .             154.4342336111                      : LONGITUDE
GDAT  .                                                 : GEODETIC DATUM

~TOPS_PARAMETER 
#MNEM.UNIT                    VALUE                        DESCRIPTION
#--------------- ---         ------------                 -----------------

~TOPS_DEFINITION 
#MNEM.UNIT                 LOG CODE                  CURVE DESCRIPTION
#----------- ----         ------------              -----------------
DEPTH       .M                                      :     {F}
TOPS        .                                       :     {S32}

~TOPS_DATA | TOPS_DEFINITION
        0.3137,Doyles Creek Subgroup           
      419.5846,Horseshoe Creek Subgroup        
      504.1290,Apple Tree Flat Subgroup        
      726.8617,Watts Sandstone                 
      738.3121,Denman Fm                       
      898.3032,Mt Leonard Fm                   
      989.4355,Althorpe Fm                     
      998.2193,Malabar Fm                      
     1041.0404,Mt Ogilvie Fm                   
     1082.3066,Milbrodale Fm                   
     1155.5439,Mt Thorley Fm                   
     1204.7961,Burnamwood Fm                   
     1307.8026,Archerfield Sandstone           
     1322.7503,Mulbring Siltstone              
     1398.0403,Muree Sandstone                 
     1503.9168,Branxton Fm                     
     1543.2168,Greta Coal Measures             
     1567.3323,Dalwood Group                   
     1583.1745,                                

~PARAMETER 
#MNEM.UNIT                    VALUE                        DESCRIPTION
#--------------- ---         ------------                 -----------------

~CURVE 
#MNEM.UNIT                 LOG CODE                  CURVE DESCRIPTION
#----------- ----         ------------              -----------------
DEPTH       .M                                      :     {F}
DT          .US/F                                   :     {F}
GR          .GAPI                                   :     {F}
LLD         .OHMM                                   :     {F}
LLS         .OHMM                                   :     {F}
NPHI        .V/V                                    :     {F}
RHOB        .K/M3                                   :     {F}

~ASCII | CURVE 
# ...
     551.53546,       67.5000,       62.6875,       30.3569,       25.5634,   -999.250000,     -999.2500
     551.68786,       63.5000,       59.7188,       56.5210,       44.1298,   -999.250000,     -999.2500
     551.84026,       64.2500,       62.6875,       54.4453,       43.5803,   -999.250000,     -999.2500
     551.99266,       53.3125,       61.7500,       29.8116,       44.3286,   -999.250000,     -999.2500
     552.14506,       55.0000,       65.1250,       17.7070,       37.6817,   -999.250000,     -999.2500
     552.29746,       57.7500,       60.0938,       11.0786,       17.7794,   -999.250000,     -999.2500
     552.44986,       73.9375,       66.2500,        5.2658,        6.0779,   -999.250000,     -999.2500
     552.60226,       92.5000,       70.3750,        2.9832,        3.2721,   -999.250000,     -999.2500
     552.75466,      101.6250,       78.5625,        1.9549,        2.1889,   -999.250000,     -999.2500
     552.90706,      111.5620,       80.6250,        1.6908,        1.8450,   -999.250000,     -999.2500
     553.05946,      119.7500,       79.6875,        1.7853,        1.9581,   -999.250000,     -999.2500
     553.21186,      121.1250,       79.4375,        2.0408,        2.1662,   -999.250000,     -999.2500
     553.36426,      123.0620,       84.8125,        2.3235,        2.3690,   -999.250000,     -999.2500
     553.51666,      121.8750,       88.3125,        2.2022,        2.1953,   -999.250000,     -999.2500
     553.66906,      122.3750,       88.8750,        1.9229,        1.8902,   -999.250000,     -999.2500
     553.82146,      123.0000,       82.6875,        1.7251,        1.6649,   -999.250000,     -999.2500
     553.97386,      123.8120,       82.8750,        1.7699,        1.7111,   -999.250000,     -999.2500
     554.12626,      127.4380,       83.4375,        1.9446,        1.8632,   -999.250000,     -999.2500
     554.27866,      129.2500,       88.1875,        2.1566,        1.9572,   -999.250000,     -999.2500
     554.43106,      129.7500,       90.3750,        2.5016,        2.2196,   -999.250000,     -999.2500
     554.58346,      129.5000,       90.7500,        2.4816,        2.2230,   -999.250000,     -999.2500
     554.73586,      126.2500,       84.9375,        2.1385,        1.9486,   -999.250000,     -999.2500
     554.88826,      123.8750,       83.2500,        1.9742,        1.8314,   -999.250000,     -999.2500
     555.04066,      123.1250,       83.2500,        1.8223,        1.7035,   -999.250000,     -999.2500
     555.19306,      124.2500,       89.1875,        1.8318,        1.6844,   -999.250000,     -999.2500
     555.34546,      125.3750,       90.5000,        1.7908,        1.6177,   -999.250000,     -999.2500
     555.49786,      126.1250,       89.8750,        1.6944,        1.5211,   -999.250000,     -999.2500
     555.65026,      126.0000,       86.2500,        1.6846,        1.5534,   -999.250000,     -999.2500
     555.80266,      125.7500,       86.5000,        1.7982,        1.6730,   -999.250000,     -999.2500
     555.95506,      126.2500,       89.8750,        2.0999,        1.8679,   -999.250000,     -999.2500
     556.10746,      126.1250,       93.1250,        2.4840,        2.1294,   -999.250000,     -999.2500
     556.25986,      125.8750,       91.5625,        2.4156,        2.2164,   -999.250000,     -999.2500
     556.41226,      125.5000,       92.9375,        2.2197,        2.0432,   -999.250000,     -999.2500
     556.56466,      125.7500,       95.7500,        2.2687,        2.1037,   -999.250000,     -999.2500
     556.71706,      126.8750,       94.1875,        2.3930,        2.2026,   -999.250000,     -999.2500
     556.86946,      127.2500,       92.1875,        2.3594,        2.1999,   -999.250000,     -999.2500
     557.02186,      126.8750,       88.4375,        2.1669,        2.0630,   -999.250000,     -999.2500
     557.17426,      126.6250,       89.3750,        2.1330,        2.0418,   -999.250000,     -999.2500
     557.32666,      126.1250,       87.5000,        2.1309,        2.0692,   -999.250000,     -999.2500
     557.47906,      127.0000,       86.6250,        2.2564,        2.1517,   -999.250000,     -999.2500
     557.63146,      127.8750,       88.1875,        2.3953,        2.3114,   -999.250000,     -999.2500
     557.78386,      128.0000,       87.9375,        2.3024,        2.2262,   -999.250000,     -999.2500
     557.93626,      128.2500,       86.1875,        2.0569,        2.0325,   -999.250000,     -999.2500
     558.08866,      127.2500,       81.8750,        1.9854,        1.9483,   -999.250000,     -999.2500
     558.24106,      125.7500,       78.6875,        2.0832,        2.0781,   -999.250000,     -999.2500
     558.39346,      125.1250,       79.9375,        2.0962,        2.1017,   -999.250000,     -999.2500
     558.54586,      124.6250,       79.0625,        2.3209,        2.2642,   -999.250000,     -999.2500
     558.69826,      124.6250,       84.0625,        2.2993,        2.3173,   -999.250000,     -999.2500
     558.85066,      126.3750,       83.4375,        2.0744,        2.0979,   -999.250000,     -999.2500
     559.00306,      126.7500,       86.1250,        2.0771,        2.0454,   -999.250000,     -999.2500
     559.15546,      126.7500,       84.0000,        1.9908,        2.0124,   -999.250000,     -999.2500
     559.30786,      127.5000,       85.9375,        2.0519,        2.0657,   -999.250000,     -999.2500
     559.46026,      127.2500,       85.3750,        2.1013,        2.1311,   -999.250000,     -999.2500
     559.61266,      127.6250,       81.1250,        2.1696,        2.1792,   -999.250000,     -999.2500
     559.76506,      128.2500,       81.1250,        2.1814,        2.2140,   -999.250000,     -999.2500
     559.91746,      127.7500,       82.8750,        2.1197,        2.1707,   -999.250000,     -999.2500
     560.06986,      128.2500,       86.6875,        2.0219,        2.1130,   -999.250000,     -999.2500
     560.22226,      128.0000,       85.6250,        1.9858,        2.0796,   -999.250000,     -999.2500
     560.37466,      128.7500,       89.6250,        1.9485,        2.0522,   -999.250000,     -999.2500
     560.52706,      129.6250,       89.5625,        1.7972,        1.8735,   -999.250000,     -999.2500
     560.67946,      130.0000,       90.7500,        1.7169,        1.7458,   -999.250000,     -999.2500
     560.83186,      130.6250,       85.8750,        1.7226,        1.7980,   -999.250000,     -999.2500
     560.98426,      129.7500,       85.7500,        1.7194,        1.7923,   -999.250000,     -999.2500
     561.13666,      128.7500,       85.6875,        1.9476,        1.9755,   -999.250000,     -999.2500
     561.28906,      128.6250,       86.0625,        2.1286,        2.1312,   -999.250000,     -999.2500
     561.44146,      127.1250,       85.0000,        2.0510,        2.0665,   -999.250000,     -999.2500
     561.59386,      127.7500,       84.6875,        1.8907,        1.9448,   -999.250000,     -999.2500
     561.74626,      127.6250,       81.1250,        1.7443,        1.7501,   -999.250000,     -999.2500
     561.89866,      129.5000,       81.8125,        1.6916,        1.7465,   -999.250000,     -999.2500
     562.05106,      124.8750,       79.8125,        1.9037,        1.9096,   -999.250000,     -999.2500
     562.20346,      113.2500,       77.1250,        2.5976,        2.5966,   -999.250000,     -999.2500
     562.35586,      103.8750,       72.5000,        3.1326,        3.2468,   -999.250000,     -999.2500
     562.50826,      100.3750,       69.0625,        3.0737,        3.1255,   -999.250000,     -999.2500
     562.66066,      107.1250,       75.5625,        2.5103,        2.6197,   -999.250000,     -999.2500
     562.81306,      118.8120,       82.2500,        1.7570,        1.9479,   -999.250000,     -999.2500
     562.96546,      129.1250,       81.2500,        1.5403,        1.6961,   -999.250000,     -999.2500
     563.11786,      130.8750,       79.6875,        1.5754,        1.6893,   -999.250000,     -999.2500
