~Version
VERS  .             3.0                                 : CWLS LOG ASCII STANDARD - VERSION 3.0
WRAP  .             NO                                  : One line per depth step
DLM   .             COMMA                               : Delimiter character between data columns
#Delimiting character ( SPACE TAB OR COMMA ).

~Well
#MNEM.UNIT          DATA                                DESCRIPTION
#----- ----        -----------------                   -----------
STRT  .M                45.415200                       : FIRST INDEX VALUE
STOP  .M              1570.939000                       : LAST INDEX VALUE
STEP  .M                 0.152415                       : STEP OF INDEX
NULL  .             -999.25                             : NULL VALUE
COMP  .                                                 : COMPANY
WELL  .             DENEB                               : WELL
FLD   .                                                 : FIELD
LOC   .                                                 : LOCATION
SRVC  .                                                 : SERVICE COMPANY
CTRY  .                                                 : COUNTRY
PROV  .                                                 : PROVINCE
UWI   .                                                 : UNIQUE WELL ID
LIC   .                                                 : LICENSE NUMBER
STAT  .                                                 : STATE
CNTY  .                                                 : COUNTY
API   .                                                 : API NUMBER
DATE  .                                                 : LOG DATE
X     .             652390.6754077                      : X OR EAST-WEST COORDINATE
Y     .             8156955.995978                      : Y OR NORTH-SOUTH COORDINATE
HZCS  .                                                 : HORIZONTAL CO-ORDINATE SYSTEM
LATI  .             -16.66496666667                     : LATITUDE
LONG  .             154.4290166667                      : LONGITUDE
GDAT  .                                                 : GEODETIC DATUM

~TOPS_PARAMETER 
#MNEM.UNIT                    VALUE                        DESCRIPTION
#--------------- ---         ------------                 -----------------

~TOPS_DEFINITION 
#MNEM.UNIT                 LOG CODE                  CURVE DESCRIPTION
#----------- ----         ------------              -----------------
DEPTH       .M                                      :     {F}
TOPS        .                                       : Values changed using TEXT_EDIT    {S30}

~TOPS_DATA | TOPS_DEFINITION
        4.1000,Doyles Creek Subgroup         
      419.4682,Horseshoe Creek Subgroup      
      501.5000,Apple Tree Flat Subgroup      
      733.3034,Watts Sandstone               
      745.0000,Denman Fm                     
      897.5169,Mt Leonard Fm                 
      988.0000,Althorpe Fm                   
      998.0000,Malabar Fm                    
     1032.6344,Mt Ogilvie Fm                 
     1072.6279,Milbrodale Fm                 
     1154.0702,Mt Thorley Fm                 
     1199.0000,Burnamwood Fm                 
     1301.8490,Archerfield Sandstone         
     1319.7432,Mulbring Siltstone            
     1392.5000,Muree Sandstone               
     1501.0000,Branxton Fm                   
     1543.2499,Greta Coal Measures           
     1558.5020,Dalwood Group                 
     1568.0780,                              

~PARAMETER 
#MNEM.UNIT                    VALUE                        DESCRIPTION
#--------------- ---         ------------                 -----------------

~CURVE 
#MNEM.UNIT                 LOG CODE                  CURVE DESCRIPTION
#----------- ----         ------------              -----------------
DEPTH       .M                                      :     {F}
DT          .US/F                                   : Loaded from LIS tape.  Reversed.    {F}
GR          .GAPI                                   : Loaded from LIS tape.  Reversed. (GR_2 Cleared: 1 Segment)    {F}
LLD         .OHMM                                   : Loaded from LIS tape.  Reversed.    {F}
LLS         .OHMM                                   : Loaded from LIS tape.  Reversed.    {F}
NPHI        .V/V                                    : Loaded from LIS tape.  Reversed.    {F}
RHOB        .K/M3                                   : Offset applied to log data.    {F}

~ASCII | CURVE 
# ...
    655.685686,      128.0240,       91.7556,        1.6929,        1.4568,      0.420898,     2256.8440
    655.838101,      128.6250,       90.1952,        1.6929,        1.4376,      0.415828,     2263.0940
    655.990516,      128.6750,       95.6701,        1.6721,        1.4179,      0.406259,     2268.5540
    656.142932,      128.9000,       98.3023,        1.6518,        1.4165,      0.415064,     2270.1240
    656.295347,      128.5740,      101.2280,        1.6801,        1.4363,      0.423807,     2266.2240
    656.447762,      127.3000,      101.7510,        1.6996,        1.4524,      0.416110,     2265.0540
    656.600177,      126.6250,       99.7499,        1.6936,        1.4435,      0.405964,     2258.4140
    656.752593,      126.5250,       98.6301,        1.7049,        1.4611,      0.379586,     2250.6040
    656.905008,      126.7260,       98.1310,        1.6874,        1.4611,      0.388795,     2248.2530
    657.057423,      127.5510,       98.6925,        1.6803,        1.4587,      0.406175,     2257.2540
    657.209838,      128.1000,       96.5756,        1.6982,        1.4632,      0.418849,     2270.9140
    657.362253,      128.2000,       98.3503,        1.7081,        1.4581,      0.412295,     2278.3330
    657.514669,      127.9250,      101.5190,        1.7271,        1.4873,      0.391512,     2275.5940
    657.667084,      127.4740,      103.8170,        1.7349,        1.5083,      0.390351,     2272.4730
    657.819499,      126.9490,       99.6793,        1.7488,        1.5185,      0.406297,     2272.8740
    657.971914,      126.6000,       97.2750,        1.7630,        1.5289,      0.416398,     2276.7740
    658.124329,      126.8000,       96.9618,        1.7581,        1.5193,      0.404579,     2277.5430
    658.276745,      127.1750,       97.1618,        1.7018,        1.4896,      0.391119,     2273.6440
    658.429160,      127.9770,       97.4453,        1.6647,        1.4564,      0.388611,     2272.0840
    658.581575,      128.7520,       95.7972,        1.6591,        1.4482,      0.397949,     2279.5430
    658.733990,      129.2750,       93.7457,        1.6753,        1.4662,      0.400496,     2288.0940
    658.886405,      129.2990,       93.0169,        1.7268,        1.5291,      0.396066,     2285.3540
    659.038821,      128.7000,       94.5749,        1.8179,        1.6148,      0.397466,     2274.4140
    659.191236,      128.2500,       96.4806,        1.9095,        1.6935,      0.410297,     2259.1740
    659.343651,      127.9480,      101.1060,        1.9809,        1.7367,      0.402861,     2254.0940
    659.496066,      128.0020,      103.9820,        1.9797,        1.7364,      0.395548,     2254.9040
    659.648481,      128.8500,      104.3660,        1.8876,        1.6676,      0.392851,     2262.7240
    659.800897,      129.0500,       99.2216,        1.7629,        1.6127,      0.417969,     2270.5230
    659.953312,      128.9740,       93.5042,        1.7271,        1.5976,      0.426241,     2271.2630
    660.105727,      127.1360,       88.6274,        1.8834,        1.7090,      0.423702,     2263.0840
    660.258142,      122.2360,       85.2409,        2.1790,        1.9807,      0.398320,     2260.3640
    660.410557,      117.5950,       86.0312,        2.4720,        2.2383,      0.392280,     2280.3940
    660.562973,      115.9990,       92.4672,        2.5740,        2.3350,      0.384845,     2333.4740
    660.715388,      117.1140,       95.9724,        2.3807,        2.1937,      0.372136,     2385.1040
    660.867803,      121.7870,       95.5055,        2.0720,        1.9180,      0.365413,     2393.4440
    661.020218,      126.1170,       94.8531,        1.8424,        1.7165,      0.374199,     2351.2140
    661.172634,      127.6790,       98.0738,        1.7651,        1.6459,      0.397407,     2301.2730
    661.325049,      128.5500,       98.1639,        1.7802,        1.6466,      0.406934,     2271.2730
    661.477464,      128.7770,       95.5536,        1.7579,        1.6247,      0.403673,     2259.5840
    661.629879,      128.6460,       90.9881,        1.7562,        1.5981,      0.388366,     2261.1640
    661.782294,      127.2680,       89.1975,        1.7777,        1.6235,      0.366250,     2268.2140
    661.934710,      126.2520,       86.3619,        1.8222,        1.6620,      0.356848,     2278.3540
    662.087125,      126.4240,       87.9339,        1.8438,        1.6781,      0.376952,     2286.9440
    662.239540,      125.7200,       93.5752,        1.8463,        1.7027,      0.401239,     2293.5730
    662.391955,      125.4290,      100.8450,        1.8439,        1.6715,      0.397857,     2290.7840
    662.544370,      126.0260,      102.6050,        1.8258,        1.6360,      0.386215,     2286.5430
    662.696786,      126.3000,       95.9797,        1.8190,        1.6362,      0.376051,     2288.8740
    662.849201,      126.6770,       89.7677,        1.7970,        1.6215,      0.385532,     2293.5940
    663.001616,      127.1760,       87.9477,        1.7947,        1.5991,      0.384106,     2295.8440
    663.154031,      127.5030,       92.8821,        1.7819,        1.5733,      0.388897,     2288.8740
    663.306446,      128.1780,      102.1680,        1.7493,        1.5433,      0.392879,     2284.1340
    663.458862,      128.6250,      105.5090,        1.7204,        1.4878,      0.398386,     2277.9440
    663.611277,      128.1710,      106.3590,        1.7137,        1.4905,      0.402423,     2276.7540
    663.763692,      127.3990,      103.0500,        1.7037,        1.4897,      0.404871,     2270.8740
    663.916107,      127.1490,       97.1325,        1.7276,        1.5094,      0.410403,     2261.8440
    664.068522,      127.1010,       90.4569,        1.8031,        1.5795,      0.403193,     2253.7240
    664.220938,      127.4020,       85.4926,        1.8603,        1.6363,      0.401391,     2258.4640
    664.373353,      127.2720,       87.5882,        1.9330,        1.6905,      0.404297,     2271.7430
    664.525768,      126.2930,       92.4422,        1.9898,        1.7141,      0.399336,     2283.4440
    664.678183,      125.6250,       96.9084,        1.9456,        1.6762,      0.385144,     2284.5440
    664.830598,      125.3720,       97.6875,        1.8896,        1.6568,      0.376385,     2281.0630
    664.983014,      125.1010,       96.0662,        1.8696,        1.6584,      0.388116,     2281.8540
    665.135429,      125.0480,       94.7231,        1.8790,        1.6621,      0.410829,     2286.1740
    665.287844,      124.9030,       96.0720,        1.9028,        1.6602,      0.420161,     2292.4240
    665.440259,      125.0230,       96.0668,        1.9350,        1.6897,      0.413938,     2297.1140
    665.592674,      124.4690,       93.4451,        1.9572,        1.7136,      0.404687,     2299.0140
    665.745090,      123.6210,       89.4430,        1.9950,        1.7442,      0.388983,     2295.8940
    665.897505,      122.3400,       89.2413,        2.0910,        1.8318,      0.383625,     2293.9440
    666.049920,      120.0330,       89.4235,        2.1711,        1.9232,      0.390878,     2295.1740
    666.202335,      118.0400,       90.1157,        2.1803,        1.9169,      0.400481,     2303.4140
    666.354751,      117.3400,       88.7812,        2.1786,        1.8860,      0.391449,     2321.4740
    666.507166,      118.0700,       89.8575,        2.1538,        1.8651,      0.354383,     2343.2540
    666.659581,      120.0780,       90.4612,        2.0286,        1.7864,      0.342280,     2345.8330
    666.811996,      122.4220,       93.0401,        1.9660,        1.7253,      0.370752,     2326.5530
    666.964411,      122.6410,       96.5156,        2.0267,        1.7779,      0.405447,     2304.7830
    667.116827,      121.9880,       99.3210,        2.0659,        1.8217,      0.412697,     2295.8940
    667.269242,      121.9860,      101.0560,        2.0811,        1.8316,      0.393372,     2294.7340
