~Version
VERS  .             3.0                                 : CWLS LOG ASCII STANDARD - VERSION 3.0
WRAP  .             NO                                  : One line per depth step
DLM   .             COMMA                               : Delimiter character between data columns
#Delimiting character ( SPACE TAB OR COMMA ).

~Well
#MNEM.UNIT          DATA                                DESCRIPTION
#----- ----        -----------------                   -----------
STRT  .M                45.415200                       : FIRST INDEX VALUE
STOP  .M              1570.939000                       : LAST INDEX VALUE
STEP  .M                 0.152415                       : STEP OF INDEX
NULL  .             -999.25                             : NULL VALUE
COMP  .                                                 : COMPANY
WELL  .             DENEB                               : WELL
FLD   .                                                 : FIELD
LOC   .                                                 : LOCATION
SRVC  .                                                 : SERVICE COMPANY
CTRY  .                                                 : COUNTRY
PROV  .                                                 : PROVINCE
UWI   .                                                 : UNIQUE WELL ID
LIC   .                                                 : LICENSE NUMBER
STAT  .                                                 : STATE
CNTY  .                                                 : COUNTY
API   .                                                 : API NUMBER
DATE  .                                                 : LOG DATE
X     .             652390.6754077                      : X OR EAST-WEST COORDINATE
Y     .             8156955.995978                      : Y OR NORTH-SOUTH COORDINATE
HZCS  .                                                 : HORIZONTAL CO-ORDINATE SYSTEM
LATI  .             -16.66496666667                     : LATITUDE
LONG  .             154.4290166667                      : LONGITUDE
GDAT  .                                                 : GEODETIC DATUM

~TOPS_PARAMETER 
#MNEM.UNIT                    VALUE                        DESCRIPTION
#--------------- ---         ------------                 -----------------

~TOPS_DEFINITION 
#MNEM.UNIT                 LOG CODE                  CURVE DESCRIPTION
#----------- ----         ------------              -----------------
DEPTH       .M                                      :     {F}
TOPS        .                                       : Values changed using TEXT_EDIT    {S30}

~TOPS_DATA | TOPS_DEFINITION
        4.1000,Doyles Creek Subgroup         
      419.4682,Horseshoe Creek Subgroup      
      501.5000,Apple Tree Flat Subgroup      
      733.3034,Watts Sandstone               
      745.0000,Denman Fm                     
      897.5169,Mt Leonard Fm                 
      988.0000,Althorpe Fm                   
      998.0000,Malabar Fm                    
     1032.6344,Mt Ogilvie Fm                 
     1072.6279,Milbrodale Fm                 
     1154.0702,Mt Thorley Fm                 
     1199.0000,Burnamwood Fm                 
     1301.8490,Archerfield Sandstone         
     1319.7432,Mulbring Siltstone            
     1392.5000,Muree Sandstone               
     1501.0000,Branxton Fm                   
     1543.2499,Greta Coal Measures           
     1558.5020,Dalwood Group                 
     1568.0780,                              

~PARAMETER 
#MNEM.UNIT                    VALUE                        DESCRIPTION
#--------------- ---         ------------                 -----------------

~CURVE 
#MNEM.UNIT                 LOG CODE                  CURVE DESCRIPTION
#----------- ----         ------------              -----------------
DEPTH       .M                                      :     {F}
DT          .US/F                                   : Loaded from LIS tape.  Reversed.    {F}
GR          .GAPI                                   : Loaded from LIS tape.  Reversed. (GR_2 Cleared: 1 Segment)    {F}
LLD         .OHMM                                   : Loaded from LIS tape.  Reversed.    {F}
LLS         .OHMM                                   : Loaded from LIS tape.  Reversed.    {F}
NPHI        .V/V                                    : Loaded from LIS tape.  Reversed.    {F}
RHOB        .K/M3                                   : Offset applied to log data.    {F}

~ASCII | CURVE 
# ...
    831.725249,      124.8790,       97.2933,        1.6997,        1.4628,      0.354469,     2287.8140
    831.877665,      125.1930,       96.2093,        1.6919,        1.4519,      0.347711,     2283.9640
    832.030080,      125.5030,       95.6151,        1.6900,        1.4405,      0.348606,     2283.0130
    832.182495,      125.7540,       93.9543,        1.6784,        1.4432,      0.357490,     2286.0440
    832.334910,      125.8110,       94.3952,        1.6697,        1.4228,      0.372491,     2289.8840
    832.487325,      125.8790,       97.6460,        1.6658,        1.4281,      0.369626,     2289.8230
    832.639741,      126.0640,      102.4290,        1.6732,        1.4381,      0.357293,     2289.8840
    832.792156,      125.9960,      102.7450,        1.6770,        1.4108,      0.343235,     2290.8340
    832.944571,      125.8750,      100.0540,        1.6781,        1.4002,      0.339284,     2289.8230
    833.096986,      125.6810,       96.7836,        1.6870,        1.4178,      0.344490,     2290.8940
    833.249401,      125.5000,       95.4461,        1.6921,        1.4462,      0.342964,     2292.7840
    833.401817,      125.4360,       94.9849,        1.6902,        1.4585,      0.347094,     2292.7840
    833.554232,      125.3110,       93.6902,        1.6901,        1.4544,      0.340225,     2284.7430
    833.706647,      125.2500,       92.2901,        1.7035,        1.4597,      0.336698,     2274.1240
    833.859062,      125.3790,       91.1325,        1.7311,        1.4785,      0.334902,     2271.3040
    834.011477,      125.5000,       92.4113,        1.7606,        1.5022,      0.339281,     2275.3330
    834.163893,      125.5640,       92.2725,        1.7712,        1.5127,      0.347282,     2286.1640
    834.316308,      125.4960,       91.9356,        1.7447,        1.4903,      0.353073,     2293.7840
    834.468723,      125.2460,       92.2311,        1.7100,        1.4564,      0.360788,     2293.7240
    834.621138,      124.9310,       93.6293,        1.6987,        1.4456,      0.363921,     2289.7540
    834.773554,      124.7500,       98.2100,        1.6633,        1.4242,      0.378763,     2290.9640
    834.925969,      124.6850,       99.4009,        1.6502,        1.3867,      0.398753,     2295.7440
    835.078384,      124.8180,       97.8585,        1.6444,        1.3692,      0.404678,     2294.6740
    835.230799,      125.0000,       93.3552,        1.6427,        1.3891,      0.390482,     2291.7730
    835.383214,      125.0000,       88.7176,        1.6918,        1.4234,      0.370764,     2286.7840
    835.535630,      125.1290,       91.1123,        1.7354,        1.4594,      0.364847,     2286.0440
    835.688045,      125.1850,       96.9589,        1.7706,        1.4751,      0.361369,     2290.8940
    835.840460,      125.0920,      101.8610,        1.7749,        1.4786,      0.350176,     2299.8440
    835.992875,      124.9000,      101.1070,        1.7221,        1.4589,      0.344202,     2308.4840
    836.145290,      124.5560,       96.0179,        1.6647,        1.4061,      0.348323,     2305.3030
    836.297706,      124.0510,       91.5370,        1.6531,        1.3997,      0.352016,     2301.6040
    836.450121,      122.7160,       91.3575,        1.6955,        1.4432,      0.347539,     2300.5240
    836.602536,      121.2330,       95.3053,        1.7433,        1.4652,      0.336417,     2306.7140
    836.754951,      120.5550,      100.4090,        1.7701,        1.4903,      0.325551,     2319.3330
    836.907366,      120.5700,      100.0240,        1.7861,        1.5344,      0.329358,     2334.1640
    837.059782,      121.2360,       94.7488,        1.7790,        1.5110,      0.332901,     2340.5240
    837.212197,      122.4320,       89.9207,        1.7299,        1.4621,      0.337913,     2330.6240
    837.364612,      123.1580,       86.1661,        1.6761,        1.4379,      0.343700,     2315.9540
    837.517027,      123.2520,       87.1571,        1.6410,        1.3793,      0.347362,     2302.3130
    837.669442,      123.5390,       89.0481,        1.6118,        1.3369,      0.349262,     2298.7240
    837.821858,      123.9770,       90.4385,        1.5773,        1.3221,      0.352759,     2299.5830
    837.974273,      124.5440,       92.0301,        1.5578,        1.3157,      0.356374,     2298.6440
    838.126688,      125.0040,       98.2122,        1.5556,        1.3193,      0.368142,     2292.5740
    838.279103,      125.1900,      107.8050,        1.5482,        1.3349,      0.382384,     2286.9240
    838.431518,      125.0550,      106.5050,        1.5888,        1.3555,      0.388357,     2292.0040
    838.583934,      124.4860,       98.0377,        1.6497,        1.3791,      0.378886,     2301.7630
    838.736349,      123.6710,       88.6077,        1.6610,        1.4074,      0.361906,     2312.5330
    838.888764,      123.3150,       85.0290,        1.6421,        1.3934,      0.362464,     2322.2240
    839.041179,      123.8310,       86.8529,        1.6093,        1.3489,      0.379926,     2321.9140
    839.193594,      124.8350,       87.5177,        1.5541,        1.3069,      0.386756,     2309.0230
    839.346010,      125.8950,       91.2512,        1.4977,        1.2890,      0.382851,     2291.4540
    839.498425,      126.5700,       92.9174,        1.4979,        1.2684,      0.374664,     2278.9640
    839.650840,      126.6850,       95.2234,        1.5199,        1.2683,      0.372796,     2267.1040
    839.803255,      126.4950,       97.7152,        1.5285,        1.2906,      0.373305,     2260.6040
    839.955671,      126.3750,       97.3931,        1.5456,        1.2864,      0.371724,     2262.5540
    840.108086,      126.2450,       94.2354,        1.5674,        1.3116,      0.366108,     2267.5530
    840.260501,      126.3200,       90.9375,        1.6050,        1.3438,      0.362985,     2269.2740
    840.412916,      126.5980,       90.1912,        1.6490,        1.3816,      0.363113,     2269.4240
    840.565331,      126.4590,       91.0984,        1.6858,        1.4337,      0.365003,     2275.3840
    840.717747,      125.6640,       91.8458,        1.7680,        1.4934,      0.373150,     2283.1840
    840.870162,      124.5070,       91.6758,        1.8209,        1.5385,      0.383117,     2292.0140
    841.022577,      123.2220,       92.0275,        1.8068,        1.5279,      0.379724,     2300.7530
    841.174992,      122.1720,       92.4247,        1.7635,        1.4891,      0.359967,     2303.4840
    841.327407,      121.7140,       92.9730,        1.7087,        1.4461,      0.336046,     2302.5430
    841.479823,      121.4620,       96.0624,        1.6617,        1.4020,      0.329377,     2303.5630
    841.632238,      121.5730,       99.7245,        1.6254,        1.3828,      0.342831,     2308.5740
    841.784653,      121.6500,      104.5970,        1.6022,        1.3824,      0.365370,     2314.3540
    841.937068,      121.4350,      107.3370,        1.6031,        1.3748,      0.379883,     2317.2330
    842.089483,      121.2440,      107.7120,        1.6174,        1.3707,      0.385245,     2321.2340
    842.241899,      120.9620,      105.5780,        1.6460,        1.3992,      0.381212,     2330.1540
    842.394314,      120.4860,      102.4640,        1.6704,        1.4330,      0.374576,     2336.7740
    842.546729,      119.6010,      100.8120,        1.6962,        1.4483,      0.363254,     2335.6740
    842.699144,      118.7040,       99.7327,        1.7132,        1.4592,      0.343427,     2331.7640
    842.851559,      118.7350,      100.4880,        1.6913,        1.4558,      0.332615,     2327.8440
    843.003975,      119.3560,      102.3120,        1.6626,        1.4234,      0.336992,     2324.9640
    843.156390,      119.8210,      106.3670,        1.6562,        1.4183,      0.353186,     2318.9340
    843.308805,      119.6410,      104.1480,        1.6539,        1.4277,      0.358760,     2317.3240
