~Version
VERS  .             3.0                                 : CWLS LOG ASCII STANDARD - VERSION 3.0
WRAP  .             NO                                  : One line per depth step
DLM   .             COMMA                               : Delimiter character between data columns
#Delimiting character ( SPACE TAB OR COMMA ).

~Well
#MNEM.UNIT          DATA                                DESCRIPTION
#----- ----        -----------------                   -----------
STRT  .M                45.415200                       : FIRST INDEX VALUE
STOP  .M              1570.939000                       : LAST INDEX VALUE
STEP  .M                 0.152415                       : STEP OF INDEX
NULL  .             -999.25                             : NULL VALUE
COMP  .                                                 : COMPANY
WELL  .             DENEB                               : WELL
FLD   .                                                 : FIELD
LOC   .                                                 : LOCATION
SRVC  .                                                 : SERVICE COMPANY
CTRY  .                                                 : COUNTRY
PROV  .                                                 : PROVINCE
UWI   .                                                 : UNIQUE WELL ID
LIC   .                                                 : LICENSE NUMBER
STAT  .                                                 : STATE
CNTY  .                                                 : COUNTY
API   .                                                 : API NUMBER
DATE  .                                                 : LOG DATE
X     .             652390.6754077                      : X OR EAST-WEST COORDINATE
Y     .             8156955.995978                      : Y OR NORTH-SOUTH COORDINATE
HZCS  .                                                 : HORIZONTAL CO-ORDINATE SYSTEM
LATI  .             -16.66496666667                     : LATITUDE
LONG  .             154.4290166667                      : LONGITUDE
GDAT  .                                                 : GEODETIC DATUM

~TOPS_PARAMETER 
#MNEM.UNIT                    VALUE                        DESCRIPTION
#--------------- ---         ------------                 -----------------

~TOPS_DEFINITION 
#MNEM.UNIT                 LOG CODE                  CURVE DESCRIPTION
#----------- ----         ------------              -----------------
DEPTH       .M                                      :     {F}
TOPS        .                                       : Values changed using TEXT_EDIT    {S30}

~TOPS_DATA | TOPS_DEFINITION
        4.1000,Doyles Creek Subgroup         
      419.4682,Horseshoe Creek Subgroup      
      501.5000,Apple Tree Flat Subgroup      
      733.3034,Watts Sandstone               
      745.0000,Denman Fm                     
      897.5169,Mt Leonard Fm                 
      988.0000,Althorpe Fm                   
      998.0000,Malabar Fm                    
     1032.6344,Mt Ogilvie Fm                 
     1072.6279,Milbrodale Fm                 
     1154.0702,Mt Thorley Fm                 
     1199.0000,Burnamwood Fm                 
     1301.8490,Archerfield Sandstone         
     1319.7432,Mulbring Siltstone            
     1392.5000,Muree Sandstone               
     1501.0000,Branxton Fm                   
     1543.2499,Greta Coal Measures           
     1558.5020,Dalwood Group                 
     1568.0780,                              

~PARAMETER 
#MNEM.UNIT                    VALUE                        DESCRIPTION
#--------------- ---         ------------                 -----------------

~CURVE 
#MNEM.UNIT                 LOG CODE                  CURVE DESCRIPTION
#----------- ----         ------------              -----------------
DEPTH       .M                                      :     {F}
DT          .US/F                                   : Loaded from LIS tape.  Reversed.    {F}
GR          .GAPI                                   : Loaded from LIS tape.  Reversed. (GR_2 Cleared: 1 Segment)    {F}
LLD         .OHMM                                   : Loaded from LIS tape.  Reversed.    {F}
LLS         .OHMM                                   : Loaded from LIS tape.  Reversed.    {F}
NPHI        .V/V                                    : Loaded from LIS tape.  Reversed.    {F}
RHOB        .K/M3                                   : Offset applied to log data.    {F}

~ASCII | CURVE 
# ...
    197.982822,       56.6311,       54.2363,        0.6931,        0.2568,      0.545516,     2171.8340
    198.135237,       56.6687,       53.7818,        0.4998,        0.2514,      0.564170,     2110.5340
    198.287652,       56.5000,       56.2518,        0.4983,        0.2532,      0.602672,     2033.3740
    198.440067,       56.5124,       58.2649,        0.4942,        0.2570,      0.613650,     2024.3740
    198.592482,       56.5934,       58.9846,        0.4886,        0.2577,      0.577835,     2078.0340
    198.744898,       56.3186,       59.0852,        0.4791,        0.2575,      0.503466,     2152.8440
    198.897313,       56.3498,       58.8195,        0.4676,        0.2571,      0.481494,     2196.6940
    199.049728,       56.1443,       60.1846,        0.4589,        0.2570,      0.484042,     2211.7540
    199.202143,       56.3125,       64.2936,        0.4567,        0.2567,      0.502246,     2222.0730
    199.354558,       56.2871,       64.5413,        0.4538,        0.2568,      0.497112,     2234.9540
    199.506974,       56.0687,       63.0653,        0.4491,        0.2575,      0.467381,     2224.8140
    199.659389,       56.1250,       61.1599,        0.4463,        0.2580,      0.468756,     2226.5540
    199.811804,       56.1121,       59.5018,        0.4438,        0.2588,      0.477987,     2210.3540
    199.964219,       56.0438,       61.6593,        0.4408,        0.2612,      0.518749,     2206.4540
    200.116634,       56.4247,       61.7351,        0.4395,        0.2714,      0.507424,     2203.7440
    200.269050,       56.3249,       64.2816,        0.4402,        0.3033,      0.506125,     2211.1440
    200.421465,       56.4884,       60.8319,        0.4574,        0.3999,      0.492041,     2215.4540
    200.573880,       56.7494,       57.6704,        0.4812,        0.6393,      0.541162,     2222.4740
    200.726295,       55.2571,       55.0498,        0.5615,        0.9047,      0.529343,     2223.0640
    200.878710,       56.5787,       55.0605,        0.8723,        0.4115,      0.522683,     2226.3230
    201.031126,       56.0835,       58.4259,        0.2884,        0.1612,      0.504416,     2210.5530
    201.183541,       42.6868,       57.0564,        0.3589,        0.1359,      0.554721,     2230.7640
    201.335956,       63.7150,       58.5868,        0.5387,        0.1382,      0.567005,     2266.4930
    201.488371,       76.2929,       61.3385,        0.6824,        0.2438,      0.558089,     2241.6040
    201.640786,       94.6316,       70.1925,        1.3763,        0.7299,      0.544116,     2234.2640
    201.793202,      130.6250,       75.8251,        1.1343,        2.8588,      0.535937,     2196.1040
    201.945617,      136.9950,       82.3883,        0.9458,        1.9793,      0.521177,     2151.3540
    202.098032,      143.9190,       85.2114,        1.7697,        1.3130,      0.482994,     2136.5630
    202.250447,      147.7030,       89.7701,        1.5944,        1.2523,      0.470248,     2067.7430
    202.402863,      150.7310,       89.6511,        1.4695,        1.2884,      0.461307,     2046.2840
    202.555278,      160.1440,       81.7220,        1.3695,        1.3192,      0.457331,     2042.3940
    202.707693,      149.0480,       75.8503,        1.4693,        1.4814,      0.467490,     2038.4740
    202.860108,      147.2430,       70.9013,        1.9039,        1.9817,      0.459525,     2034.1540
    203.012523,      135.8510,       71.8237,        2.7897,        2.9288,      0.485711,     2026.9540
    203.164939,      118.3360,       67.6646,        4.1943,        4.1532,      0.490417,     2031.5140
    203.317354,      100.5370,       59.2484,        4.8434,        4.3684,      0.456982,     2099.1740
    203.469769,       89.0011,       58.4889,        3.3194,        3.0839,      0.359397,     2236.5940
    203.622184,       93.7706,       65.2327,        2.1659,        2.0295,      0.271099,     2393.8440
    203.774599,      107.9530,       75.6125,        1.5742,        1.4841,      0.277836,     2391.6340
    203.927015,      120.6410,       80.3918,        1.4327,        1.2501,      0.337790,     2254.2040
    204.079430,      130.3320,       85.1043,        1.3851,        1.1465,      0.414637,     2151.2740
    204.231845,      134.3750,       87.7527,        1.3247,        1.0415,      0.435230,     2089.1740
    204.384260,      134.4280,       88.2195,        1.3291,        1.0281,      0.416186,     2065.4730
    204.536675,      134.8110,       87.5213,        1.4026,        1.0520,      0.384615,     2039.9640
    204.689091,      134.5390,       88.6247,        1.4963,        1.0661,      0.385304,     2013.8040
    204.841506,      137.1150,       91.0857,        1.5581,        1.0682,      0.404536,     1999.0140
    204.993921,      138.1900,       84.5566,        1.6153,        1.0816,      0.423061,     1991.5940
    205.146336,      138.7230,       83.0571,        1.6367,        1.0742,      0.416400,     1987.4640
    205.298751,      138.3830,       80.4385,        1.6725,        1.0615,      0.414110,     1980.9140
    205.451167,      137.2830,       85.3587,        1.6713,        1.0369,      0.402319,     1969.6440
    205.603582,      136.3850,       86.1216,        1.7592,        1.0225,      0.406851,     1970.4140
    205.755997,      135.4010,       89.5000,        1.9017,        1.0142,      0.410567,     1971.4940
    205.908412,      135.8130,       90.4485,        1.9590,        0.9575,      0.398404,     1987.8840
    206.060827,      137.4660,       89.0184,        1.9664,        0.9405,      0.405894,     1985.3340
    206.213243,      138.2900,       84.5764,        1.9397,        0.9095,      0.405372,     1976.0540
    206.365658,      138.5090,       82.0496,        1.8626,        0.8766,      0.425249,     1956.0440
    206.518073,      137.2490,       82.1226,        1.8344,        0.8506,      0.412057,     1950.0640
    206.670488,      135.0580,       84.1186,        1.8182,        0.8494,      0.412305,     1960.3840
    206.822903,      134.4350,       87.7333,        1.8617,        0.8786,      0.418378,     1973.3440
    206.975319,      133.9950,       88.4983,        1.9336,        0.8873,      0.420000,     1970.9140
    207.127734,      135.0130,       91.3727,        1.9338,        0.8765,      0.405207,     1957.8240
    207.280149,      135.1120,       89.0082,        1.8887,        0.8562,      0.415317,     1958.6540
    207.432564,      135.0540,       87.0331,        1.8477,        0.8407,      0.435562,     1966.0540
    207.584980,      135.2630,       83.1744,        1.9011,        0.8734,      0.445855,     1969.1340
    207.737395,      133.2370,       83.6585,        2.0992,        0.9511,      0.429217,     1966.3640
    207.889810,      133.2030,       88.2870,        2.4225,        1.0995,      0.422398,     1973.0830
    208.042225,      133.9420,       85.3083,        2.7602,        1.2744,      0.398868,     1983.5440
    208.194640,      134.6090,       84.3693,        2.9432,        1.3689,      0.409477,     2030.7640
    208.347056,      135.5790,       81.5075,        2.8775,        1.3679,      0.404338,     2064.9040
    208.499471,      136.1150,       83.1963,        2.7655,        1.3341,      0.444208,     2101.2340
    208.651886,      134.9610,       78.9878,        2.6203,        1.2812,      0.463073,     2084.6240
    208.804301,      134.7320,       78.2415,        2.4584,        1.1922,      0.458197,     2090.7730
    208.956716,      135.5980,       82.6251,        2.2974,        1.1386,      0.438066,     2082.9540
    209.109132,      135.3620,       88.9847,        2.2000,        1.0934,      0.428831,     2075.5740
    209.261547,      135.1820,       86.3512,        2.1512,        1.0790,      0.445919,     2071.2340
    209.413962,      134.4810,       82.8722,        2.2003,        1.1150,      0.438564,     2065.2930
    209.566377,      133.1690,       81.1961,        2.3402,        1.1501,      0.399908,     2073.6140
