~Version
VERS  .             3.0                                 : CWLS LOG ASCII STANDARD - VERSION 3.0
WRAP  .             NO                                  : One line per depth step
DLM   .             COMMA                               : Delimiter character between data columns
#Delimiting character ( SPACE TAB OR COMMA ).

~Well
#MNEM.UNIT          DATA                                DESCRIPTION
#----- ----        -----------------                   -----------
STRT  .M                45.415200                       : FIRST INDEX VALUE
STOP  .M              1570.939000                       : LAST INDEX VALUE
STEP  .M                 0.152415                       : STEP OF INDEX
NULL  .             -999.25                             : NULL VALUE
COMP  .                                                 : COMPANY
WELL  .             DENEB                               : WELL
FLD   .                                                 : FIELD
LOC   .                                                 : LOCATION
SRVC  .                                                 : SERVICE COMPANY
CTRY  .                                                 : COUNTRY
PROV  .                                                 : PROVINCE
UWI   .                                                 : UNIQUE WELL ID
LIC   .                                                 : LICENSE NUMBER
STAT  .                                                 : STATE
CNTY  .                                                 : COUNTY
API   .                                                 : API NUMBER
DATE  .                                                 : LOG DATE
X     .             652390.6754077                      : X OR EAST-WEST COORDINATE
Y     .             8156955.995978                      : Y OR NORTH-SOUTH COORDINATE
HZCS  .                                                 : HORIZONTAL CO-ORDINATE SYSTEM
LATI  .             -16.66496666667                     : LATITUDE
LONG  .             154.4290166667                      : LONGITUDE
GDAT  .                                                 : GEODETIC DATUM

~TOPS_PARAMETER 
#MNEM.UNIT                    VALUE                        DESCRIPTION
#--------------- ---         ------------                 -----------------

~TOPS_DEFINITION 
#MNEM.UNIT                 LOG CODE                  CURVE DESCRIPTION
#----------- ----         ------------              -----------------
DEPTH       .M                                      :     {F}
TOPS        .                                       : Values changed using TEXT_EDIT    {S30}

~TOPS_DATA | TOPS_DEFINITION
        4.1000,Doyles Creek Subgroup         
      419.4682,Horseshoe Creek Subgroup      
      501.5000,Apple Tree Flat Subgroup      
      733.3034,Watts Sandstone               
      745.0000,Denman Fm                     
      897.5169,Mt Leonard Fm                 
      988.0000,Althorpe Fm                   
      998.0000,Malabar Fm                    
     1032.6344,Mt Ogilvie Fm                 
     1072.6279,Milbrodale Fm                 
     1154.0702,Mt Thorley Fm                 
     1199.0000,Burnamwood Fm                 
     1301.8490,Archerfield Sandstone         
     1319.7432,Mulbring Siltstone            
     1392.5000,Muree Sandstone               
     1501.0000,Branxton Fm                   
     1543.2499,Greta Coal Measures           
     1558.5020,Dalwood Group                 
     1568.0780,                              

~PARAMETER 
#MNEM.UNIT                    VALUE                        DESCRIPTION
#--------------- ---         ------------                 -----------------

~CURVE 
#MNEM.UNIT                 LOG CODE                  CURVE DESCRIPTION
#----------- ----         ------------              -----------------
DEPTH       .M                                      :     {F}
DT          .US/F                                   : Loaded from LIS tape.  Reversed.    {F}
GR          .GAPI                                   : Loaded from LIS tape.  Reversed. (GR_2 Cleared: 1 Segment)    {F}
LLD         .OHMM                                   : Loaded from LIS tape.  Reversed.    {F}
LLS         .OHMM                                   : Loaded from LIS tape.  Reversed.    {F}
NPHI        .V/V                                    : Loaded from LIS tape.  Reversed.    {F}
RHOB        .K/M3                                   : Offset applied to log data.    {F}

~ASCII | CURVE 
# ...
    561.797919,      123.9010,       96.4050,        2.1513,        1.7829,      0.372001,     2258.0730
    561.950334,      124.2480,       94.1963,        2.1636,        1.7729,      0.378531,     2234.1640
    562.102749,      124.0860,       92.2270,        2.1716,        1.7715,      0.369112,     2228.9640
    562.255165,      124.3950,       92.9473,        2.1614,        1.7994,      0.364577,     2228.3440
    562.407580,      123.9550,       94.0891,        2.1814,        1.8218,      0.371566,     2236.8740
    562.559995,      123.3730,       92.4587,        2.2163,        1.8438,      0.392341,     2249.8840
    562.712410,      122.9140,       92.3520,        2.2454,        1.8590,      0.401037,     2263.5730
    562.864825,      122.5000,       93.4174,        2.2279,        1.8475,      0.401714,     2275.8640
    563.017241,      122.7740,       96.1257,        2.1605,        1.8145,      0.405778,     2277.1540
    563.169656,      123.6950,       97.8432,        2.0966,        1.7729,      0.410682,     2271.8440
    563.322071,      124.7350,      101.2570,        2.0450,        1.7175,      0.411892,     2262.1940
    563.474486,      125.7140,      101.4090,        1.9983,        1.6997,      0.406242,     2263.4840
    563.626901,      126.7970,       99.4823,        1.9721,        1.6947,      0.403782,     2263.4840
    563.779317,      127.5020,       96.4872,        1.9546,        1.6957,      0.399230,     2259.5240
    563.931732,      127.7930,       96.2230,        1.9519,        1.6742,      0.393669,     2252.4340
    564.084147,      127.8750,       98.8382,        1.9621,        1.6675,      0.383169,     2251.7230
    564.236562,      127.8750,       98.3278,        1.9495,        1.6373,      0.366613,     2249.8540
    564.388978,      128.0870,       99.4464,        1.9244,        1.6360,      0.367218,     2248.4140
    564.541393,      128.3730,       98.0598,        1.9422,        1.6164,      0.394141,     2238.0940
    564.693808,      127.9550,       94.7690,        1.9338,        1.6396,      0.413540,     2232.7730
    564.846223,      127.4970,       86.5437,        1.9377,        1.6623,      0.427805,     2223.8040
    564.998638,      127.0800,       81.1803,        2.0034,        1.6720,      0.433096,     2229.6940
    565.151054,      126.7500,       81.4156,        1.9734,        1.6416,      0.430634,     2238.8030
    565.303469,      127.0460,       86.0849,        1.9391,        1.6226,      0.414838,     2245.9330
    565.455884,      127.7530,       92.1613,        1.9165,        1.5960,      0.384148,     2243.1440
    565.608299,      128.2990,       94.4630,        1.8706,        1.5704,      0.385385,     2229.6140
    565.760714,      128.9600,       97.7346,        1.8750,        1.5393,      0.407705,     2221.6940
    565.913130,      128.9120,       98.2270,        1.8428,        1.5546,      0.415722,     2209.4640
    566.065545,      128.5850,       93.9734,        1.8748,        1.5760,      0.425157,     2206.1140
    566.217960,      128.6220,       91.4537,        1.9191,        1.5942,      0.405495,     2201.7540
    566.370375,      128.2040,       89.6294,        1.9887,        1.5982,      0.391444,     2211.4240
    566.522790,      127.4920,       92.5741,        2.0129,        1.6585,      0.377055,     2215.3640
    566.675206,      127.0490,       93.1149,        2.0005,        1.6844,      0.374414,     2219.8440
    566.827621,      127.2220,       95.2194,        2.0293,        1.7114,      0.381707,     2219.8940
    566.980036,      126.8230,       94.0805,        2.0024,        1.7065,      0.385087,     2222.4740
    567.132451,      126.6410,       91.9466,        1.9690,        1.6910,      0.387444,     2221.1340
    567.284866,      129.2680,       88.9324,        2.0273,        1.7460,      0.390579,     2216.5640
    567.437282,      138.3050,       89.2676,        2.1703,        1.8213,      0.384216,     2214.7040
    567.589697,      138.7370,       87.3963,        2.2235,        1.9019,      0.378897,     2219.8940
    567.742112,      135.5720,       88.3589,        2.3204,        2.0366,      0.382785,     2225.8230
    567.894527,      130.8880,       90.7043,        2.4607,        2.1036,      0.389576,     2243.6340
    568.046942,      128.7860,       93.3076,        2.5799,        2.1082,      0.376423,     2281.4640
    568.199358,      128.8880,       95.5886,        2.3559,        2.0068,      0.347319,     2327.0140
    568.351773,      132.3870,       96.2470,        2.0399,        1.7926,      0.323430,     2346.6340
    568.504188,      139.1380,       98.5698,        1.9105,        1.6073,      0.333396,     2312.4640
    568.656603,      143.5240,       97.3224,        1.8578,        1.5487,      0.357882,     2262.9930
    568.809018,      145.3420,       98.8008,        1.8198,        1.5191,      0.395180,     2228.8940
    568.961434,      146.3000,      100.2080,        1.7470,        1.5197,      0.425295,     2219.7930
    569.113849,      147.0030,      101.8330,        1.7112,        1.5128,      0.414229,     2212.6540
    569.266264,      147.1640,       97.2932,        1.8159,        1.5325,      0.398433,     2208.1340
    569.418679,      146.8280,       96.2343,        1.8856,        1.5421,      0.379781,     2208.8640
    569.571095,      146.5000,       90.1059,        1.8522,        1.5497,      0.406848,     2216.0540
    569.723510,      146.8000,       85.2104,        1.8387,        1.5425,      0.421924,     2224.4840
    569.875925,      147.7170,       80.2267,        1.8447,        1.5026,      0.426027,     2227.6640
    570.028340,      148.3750,       80.4195,        1.8337,        1.5209,      0.394800,     2223.0140
    570.180755,      148.6340,       84.5496,        1.8188,        1.4857,      0.367019,     2212.5730
    570.333171,      149.0390,       85.9653,        1.7587,        1.4627,      0.368818,     2203.5540
    570.485586,      149.0470,       89.9606,        1.7265,        1.4379,      0.399352,     2200.9840
    570.638001,      149.2890,       94.8750,        1.6515,        1.3939,      0.414011,     2204.3230
    570.790416,      149.2970,       95.7478,        1.6450,        1.3705,      0.411840,     2213.4440
    570.942831,      149.3660,       93.0347,        1.6300,        1.3372,      0.416051,     2218.5630
    571.095247,      148.8320,       90.3965,        1.6547,        1.3603,      0.420990,     2214.5330
    571.247662,      148.6210,       91.4486,        1.7175,        1.4140,      0.423061,     2199.4540
    571.400077,      147.3470,       92.0046,        1.8202,        1.4992,      0.422038,     2185.3640
    571.552492,      143.7780,       88.6627,        1.9272,        1.5873,      0.432751,     2185.3640
    571.704907,      139.8850,       88.6093,        2.0187,        1.6732,      0.423216,     2192.7930
    571.857323,      137.7770,       91.4713,        2.0972,        1.7430,      0.396942,     2209.5340
    572.009738,      136.5730,       92.3793,        2.1550,        1.7918,      0.371112,     2220.7140
    572.162153,      135.2280,       92.6036,        2.2080,        1.8295,      0.375693,     2232.9040
    572.314568,      133.1450,       93.7081,        2.2370,        1.8411,      0.398027,     2236.8940
    572.466983,      132.3030,       96.2213,        2.2206,        1.8190,      0.387806,     2242.6840
    572.619399,      132.9610,       95.1729,        2.1860,        1.7907,      0.366348,     2249.3440
    572.771814,      134.4190,       92.3258,        2.1260,        1.7686,      0.356810,     2258.2330
    572.924229,      137.6480,       92.0317,        2.0832,        1.7803,      0.378463,     2254.3340
    573.076644,      138.7350,       90.0841,        2.1480,        1.8389,      0.382362,     2250.4140
    573.229059,      137.9570,       89.4314,        2.2197,        1.8621,      0.369884,     2248.5440
    573.381475,      138.0040,       90.5632,        2.2166,        1.8546,      0.350022,     2250.4840
