~Version
VERS  .             3.0                                 : CWLS LOG ASCII STANDARD - VERSION 3.0
WRAP  .             NO                                  : One line per depth step
DLM   .             COMMA                               : Delimiter character between data columns
#Delimiting character ( SPACE TAB OR COMMA ).

~Well
#MNEM.UNIT          DATA                                DESCRIPTION
#----- ----        -----------------                   -----------
STRT  .M                45.415200                       : FIRST INDEX VALUE
STOP  .M              1570.939000                       : LAST INDEX VALUE
STEP  .M                 0.152415                       : STEP OF INDEX
NULL  .             -999.25                             : NULL VALUE
COMP  .                                                 : COMPANY
WELL  .             DENEB                               : WELL
FLD   .                                                 : FIELD
LOC   .                                                 : LOCATION
SRVC  .                                                 : SERVICE COMPANY
CTRY  .                                                 : COUNTRY
PROV  .                                                 : PROVINCE
UWI   .                                                 : UNIQUE WELL ID
LIC   .                                                 : LICENSE NUMBER
STAT  .                                                 : STATE
CNTY  .                                                 : COUNTY
API   .                                                 : API NUMBER
DATE  .                                                 : LOG DATE
X     .             652390.6754077                      : X OR EAST-WEST COORDINATE
Y     .             8156955.995978                      : Y OR NORTH-SOUTH COORDINATE
HZCS  .                                                 : HORIZONTAL CO-ORDINATE SYSTEM
LATI  .             -16.66496666667                     : LATITUDE
LONG  .             154.4290166667                      : LONGITUDE
GDAT  .                                                 : GEODETIC DATUM

~TOPS_PARAMETER 
#MNEM.UNIT                    VALUE                        DESCRIPTION
#--------------- ---         ------------                 -----------------

~TOPS_DEFINITION 
#MNEM.UNIT                 LOG CODE                  CURVE DESCRIPTION
#----------- ----         ------------              -----------------
DEPTH       .M                                      :     {F}
TOPS        .                                       : Values changed using TEXT_EDIT    {S30}

~TOPS_DATA | TOPS_DEFINITION
        4.1000,Doyles Creek Subgroup         
      419.4682,Horseshoe Creek Subgroup      
      501.5000,Apple Tree Flat Subgroup      
      733.3034,Watts Sandstone               
      745.0000,Denman Fm                     
      897.5169,Mt Leonard Fm                 
      988.0000,Althorpe Fm                   
      998.0000,Malabar Fm                    
     1032.6344,Mt Ogilvie Fm                 
     1072.6279,Milbrodale Fm                 
     1154.0702,Mt Thorley Fm                 
     1199.0000,Burnamwood Fm                 
     1301.8490,Archerfield Sandstone         
     1319.7432,Mulbring Siltstone            
     1392.5000,Muree Sandstone               
     1501.0000,Branxton Fm                   
     1543.2499,Greta Coal Measures           
     1558.5020,Dalwood Group                 
     1568.0780,                              

~PARAMETER 
#MNEM.UNIT                    VALUE                        DESCRIPTION
#--------------- ---         ------------                 -----------------

~CURVE 
#MNEM.UNIT                 LOG CODE                  CURVE DESCRIPTION
#----------- ----         ------------              -----------------
DEPTH       .M                                      :     {F}
DT          .US/F                                   : Loaded from LIS tape.  Reversed.    {F}
GR          .GAPI                                   : Loaded from LIS tape.  Reversed. (GR_2 Cleared: 1 Segment)    {F}
LLD         .OHMM                                   : Loaded from LIS tape.  Reversed.    {F}
LLS         .OHMM                                   : Loaded from LIS tape.  Reversed.    {F}
NPHI        .V/V                                    : Loaded from LIS tape.  Reversed.    {F}
RHOB        .K/M3                                   : Offset applied to log data.    {F}

~ASCII | CURVE 
# ...
   1465.467677,       81.1420,       90.2851,       26.9854,       16.5908,      0.166949,     2393.2830
   1465.620092,       81.2411,       94.8891,       27.3837,       16.7548,      0.179271,     2381.6440
   1465.772508,       81.3082,       97.9847,       29.4284,       17.9067,      0.181994,     2389.7730
   1465.924923,       81.1965,       93.1437,       30.9202,       18.8348,      0.182582,     2377.7540
   1466.077338,       81.3618,       90.4254,       30.6913,       18.8381,      0.187157,     2376.7630
   1466.229753,       81.6664,       86.2282,       29.8215,       18.2599,      0.187500,     2364.0140
   1466.382168,       81.8617,       91.8031,       28.0410,       17.0817,      0.182056,     2375.7940
   1466.534584,       81.9332,       92.9486,       26.9260,       16.4415,      0.172999,     2378.5940
   1466.686999,       81.7055,       89.6937,       27.2350,       16.5569,      0.175082,     2382.3440
   1466.839414,       81.3386,       85.1346,       28.0921,       16.9038,      0.173930,     2380.8130
   1466.991829,       81.0792,       78.8641,       29.9923,       17.7307,      0.176562,     2369.7330
   1467.144245,       81.2949,       79.4253,       30.7732,       18.3118,      0.173580,     2378.0340
   1467.296660,       82.0115,       80.2572,       28.7952,       17.3719,      0.186992,     2376.8940
   1467.449075,       82.0045,       84.3171,       27.2048,       16.5624,      0.201137,     2384.0240
   1467.601490,       81.7673,       83.9269,       27.3019,       16.4207,      0.206693,     2373.6740
   1467.753905,       81.6917,       87.8428,       27.0413,       16.0240,      0.195635,     2367.3940
   1467.906321,       81.9201,       87.8924,       26.7654,       15.5990,      0.178927,     2368.8140
   1468.058736,       82.0541,       88.9240,       27.3733,       15.8061,      0.190028,     2374.4140
   1468.211151,       82.1206,       88.7677,       26.7880,       15.5981,      0.188650,     2373.0040
   1468.363566,       82.2414,       87.5276,       25.9215,       15.1163,      0.201665,     2372.8640
   1468.515981,       82.6003,       87.5543,       27.0020,       15.5799,      0.193515,     2367.3940
   1468.668397,       82.6250,       83.6070,       27.0322,       15.4207,      0.201051,     2361.5540
   1468.820812,       82.9749,       85.7032,       25.8330,       14.5032,      0.209405,     2350.2140
   1468.973227,       83.2324,       89.8839,       24.9717,       13.8316,      0.206784,     2342.1640
   1469.125642,       83.5412,       93.9732,       24.5251,       13.4523,      0.197442,     2343.4340
   1469.278057,       83.6793,       92.5561,       24.6083,       13.3939,      0.184912,     2350.8640
   1469.430473,       83.1637,       89.6439,       25.8109,       13.7755,      0.194539,     2378.6540
   1469.582888,       82.8333,       87.1622,       27.2260,       14.0103,      0.205796,     2395.2640
   1469.735303,       82.5800,       89.6740,       28.8656,       14.5243,      0.205180,     2396.3040
   1469.887718,       82.9121,       92.2059,       29.2449,       14.7676,      0.206444,     2378.0840
   1470.040133,       83.5219,       92.7257,       27.6892,       14.6818,      0.214305,     2354.8540
   1470.192549,       83.7954,       87.1599,       25.7057,       14.2297,      0.218938,     2347.8740
   1470.344964,       84.6297,       86.6916,       23.9701,       13.6855,      0.216502,     2342.0030
   1470.497379,       84.9202,       86.8038,       22.4419,       12.9279,      0.217217,     2339.7940
   1470.649794,       84.8209,       88.5616,       21.7542,       12.3265,      0.225939,     2332.3640
   1470.802209,       84.6371,       88.7460,       22.8829,       12.4190,      0.224735,     2326.3640
   1470.954625,       83.6928,       88.2839,       25.6981,       13.3613,      0.216872,     2324.1640
   1471.107040,       82.9825,       92.2215,       29.4257,       14.6335,      0.219046,     2334.9840
   1471.259455,       82.7047,       93.2565,       32.2739,       16.1684,      0.209691,     2350.2930
   1471.411870,       82.4542,       90.5124,       33.7127,       17.9790,      0.215364,     2367.7830
   1471.564285,       81.9695,       89.4349,       33.1020,       19.0376,      0.203936,     2370.7830
   1471.716701,       81.7626,       90.0745,       31.5945,       18.5319,      0.207679,     2376.3740
   1471.869116,       81.6916,       93.2805,       31.3500,       18.2575,      0.203899,     2374.9440
   1472.021531,       81.7457,       93.0924,       30.8636,       18.0466,      0.208616,     2371.1740
   1472.173946,       81.6333,       93.5294,       29.8386,       17.4756,      0.203513,     2356.3140
   1472.326362,       81.8591,       93.8552,       28.7931,       16.9217,      0.204954,     2353.4540
   1472.478777,       81.7583,       96.3246,       27.9375,       16.3863,      0.201433,     2356.9740
   1472.631192,       81.8085,       91.3549,       27.8765,       16.2582,      0.213048,     2349.9240
   1472.783607,       81.3465,       91.4660,       27.7693,       16.2356,      0.217053,     2349.4240
   1472.936022,       81.4877,       93.3687,       27.7337,       16.2215,      0.212267,     2351.2440
   1473.088438,       81.5586,       93.8514,       28.2805,       16.3630,      0.205965,     2364.1840
   1473.240853,       81.3291,       93.1747,       28.7331,       16.5822,      0.187786,     2370.5140
   1473.393268,       81.6050,       89.3811,       28.3474,       16.4799,      0.185609,     2372.7340
   1473.545683,       81.6833,       92.4473,       27.6443,       16.1255,      0.171431,     2371.0340
   1473.698098,       81.6875,       94.9078,       27.3705,       15.8837,      0.168584,     2361.7840
   1473.850514,       81.8633,       95.7071,       26.8282,       15.5555,      0.161590,     2357.4740
   1474.002929,       81.4663,       95.3413,       26.3112,       15.0907,      0.173905,     2362.7040
   1474.155344,       81.0278,       99.2925,       27.4725,       15.5877,      0.179378,     2372.2440
   1474.307759,       80.4752,      101.1950,       28.9684,       16.2782,      0.190166,     2378.3330
   1474.460174,       79.9114,      104.7040,       30.2424,       16.8362,      0.185894,     2389.6840
   1474.612590,       79.4060,      103.1200,       34.1557,       18.6407,      0.184630,     2392.2740
   1474.765005,       79.1998,      105.8040,       36.5774,       19.6698,      0.180007,     2386.9140
   1474.917420,       79.2461,      101.1980,       33.5543,       17.8314,      0.175570,     2370.0630
   1475.069835,       76.1576,      104.9010,       33.0236,       16.7161,      0.173470,     2372.6040
   1475.222250,       80.0319,      103.5500,       32.0233,       14.4818,      0.169685,     2380.1740
   1475.374666,       81.6617,      103.4380,       27.9095,       11.1599,      0.172642,     2391.6740
   1475.527081,       82.8605,       85.3771,       26.1415,        9.6296,      0.174221,     2388.7340
   1475.679496,       83.8750,       77.3869,       24.3811,        8.6597,      0.186218,     2359.1840
   1475.831911,       84.2294,       75.7699,       21.8831,        8.0361,      0.202063,     2315.2740
   1475.984326,       83.8989,       84.1732,       20.9849,        7.9472,      0.224157,     2295.8540
   1476.136742,       83.4641,       77.7655,       21.1388,        8.0937,      0.219166,     2296.5730
   1476.289157,       83.4375,       81.2891,       21.2124,        8.3617,      0.209156,     2313.1340
   1476.441572,       82.1478,       78.2796,       21.4811,        8.5151,      0.187886,     2310.6040
   1476.593987,       81.7704,       84.4292,       21.6871,        8.5296,      0.185611,     2323.1440
   1476.746402,       80.9888,       82.1230,       22.3849,        8.5553,      0.188749,     2329.5230
   1476.898818,       80.5852,       82.4660,       23.8495,        8.5787,      0.192635,     2337.2330
   1477.051233,       79.9189,       88.4095,       25.4123,        8.6325,      0.186471,     2335.8740
