~Version
VERS  .             3.0                                 : CWLS LOG ASCII STANDARD - VERSION 3.0
WRAP  .             NO                                  : One line per depth step
DLM   .             COMMA                               : Delimiter character between data columns
#Delimiting character ( SPACE TAB OR COMMA ).

~Well
#MNEM.UNIT          DATA                                DESCRIPTION
#----- ----        -----------------                   -----------
STRT  .M                45.415200                       : FIRST INDEX VALUE
STOP  .M              1570.939000                       : LAST INDEX VALUE
STEP  .M                 0.152415                       : STEP OF INDEX
NULL  .             -999.25                             : NULL VALUE
COMP  .                                                 : COMPANY
WELL  .             DENEB                               : WELL
FLD   .                                                 : FIELD
LOC   .                                                 : LOCATION
SRVC  .                                                 : SERVICE COMPANY
CTRY  .                                                 : COUNTRY
PROV  .                                                 : PROVINCE
UWI   .                                                 : UNIQUE WELL ID
LIC   .                                                 : LICENSE NUMBER
STAT  .                                                 : STATE
CNTY  .                                                 : COUNTY
API   .                                                 : API NUMBER
DATE  .                                                 : LOG DATE
X     .             652390.6754077                      : X OR EAST-WEST COORDINATE
Y     .             8156955.995978                      : Y OR NORTH-SOUTH COORDINATE
HZCS  .                                                 : HORIZONTAL CO-ORDINATE SYSTEM
LATI  .             -16.66496666667                     : LATITUDE
LONG  .             154.4290166667                      : LONGITUDE
GDAT  .                                                 : GEODETIC DATUM

~TOPS_PARAMETER 
#MNEM.UNIT                    VALUE                        DESCRIPTION
#--------------- ---         ------------                 -----------------

~TOPS_DEFINITION 
#MNEM.UNIT                 LOG CODE                  CURVE DESCRIPTION
#----------- ----         ------------              -----------------
DEPTH       .M                                      :     {F}
TOPS        .                                       : Values changed using TEXT_EDIT    {S30}

~TOPS_DATA | TOPS_DEFINITION
        4.1000,Doyles Creek Subgroup         
      419.4682,Horseshoe Creek Subgroup      
      501.5000,Apple Tree Flat Subgroup      
      733.3034,Watts Sandstone               
      745.0000,Denman Fm                     
      897.5169,Mt Leonard Fm                 
      988.0000,Althorpe Fm                   
      998.0000,Malabar Fm                    
     1032.6344,Mt Ogilvie Fm                 
     1072.6279,Milbrodale Fm                 
     1154.0702,Mt Thorley Fm                 
     1199.0000,Burnamwood Fm                 
     1301.8490,Archerfield Sandstone         
     1319.7432,Mulbring Siltstone            
     1392.5000,Muree Sandstone               
     1501.0000,Branxton Fm                   
     1543.2499,Greta Coal Measures           
     1558.5020,Dalwood Group                 
     1568.0780,                              

~PARAMETER 
#MNEM.UNIT                    VALUE                        DESCRIPTION
#--------------- ---         ------------                 -----------------

~CURVE 
#MNEM.UNIT                 LOG CODE                  CURVE DESCRIPTION
#----------- ----         ------------              -----------------
DEPTH       .M                                      :     {F}
DT          .US/F                                   : Loaded from LIS tape.  Reversed.    {F}
GR          .GAPI                                   : Loaded from LIS tape.  Reversed. (GR_2 Cleared: 1 Segment)    {F}
LLD         .OHMM                                   : Loaded from LIS tape.  Reversed.    {F}
LLS         .OHMM                                   : Loaded from LIS tape.  Reversed.    {F}
NPHI        .V/V                                    : Loaded from LIS tape.  Reversed.    {F}
RHOB        .K/M3                                   : Offset applied to log data.    {F}

~ASCII | CURVE 
# ...
   1383.315881,       74.9531,       99.3438,       19.2996,       14.8630,      0.207093,     2377.2530
   1383.468296,       76.4250,      100.3190,       18.9694,       14.7023,      0.216511,     2357.6840
   1383.620711,       78.7552,      100.3040,       18.1978,       14.2246,      0.224601,     2355.2840
   1383.773127,       80.9784,       90.6235,       17.3838,       13.6428,      0.232428,     2362.1240
   1383.925542,       82.1835,       91.9406,       17.3931,       13.6502,      0.223960,     2368.2440
   1384.077957,       82.3672,       95.2127,       17.3424,       13.6511,      0.216671,     2372.3740
   1384.230372,       82.5944,       98.6412,       17.3074,       13.6068,      0.212393,     2371.1440
   1384.382787,       82.4064,       95.7834,       17.5910,       13.8157,      0.210206,     2376.0230
   1384.535203,       82.4298,       94.4909,       17.3726,       13.6884,      0.210389,     2371.6240
   1384.687618,       82.2727,       94.3201,       17.4881,       13.7461,      0.210020,     2374.3440
   1384.840033,       82.2500,       98.4737,       17.6168,       13.7705,      0.225787,     2378.2440
   1384.992448,       82.0305,       99.5015,       17.5678,       13.7726,      0.223312,     2387.2930
   1385.144864,       81.8906,      103.2800,       17.8247,       13.9473,      0.220520,     2383.3540
   1385.297279,       81.7654,      101.0180,       17.9960,       14.0784,      0.215506,     2375.7740
   1385.449694,       81.8599,       99.5255,       17.9800,       14.0545,      0.223863,     2381.6840
   1385.602109,       81.3820,       94.5541,       18.0823,       14.0914,      0.225526,     2392.8940
   1385.754524,       81.5870,       93.0515,       18.2645,       14.2449,      0.224299,     2399.4940
   1385.906940,       81.4061,       93.9223,       18.2662,       14.2444,      0.229678,     2393.3640
   1386.059355,       81.1557,       93.9528,       18.3255,       14.3533,      0.233468,     2390.6840
   1386.211770,       81.1800,       98.1178,       18.5711,       14.5211,      0.224863,     2388.7240
   1386.364185,       81.1327,       99.0164,       18.6542,       14.5486,      0.220207,     2385.0630
   1386.516600,       81.3997,       99.2822,       18.8063,       14.6523,      0.218439,     2382.8640
   1386.669016,       81.2733,      100.4620,       18.8189,       14.6478,      0.226388,     2384.3440
   1386.821431,       81.5243,       98.3207,       18.6366,       14.5103,      0.211251,     2386.2940
   1386.973846,       81.7276,       95.9637,       18.6284,       14.5342,      0.212424,     2383.0940
   1387.126261,       81.6403,       88.8867,       18.5845,       14.5404,      0.207749,     2386.0530
   1387.278676,       82.0098,       83.2654,       18.4745,       14.5194,      0.216478,     2379.6640
   1387.431092,       82.3364,       84.5422,       18.4405,       14.5772,      0.211783,     2371.8740
   1387.583507,       82.5397,       87.4475,       18.2413,       14.5462,      0.216941,     2360.6140
   1387.735922,       82.7277,       89.4645,       17.8084,       14.2978,      0.218204,     2360.9140
   1387.888337,       82.7500,       90.3460,       16.8424,       13.6211,      0.223835,     2361.1440
   1388.040752,       82.5300,       90.9875,       15.9359,       13.0157,      0.229766,     2366.3040
   1388.193168,       82.7740,       90.9529,       14.7041,       12.1254,      0.232610,     2360.1540
   1388.345583,       83.3068,       96.8147,       13.1694,       11.0509,      0.237201,     2372.9240
   1388.497998,       83.7607,      109.3060,       11.9689,       10.2118,      0.249416,     2388.5940
   1388.650413,       84.2518,      123.4490,       11.4871,        9.9382,      0.259556,     2428.1840
   1388.802828,       83.5971,      125.2970,       11.7588,       10.1995,      0.255583,     2436.8440
   1388.955244,       82.5129,      116.2100,       12.7338,       10.9673,      0.248028,     2433.8840
   1389.107659,       81.8254,      110.5410,       13.1926,       11.3799,      0.234619,     2423.1040
   1389.260074,       82.0256,      107.8420,       13.1621,       11.3541,      0.245831,     2416.5240
   1389.412489,       82.2823,      114.4300,       12.9390,       11.2498,      0.251850,     2427.8540
   1389.564904,       82.6429,      120.6050,       12.4043,       10.7067,      0.282552,     2432.9440
   1389.717320,       82.5778,      122.4090,       12.6011,       10.8633,      0.279763,     2441.9840
   1389.869735,       81.4627,      116.2390,       13.9252,       11.9087,      0.272794,     2427.7040
   1390.022150,       80.7609,      110.6860,       15.0726,       12.8380,      0.247840,     2410.0740
   1390.174565,       80.4676,      108.8540,       16.0088,       13.5442,      0.237757,     2397.7140
   1390.326981,       80.1620,      107.2550,       17.0444,       14.4473,      0.235956,     2401.4640
   1390.479396,       79.9054,      105.8550,       17.4475,       14.8403,      0.239271,     2403.8740
   1390.631811,       80.0951,      106.5680,       17.4216,       14.7749,      0.246624,     2407.5440
   1390.784226,       80.0698,      107.7360,       17.3812,       14.7007,      0.241091,     2404.5740
   1390.936641,       80.5025,      113.4850,       16.9335,       14.1975,      0.230351,     2398.9540
   1391.089057,       81.6098,      116.5100,       16.6643,       13.8866,      0.231157,     2398.2540
   1391.241472,       82.4641,      126.3160,       17.1692,       14.1662,      0.248182,     2394.8130
   1391.393887,       81.9569,      124.5980,       17.6961,       14.5629,      0.268982,     2397.7840
   1391.546302,       81.3228,      119.3280,       18.7196,       15.4130,      0.285290,     2405.1540
   1391.698717,       79.8192,      114.1200,       20.2342,       16.7417,      0.275501,     2414.6640
   1391.851133,       78.1910,      119.7870,       22.0947,       18.3801,      0.259706,     2433.0640
   1392.003548,       77.0107,      121.6690,       24.0220,       19.9691,      0.247077,     2438.7940
   1392.155963,       76.2140,      120.8210,       25.0730,       20.4745,      0.243884,     2458.2030
   1392.308378,       77.1196,      110.3000,       23.7412,       18.8586,      0.231565,     2469.3840
   1392.460793,       79.2323,      107.5610,       21.8808,       16.4995,      0.207181,     2473.9540
   1392.613209,       81.6522,       99.2077,       19.2460,       13.9212,      0.186425,     2445.1140
   1392.765624,       84.5222,       91.6358,       17.2060,       12.3474,      0.191815,     2408.5730
   1392.918039,       86.3631,       84.4118,       16.8813,       12.1897,      0.204066,     2374.8230
   1393.070454,       86.9495,       78.4762,       17.0973,       12.4903,      0.212909,     2350.1740
   1393.222869,       86.7796,       72.7990,       17.8274,       12.9952,      0.212576,     2314.7630
   1393.375285,       86.6396,       70.5790,       20.0914,       14.3188,      0.206363,     2289.6540
   1393.527700,       86.1298,       71.4205,       23.8391,       16.2888,      0.202987,     2285.2040
   1393.680115,       85.2905,       74.3198,       28.4033,       18.2268,      0.205221,     2283.2440
   1393.832530,       84.5790,       72.9727,       31.9723,       19.4964,      0.207295,     2283.0130
   1393.984945,       84.0590,       78.4830,       33.7521,       19.9124,      0.210535,     2291.6340
   1394.137361,       83.8895,       81.2389,       33.9756,       20.2272,      0.207053,     2310.0430
   1394.289776,       83.4896,       86.3999,       33.6097,       20.5681,      0.202671,     2319.1940
   1394.442191,       83.6582,       87.5039,       33.0047,       20.7570,      0.203873,     2321.8540
   1394.594606,       82.9680,       90.3299,       34.5602,       21.8106,      0.207993,     2320.3440
   1394.747022,       81.8822,       87.9297,       36.6992,       23.1892,      0.207635,     2323.5730
   1394.899437,       81.3631,       90.0500,       30.5749,       19.8999,      0.209247,     2339.5830
