~Version
VERS  .             3.0                                 : CWLS LOG ASCII STANDARD - VERSION 3.0
WRAP  .             NO                                  : One line per depth step
DLM   .             COMMA                               : Delimiter character between data columns
#Delimiting character ( SPACE TAB OR COMMA ).

~Well
#MNEM.UNIT          DATA                                DESCRIPTION
#----- ----        -----------------                   -----------
STRT  .M                45.415200                       : FIRST INDEX VALUE
STOP  .M              1570.939000                       : LAST INDEX VALUE
STEP  .M                 0.152415                       : STEP OF INDEX
NULL  .             -999.25                             : NULL VALUE
COMP  .                                                 : COMPANY
WELL  .             DENEB                               : WELL
FLD   .                                                 : FIELD
LOC   .                                                 : LOCATION
SRVC  .                                                 : SERVICE COMPANY
CTRY  .                                                 : COUNTRY
PROV  .                                                 : PROVINCE
UWI   .                                                 : UNIQUE WELL ID
LIC   .                                                 : LICENSE NUMBER
STAT  .                                                 : STATE
CNTY  .                                                 : COUNTY
API   .                                                 : API NUMBER
DATE  .                                                 : LOG DATE
X     .             652390.6754077                      : X OR EAST-WEST COORDINATE
Y     .             8156955.995978                      : Y OR NORTH-SOUTH COORDINATE
HZCS  .                                                 : HORIZONTAL CO-ORDINATE SYSTEM
LATI  .             -16.66496666667                     : LATITUDE
LONG  .             154.4290166667                      : LONGITUDE
GDAT  .                                                 : GEODETIC DATUM

~TOPS_PARAMETER 
#MNEM.UNIT                    VALUE                        DESCRIPTION
#--------------- ---         ------------                 -----------------

~TOPS_DEFINITION 
#MNEM.UNIT                 LOG CODE                  CURVE DESCRIPTION
#----------- ----         ------------              -----------------
DEPTH       .M                                      :     {F}
TOPS        .                                       : Values changed using TEXT_EDIT    {S30}

~TOPS_DATA | TOPS_DEFINITION
        4.1000,Doyles Creek Subgroup         
      419.4682,Horseshoe Creek Subgroup      
      501.5000,Apple Tree Flat Subgroup      
      733.3034,Watts Sandstone               
      745.0000,Denman Fm                     
      897.5169,Mt Leonard Fm                 
      988.0000,Althorpe Fm                   
      998.0000,Malabar Fm                    
     1032.6344,Mt Ogilvie Fm                 
     1072.6279,Milbrodale Fm                 
     1154.0702,Mt Thorley Fm                 
     1199.0000,Burnamwood Fm                 
     1301.8490,Archerfield Sandstone         
     1319.7432,Mulbring Siltstone            
     1392.5000,Muree Sandstone               
     1501.0000,Branxton Fm                   
     1543.2499,Greta Coal Measures           
     1558.5020,Dalwood Group                 
     1568.0780,                              

~PARAMETER 
#MNEM.UNIT                    VALUE                        DESCRIPTION
#--------------- ---         ------------                 -----------------

~CURVE 
#MNEM.UNIT                 LOG CODE                  CURVE DESCRIPTION
#----------- ----         ------------              -----------------
DEPTH       .M                                      :     {F}
DT          .US/F                                   : Loaded from LIS tape.  Reversed.    {F}
GR          .GAPI                                   : Loaded from LIS tape.  Reversed. (GR_2 Cleared: 1 Segment)    {F}
LLD         .OHMM                                   : Loaded from LIS tape.  Reversed.    {F}
LLS         .OHMM                                   : Loaded from LIS tape.  Reversed.    {F}
NPHI        .V/V                                    : Loaded from LIS tape.  Reversed.    {F}
RHOB        .K/M3                                   : Offset applied to log data.    {F}

~ASCII | CURVE 
# ...
    925.613016,      115.1780,       81.6710,        2.0589,        1.8468,      0.304032,     2341.3640
    925.765432,      115.1970,       88.6005,        2.0549,        1.8318,      0.311964,     2346.6440
    925.917847,      115.2860,       94.7172,        2.1069,        1.8540,      0.325741,     2345.2140
    926.070262,      115.6730,       98.0816,        2.1402,        1.8892,      0.320745,     2335.6740
    926.222677,      116.2620,       98.6612,        2.1457,        1.9153,      0.309908,     2328.7740
    926.375092,      116.7520,       95.9488,        2.2053,        1.9614,      0.302616,     2327.9440
    926.527508,      117.1180,       94.3655,        2.2379,        1.9801,      0.299538,     2325.6940
    926.679923,      117.5030,       92.4687,        2.2304,        1.9676,      0.294567,     2328.5540
    926.832338,      118.0850,       90.8002,        2.2158,        1.9645,      0.289757,     2336.3540
    926.984753,      118.7360,       88.3975,        2.1685,        1.9252,      0.298572,     2336.2740
    927.137169,      119.6120,       91.6027,        2.0939,        1.8507,      0.313898,     2331.5540
    927.289584,      120.2790,       96.7816,        2.0052,        1.7629,      0.325939,     2324.2630
    927.441999,      120.6190,      102.8490,        1.9049,        1.6574,      0.312834,     2326.9140
    927.594414,      121.4000,      101.5710,        1.7940,        1.5626,      0.293803,     2329.5940
    927.746829,      121.8750,       99.6876,        1.7230,        1.5022,      0.302323,     2329.0730
    927.899245,      122.0910,      100.0820,        1.7076,        1.4644,      0.336794,     2325.3940
    928.051660,      122.4660,       99.7884,        1.6983,        1.4476,      0.365681,     2324.3330
    928.204075,      122.8060,      103.2960,        1.6950,        1.4512,      0.351750,     2323.7230
    928.356490,      122.8650,      104.0250,        1.7042,        1.4546,      0.330007,     2327.7240
    928.508905,      122.6670,      105.2700,        1.7148,        1.4578,      0.327378,     2328.4530
    928.661321,      122.0930,       99.8826,        1.7222,        1.4638,      0.340733,     2322.6040
    928.813736,      121.3890,       93.1820,        1.7230,        1.4598,      0.347073,     2318.9930
    928.966151,      120.8720,       89.5153,        1.7102,        1.4551,      0.343233,     2318.1740
    929.118566,      120.6150,       86.9738,        1.7134,        1.4552,      0.336709,     2324.9540
    929.270981,      120.4540,       89.9368,        1.7233,        1.4549,      0.325094,     2326.5040
    929.423397,      120.1580,       94.5680,        1.7315,        1.4628,      0.320746,     2327.4240
    929.575812,      120.0000,       99.3746,        1.7339,        1.4660,      0.326291,     2325.3840
    929.728227,      119.8190,       98.4850,        1.7240,        1.4478,      0.336108,     2324.3440
    929.880642,      119.5790,       97.7545,        1.6956,        1.4223,      0.332051,     2328.2540
    930.033057,      119.7170,      102.5590,        1.6638,        1.3984,      0.318046,     2338.9440
    930.185473,      119.9110,      105.9470,        1.6399,        1.3779,      0.308547,     2345.5130
    930.337888,      120.4800,      100.6460,        1.6199,        1.3656,      0.312158,     2339.8740
    930.490303,      120.8020,       91.4733,        1.6307,        1.3702,      0.324554,     2327.8130
    930.642718,      120.6780,       90.2569,        1.6575,        1.3813,      0.332909,     2320.9440
    930.795133,      120.2630,       95.8151,        1.6820,        1.4032,      0.328733,     2323.5240
    930.947549,      120.0000,       99.2761,        1.6972,        1.4255,      0.318567,     2332.7640
    931.099964,      119.9640,       96.8203,        1.6965,        1.4521,      0.318409,     2338.8330
    931.252379,      120.4830,       94.6875,        1.6851,        1.4505,      0.335484,     2338.5240
    931.404794,      121.3470,       96.7187,        1.6791,        1.4403,      0.346553,     2334.3030
    931.557210,      121.5060,       97.2807,        1.6869,        1.4471,      0.337250,     2330.7140
    931.709625,      121.1940,       95.3217,        1.7013,        1.4722,      0.314805,     2329.8940
    931.862040,      120.8810,       91.6962,        1.7263,        1.4995,      0.313326,     2333.2840
    932.014455,      120.5680,       89.3135,        1.7449,        1.5015,      0.328553,     2333.4740
    932.166870,      120.0020,       88.6370,        1.7675,        1.5285,      0.341847,     2334.1140
    932.319286,      119.3980,       91.1702,        1.7889,        1.5547,      0.339510,     2332.3540
    932.471701,      119.3330,       94.1296,        1.8245,        1.5767,      0.336249,     2335.5530
    932.624116,      118.2060,       97.3125,        1.8404,        1.5974,      0.337325,     2338.5240
    932.776531,      115.8560,       95.6667,        1.8297,        1.5995,      0.340896,     2341.1140
    932.928946,      113.6490,       94.3865,        1.8454,        1.6140,      0.333531,     2345.8330
    933.081362,      112.2670,       92.7067,        1.8572,        1.6350,      0.325037,     2355.4240
    933.233777,      111.9480,       93.1960,        1.8864,        1.6579,      0.324219,     2355.4740
    933.386192,      111.7100,       94.7299,        2.0018,        1.7499,      0.335834,     2350.2430
    933.538607,      107.8930,       93.8599,        2.1534,        1.8852,      0.342531,     2344.8740
    933.691022,      104.0030,       90.8760,        2.2487,        1.9623,      0.316308,     2347.2930
    933.843438,      104.2260,       88.0341,        2.2498,        1.9538,      0.269646,     2360.4640
    933.995853,      107.3490,       85.6893,        2.1296,        1.8730,      0.255262,     2376.0730
    934.148268,      112.1210,       83.2922,        1.9225,        1.7246,      0.284435,     2372.4140
    934.300683,      116.3440,       82.3750,        1.7736,        1.6024,      0.330165,     2350.2330
    934.453098,      118.0050,       85.9782,        1.7154,        1.5581,      0.340146,     2326.0130
    934.605514,      117.9690,       88.1985,        1.6738,        1.5113,      0.326184,     2326.4640
    934.757929,      118.9020,       89.4632,        1.7035,        1.5233,      0.326681,     2334.9340
    934.910344,      118.2350,       87.7654,        1.7826,        1.5883,      0.340499,     2341.4240
    935.062759,      116.2020,       84.5091,        1.7933,        1.6128,      0.337962,     2352.3540
    935.215174,      115.5000,       81.0387,        1.8007,        1.6165,      0.308288,     2366.3440
    935.367590,      115.7550,       78.3861,        1.7677,        1.5791,      0.290569,     2385.3840
    935.520005,      117.7550,       81.8846,        1.6614,        1.4980,      0.303753,     2380.7040
    935.672420,      120.0440,       86.6667,        1.6298,        1.4646,      0.325895,     2362.9540
    935.824835,      120.2020,       90.6665,        1.6581,        1.4659,      0.324485,     2349.2440
    935.977250,      120.2860,       91.6875,        1.6785,        1.4698,      0.302856,     2345.8440
    936.129666,      120.2240,       88.7292,        1.6725,        1.4607,      0.307007,     2342.9140
    936.282081,      119.5370,       86.0072,        1.6415,        1.4287,      0.330176,     2337.3840
    936.434496,      119.8320,       88.6705,        1.6276,        1.4255,      0.351580,     2333.4740
    936.586911,      118.8980,       95.6217,        1.6799,        1.4670,      0.347214,     2336.4140
    936.739327,      113.8510,       95.8568,        1.7319,        1.5191,      0.331904,     2333.9540
    936.891742,      110.0980,       88.7145,        1.7729,        1.5592,      0.322791,     2328.7540
    937.044157,      108.9170,       78.0959,        1.7997,        1.5783,      0.318482,     2327.9440
    937.196572,      109.0470,       72.9897,        1.7562,        1.5593,      0.315595,     2333.6340
