~Version
VERS  .             3.0                                 : CWLS LOG ASCII STANDARD - VERSION 3.0
WRAP  .             NO                                  : One line per depth step
DLM   .             COMMA                               : Delimiter character between data columns
#Delimiting character ( SPACE TAB OR COMMA ).

~Well
#MNEM.UNIT          DATA                                DESCRIPTION
#----- ----        -----------------                   -----------
STRT  .M                45.415200                       : FIRST INDEX VALUE
STOP  .M              1570.939000                       : LAST INDEX VALUE
STEP  .M                 0.152415                       : STEP OF INDEX
NULL  .             -999.25                             : NULL VALUE
COMP  .                                                 : COMPANY
WELL  .             DENEB                               : WELL
FLD   .                                                 : FIELD
LOC   .                                                 : LOCATION
SRVC  .                                                 : SERVICE COMPANY
CTRY  .                                                 : COUNTRY
PROV  .                                                 : PROVINCE
UWI   .                                                 : UNIQUE WELL ID
LIC   .                                                 : LICENSE NUMBER
STAT  .                                                 : STATE
CNTY  .                                                 : COUNTY
API   .                                                 : API NUMBER
DATE  .                                                 : LOG DATE
X     .             652390.6754077                      : X OR EAST-WEST COORDINATE
Y     .             8156955.995978                      : Y OR NORTH-SOUTH COORDINATE
HZCS  .                                                 : HORIZONTAL CO-ORDINATE SYSTEM
LATI  .             -16.66496666667                     : LATITUDE
LONG  .             154.4290166667                      : LONGITUDE
GDAT  .                                                 : GEODETIC DATUM

~TOPS_PARAMETER 
#MNEM.UNIT                    VALUE                        DESCRIPTION
#--------------- ---         ------------                 -----------------

~TOPS_DEFINITION 
#MNEM.UNIT                 LOG CODE                  CURVE DESCRIPTION
#----------- ----         ------------              -----------------
DEPTH       .M                                      :     {F}
TOPS        .                                       : Values changed using TEXT_EDIT    {S30}

~TOPS_DATA | TOPS_DEFINITION
        4.1000,Doyles Creek Subgroup         
      419.4682,Horseshoe Creek Subgroup      
      501.5000,Apple Tree Flat Subgroup      
      733.3034,Watts Sandstone               
      745.0000,Denman Fm                     
      897.5169,Mt Leonard Fm                 
      988.0000,Althorpe Fm                   
      998.0000,Malabar Fm                    
     1032.6344,Mt Ogilvie Fm                 
     1072.6279,Milbrodale Fm                 
     1154.0702,Mt Thorley Fm                 
     1199.0000,Burnamwood Fm                 
     1301.8490,Archerfield Sandstone         
     1319.7432,Mulbring Siltstone            
     1392.5000,Muree Sandstone               
     1501.0000,Branxton Fm                   
     1543.2499,Greta Coal Measures           
     1558.5020,Dalwood Group                 
     1568.0780,                              

~PARAMETER 
#MNEM.UNIT                    VALUE                        DESCRIPTION
#--------------- ---         ------------                 -----------------

~CURVE 
#MNEM.UNIT                 LOG CODE                  CURVE DESCRIPTION
#----------- ----         ------------              -----------------
DEPTH       .M                                      :     {F}
DT          .US/F                                   : Loaded from LIS tape.  Reversed.    {F}
GR          .GAPI                                   : Loaded from LIS tape.  Reversed. (GR_2 Cleared: 1 Segment)    {F}
LLD         .OHMM                                   : Loaded from LIS tape.  Reversed.    {F}
LLS         .OHMM                                   : Loaded from LIS tape.  Reversed.    {F}
NPHI        .V/V                                    : Loaded from LIS tape.  Reversed.    {F}
RHOB        .K/M3                                   : Offset applied to log data.    {F}

~ASCII | CURVE 
# ...
    467.910152,      124.6940,       89.8776,        4.4232,        2.9183,      0.375731,     2137.0740
    468.062567,      125.0140,       89.1704,        4.3987,        2.8896,      0.382166,     2137.9440
    468.214982,      125.4270,       83.8167,        4.5168,        2.9763,      0.398177,     2135.4540
    468.367398,      125.4580,       82.5648,        4.7140,        3.1129,      0.417969,     2128.2940
    468.519813,      124.8960,       80.9502,        4.9457,        3.2330,      0.418237,     2117.5440
    468.672228,      123.7780,       83.0903,        4.9989,        3.2733,      0.411077,     2117.8640
    468.824643,      122.7180,       82.8084,        4.6370,        2.9902,      0.394572,     2115.0430
    468.977058,      122.3290,       83.4539,        4.0835,        2.6095,      0.398165,     2114.5040
    469.129474,      122.4620,       87.2877,        3.5937,        2.3264,      0.382892,     2114.7240
    469.281889,      122.8260,       90.5679,        3.2767,        2.0847,      0.382936,     2118.9540
    469.434304,      123.3620,       91.5486,        3.2400,        2.0423,      0.379605,     2112.4340
    469.586719,      123.7950,       88.4878,        3.4496,        2.1841,      0.405102,     2089.5130
    469.739134,      123.6460,       92.5700,        3.8480,        2.3902,      0.400473,     2073.4940
    469.891550,      123.3570,       93.4497,        4.2955,        2.5554,      0.393982,     2074.7930
    470.043965,      123.3470,       96.0463,        4.5560,        2.7178,      0.382714,     2084.5440
    470.196380,      123.2630,       92.7019,        4.5747,        2.7278,      0.392996,     2091.6140
    470.348795,      122.7950,       92.6255,        4.4741,        2.6919,      0.403259,     2091.0640
    470.501210,      122.6280,       91.1876,        4.4001,        2.7181,      0.412679,     2090.7430
    470.653626,      122.2420,       90.7929,        4.4383,        2.7010,      0.414976,     2091.9340
    470.806041,      122.1310,       90.4748,        4.5133,        2.7465,      0.411413,     2089.3240
    470.958456,      122.3300,       87.2664,        4.5423,        2.7917,      0.425363,     2091.9240
    471.110871,      122.4800,       87.4568,        4.4190,        2.7020,      0.432558,     2086.0630
    471.263286,      122.6280,       85.6330,        4.1502,        2.5888,      0.429114,     2079.6740
    471.415702,      122.1550,       85.3268,        3.9397,        2.5134,      0.415242,     2074.0340
    471.568117,      121.6640,       78.6454,        3.9782,        2.5055,      0.393337,     2076.1940
    471.720532,      121.7350,       75.5075,        4.1209,        2.5746,      0.390764,     2085.6640
    471.872947,      122.6750,       76.1963,        3.9808,        2.5726,      0.385614,     2099.9040
    472.025362,      123.0900,       78.6496,        3.8203,        2.4378,      0.394723,     2116.0430
    472.177778,      123.2800,       80.9784,        3.5466,        2.3397,      0.397030,     2133.0940
    472.330193,      123.7750,       82.1577,        3.3037,        2.1617,      0.401013,     2139.4640
    472.482608,      123.1700,       90.6838,        3.2835,        2.0946,      0.414011,     2120.7440
    472.635023,      123.1250,       95.3901,        3.1814,        2.0441,      0.430588,     2100.3440
    472.787439,      123.1250,      100.6730,        3.0468,        1.9845,      0.433141,     2086.6140
    472.939854,      123.4230,      101.5150,        3.0964,        2.0383,      0.424840,     2085.4440
    473.092269,      124.5180,       98.6343,        3.2891,        2.1877,      0.393826,     2087.4840
    473.244684,      125.9370,       94.5882,        3.7194,        2.4132,      0.392200,     2081.8440
    473.397099,      128.1850,       92.6963,        4.4296,        2.8561,      0.394208,     2084.0440
    473.549515,      130.4950,       97.0455,        4.7383,        3.1033,      0.412639,     2098.3940
    473.701930,      130.6690,       95.2086,        4.1934,        2.8234,      0.406208,     2126.3840
    473.854345,      129.0820,       92.2290,        3.7953,        2.5371,      0.395543,     2139.3540
    474.006760,      127.2970,       88.2342,        3.7078,        2.4411,      0.376831,     2132.6840
    474.159175,      125.1830,       86.4199,        3.6391,        2.3856,      0.372645,     2119.0030
    474.311591,      124.3930,       85.0966,        3.7760,        2.4568,      0.375708,     2104.8130
    474.464006,      124.4550,       83.2882,        4.1337,        2.6677,      0.399029,     2092.4640
    474.616421,      124.3950,       85.8938,        4.4588,        2.8987,      0.418661,     2092.3840
    474.768836,      123.9840,       84.6011,        4.6773,        3.0568,      0.427171,     2102.7240
    474.921251,      123.5190,       88.6643,        5.0694,        3.2705,      0.415524,     2112.2440
    475.073667,      123.1100,       87.4265,        5.2451,        3.4213,      0.376859,     2115.5940
    475.226082,      122.8030,       85.5224,        4.8430,        3.2205,      0.367227,     2117.5540
    475.378497,      122.8330,       82.8031,        4.2719,        2.8680,      0.393912,     2120.5940
    475.530912,      122.7560,       83.0829,        3.8407,        2.6546,      0.416929,     2125.9140
    475.683327,      123.6220,       86.4187,        3.7316,        2.5233,      0.401008,     2124.8540
    475.835743,      125.0020,       86.1778,        3.8447,        2.5397,      0.357393,     2109.5530
    475.988158,      126.0190,       83.7114,        4.0856,        2.6567,      0.341359,     2090.5540
    476.140573,      125.6270,       79.5071,        4.3435,        2.8145,      0.346446,     2079.0330
    476.292988,      124.9760,       76.3302,        4.6443,        2.9919,      0.356238,     2083.5040
    476.445403,      123.1140,       77.9353,        5.1685,        3.2398,      0.374017,     2087.7040
    476.597819,      118.5900,       82.2447,        5.5578,        3.4671,      0.380316,     2087.1540
    476.750234,      112.3610,       82.6577,        6.0839,        3.7447,      0.387653,     2086.3040
    476.902649,      106.8040,       80.3480,        6.7466,        4.1565,      0.377923,     2089.3440
    477.055064,       98.4803,       76.1751,        6.8266,        4.2816,      0.368173,     2089.1340
    477.207479,       93.5809,       71.8750,        6.9972,        4.3754,      0.358230,     2074.0540
    477.359895,       92.3777,       70.5169,        7.1600,        4.5509,      0.339631,     2065.3640
    477.512310,       91.3800,       69.2209,        6.3737,        4.0915,      0.338121,     2072.0440
    477.664725,       97.2819,       74.2834,        5.6959,        3.6457,      0.339931,     2086.2340
    477.817140,      105.7260,       74.2611,        5.2083,        3.3297,      0.358333,     2090.8230
    477.969556,      113.6890,       76.9548,        4.7974,        3.0866,      0.363884,     2075.1440
    478.121971,      119.9830,       77.7366,        4.6923,        2.9977,      0.382176,     2077.9440
    478.274386,      122.0530,       80.1063,        4.7632,        3.0125,      0.386354,     2076.8340
    478.426801,      122.2760,       82.0903,        4.7328,        2.9970,      0.389127,     2075.6840
    478.579216,      122.5530,       80.8383,        4.7023,        2.9563,      0.387116,     2079.3440
    478.731632,      122.8480,       84.2265,        4.6956,        2.9170,      0.398785,     2077.3840
    478.884047,      123.3920,       79.5304,        4.7097,        2.9115,      0.398113,     2075.4340
    479.036462,      123.8030,       76.7779,        4.7925,        2.9331,      0.385842,     2074.0340
    479.188877,      123.7610,       72.2788,        4.9205,        2.9511,      0.378206,     2078.4440
    479.341292,      123.0450,       72.6939,        5.0320,        2.9678,      0.393274,     2092.4340
    479.493708,      122.0540,       75.3392,        5.0611,        2.9900,      0.394741,     2102.7740
