~Version
VERS  .             3.0                                 : CWLS LOG ASCII STANDARD - VERSION 3.0
WRAP  .             NO                                  : One line per depth step
DLM   .             COMMA                               : Delimiter character between data columns
#Delimiting character ( SPACE TAB OR COMMA ).

~Well
#MNEM.UNIT          DATA                                DESCRIPTION
#----- ----        -----------------                   -----------
STRT  .M                45.415200                       : FIRST INDEX VALUE
STOP  .M              1570.939000                       : LAST INDEX VALUE
STEP  .M                 0.152415                       : STEP OF INDEX
NULL  .             -999.25                             : NULL VALUE
COMP  .                                                 : COMPANY
WELL  .             DENEB                               : WELL
FLD   .                                                 : FIELD
LOC   .                                                 : LOCATION
SRVC  .                                                 : SERVICE COMPANY
CTRY  .                                                 : COUNTRY
PROV  .                                                 : PROVINCE
UWI   .                                                 : UNIQUE WELL ID
LIC   .                                                 : LICENSE NUMBER
STAT  .                                                 : STATE
CNTY  .                                                 : COUNTY
API   .                                                 : API NUMBER
DATE  .                                                 : LOG DATE
X     .             652390.6754077                      : X OR EAST-WEST COORDINATE
Y     .             8156955.995978                      : Y OR NORTH-SOUTH COORDINATE
HZCS  .                                                 : HORIZONTAL CO-ORDINATE SYSTEM
LATI  .             -16.66496666667                     : LATITUDE
LONG  .             154.4290166667                      : LONGITUDE
GDAT  .                                                 : GEODETIC DATUM

~TOPS_PARAMETER 
#MNEM.UNIT                    VALUE                        DESCRIPTION
#--------------- ---         ------------                 -----------------

~TOPS_DEFINITION 
#MNEM.UNIT                 LOG CODE                  CURVE DESCRIPTION
#----------- ----         ------------              -----------------
DEPTH       .M                                      :     {F}
TOPS        .                                       : Values changed using TEXT_EDIT    {S30}

~TOPS_DATA | TOPS_DEFINITION
        4.1000,Doyles Creek Subgroup         
      419.4682,Horseshoe Creek Subgroup      
      501.5000,Apple Tree Flat Subgroup      
      733.3034,Watts Sandstone               
      745.0000,Denman Fm                     
      897.5169,Mt Leonard Fm                 
      988.0000,Althorpe Fm                   
      998.0000,Malabar Fm                    
     1032.6344,Mt Ogilvie Fm                 
     1072.6279,Milbrodale Fm                 
     1154.0702,Mt Thorley Fm                 
     1199.0000,Burnamwood Fm                 
     1301.8490,Archerfield Sandstone         
     1319.7432,Mulbring Siltstone            
     1392.5000,Muree Sandstone               
     1501.0000,Branxton Fm                   
     1543.2499,Greta Coal Measures           
     1558.5020,Dalwood Group                 
     1568.0780,                              

~PARAMETER 
#MNEM.UNIT                    VALUE                        DESCRIPTION
#--------------- ---         ------------                 -----------------

~CURVE 
#MNEM.UNIT                 LOG CODE                  CURVE DESCRIPTION
#----------- ----         ------------              -----------------
DEPTH       .M                                      :     {F}
DT          .US/F                                   : Loaded from LIS tape.  Reversed.    {F}
GR          .GAPI                                   : Loaded from LIS tape.  Reversed. (GR_2 Cleared: 1 Segment)    {F}
LLD         .OHMM                                   : Loaded from LIS tape.  Reversed.    {F}
LLS         .OHMM                                   : Loaded from LIS tape.  Reversed.    {F}
NPHI        .V/V                                    : Loaded from LIS tape.  Reversed.    {F}
RHOB        .K/M3                                   : Offset applied to log data.    {F}

~ASCII | CURVE 
# ...
    737.837482,      126.6360,      496.9940,        1.8858,        1.7423,      0.346944,     2185.1740
    737.989897,      127.9300,      412.5380,        1.6658,        1.5424,      0.360454,     2207.8840
    738.142313,      129.7690,      280.3060,        1.5417,        1.4139,      0.390789,     2218.5630
    738.294728,      130.8870,      185.5900,        1.5481,        1.3905,      0.419128,     2218.5630
    738.447143,      130.2950,      145.7430,        1.5930,        1.4033,      0.424225,     2223.8940
    738.599558,      129.4090,      134.2270,        1.6298,        1.4238,      0.414106,     2233.8330
    738.751974,      128.6600,      130.1070,        1.6748,        1.4509,      0.398409,     2239.8640
    738.904389,      128.3070,      124.6980,        1.6731,        1.4516,      0.387428,     2243.7740
    739.056804,      128.3180,      116.0380,        1.6962,        1.4457,      0.379738,     2248.5540
    739.209219,      128.4210,      110.9650,        1.7275,        1.4568,      0.367227,     2252.6540
    739.361634,      128.7960,      114.0620,        1.7324,        1.4645,      0.365992,     2251.0530
    739.514050,      129.1700,      114.4030,        1.7658,        1.4753,      0.375084,     2248.7530
    739.666465,      129.4320,      113.9040,        1.8371,        1.5209,      0.392345,     2254.2540
    739.818880,      129.4430,      109.6400,        1.9074,        1.5611,      0.401817,     2264.0040
    739.971295,      129.4890,      103.4760,        1.9558,        1.6083,      0.401863,     2269.3440
    740.123710,      129.6820,       99.2355,        1.9868,        1.6408,      0.399446,     2264.0040
    740.276126,      129.6360,       98.4380,        2.0111,        1.6513,      0.393510,     2253.1840
    740.428541,      129.5000,       98.9091,        1.9969,        1.6390,      0.385832,     2245.2040
    740.580956,      129.5570,       98.1817,        1.9695,        1.6170,      0.373319,     2246.4340
    740.733371,      129.6250,      100.1610,        1.9409,        1.5860,      0.359421,     2253.5430
    740.885786,      129.6250,      103.7490,        1.9294,        1.5880,      0.349798,     2256.5640
    741.038202,      129.5680,      105.9100,        1.9136,        1.5904,      0.365298,     2257.6240
    741.190617,      129.6140,      106.7670,        1.8957,        1.5860,      0.377395,     2258.5140
    741.343032,      129.7500,      109.0950,        1.8455,        1.5465,      0.387862,     2259.5840
    741.495447,      129.8070,      113.9720,        1.7913,        1.4895,      0.391720,     2256.0140
    741.647862,      130.1030,      114.9180,        1.7317,        1.4283,      0.387517,     2252.6540
    741.800278,      130.3750,      113.2960,        1.6721,        1.3772,      0.396033,     2249.2730
    741.952693,      130.4320,      112.1670,        1.6324,        1.3562,      0.393023,     2247.5130
    742.105108,      130.3290,      111.3470,        1.5958,        1.3182,      0.385341,     2246.4340
    742.257523,      130.0680,      109.8390,        1.5614,        1.2993,      0.377721,     2242.7240
    742.409938,      129.8290,      103.8550,        1.5551,        1.3041,      0.392647,     2244.1240
    742.562354,      129.3970,       99.7686,        1.5763,        1.3188,      0.409678,     2248.2430
    742.714769,      128.9540,      100.4270,        1.5792,        1.3301,      0.407922,     2261.9040
    742.867184,      128.5220,      104.7810,        1.5963,        1.3434,      0.397455,     2274.6740
    743.019599,      127.1910,      107.8630,        1.6315,        1.3744,      0.388919,     2281.9540
    743.172015,      126.5960,      107.8110,        1.6452,        1.3757,      0.375911,     2279.4440
    743.324430,      126.8330,      106.4540,        1.6360,        1.3765,      0.352660,     2275.2040
    743.476845,      125.7310,      104.8800,        1.6238,        1.3752,      0.350235,     2268.9640
    743.629260,      123.9630,      104.4170,        1.6443,        1.4061,      0.369777,     2266.8740
    743.781675,      117.8590,      104.4660,        1.7868,        1.5189,      0.380310,     2275.0440
    743.934091,      108.7100,      106.2250,        2.0910,        1.7454,      0.382264,     2280.7340
    744.086506,       97.7731,      116.6470,        2.4751,        2.0669,      0.378320,     2292.1140
    744.238921,       87.4526,      133.8810,        2.8070,        2.3093,      0.352812,     2317.5540
    744.391336,       87.4935,      144.8510,        2.8586,        2.3335,      0.299761,     2355.5230
    744.543751,       94.3608,      139.6710,        2.5117,        2.1175,      0.263298,     2374.0740
    744.696167,      104.2400,      124.7520,        2.0907,        1.8027,      0.277764,     2362.8440
    744.848582,      112.7710,      110.0540,        1.9325,        1.6529,      0.324093,     2345.2840
    745.000997,      114.8430,      101.7750,        1.9545,        1.6626,      0.348773,     2330.3940
    745.153412,      115.0220,       95.9779,        2.0313,        1.7063,      0.352105,     2324.0340
    745.305827,      115.2960,       93.7974,        2.0684,        1.7312,      0.351576,     2323.1340
    745.458243,      116.4540,       93.3239,        2.0709,        1.7621,      0.358681,     2322.9840
    745.610658,      117.5200,       93.1980,        2.0662,        1.7686,      0.369751,     2320.4540
    745.763073,      118.3490,       91.9638,        2.0319,        1.7307,      0.367493,     2314.4340
    745.915488,      118.9730,       90.7107,        2.0116,        1.7073,      0.364020,     2313.2040
    746.067903,      119.1690,       89.3088,        2.0152,        1.6898,      0.360166,     2316.9540
    746.220319,      118.9430,       90.0578,        1.9989,        1.6761,      0.353540,     2320.1240
    746.372734,      118.7890,       89.8840,        1.9996,        1.6905,      0.342200,     2317.4340
    746.525149,      118.6300,       89.2712,        2.0149,        1.7134,      0.337586,     2317.8540
    746.677564,      119.0480,       90.5964,        2.0033,        1.7015,      0.347541,     2326.5530
    746.829979,      119.4810,       90.5625,        1.9738,        1.6775,      0.362220,     2330.9440
    746.982395,      119.3980,       89.7573,        1.9655,        1.6686,      0.378830,     2323.6040
    747.134810,      119.7580,       87.6356,        1.9514,        1.6664,      0.388132,     2317.1240
    747.287225,      119.8320,       87.7130,        1.9562,        1.6702,      0.371118,     2319.9640
    747.439640,      118.0160,       87.2899,        2.0545,        1.7259,      0.344711,     2324.7630
    747.592055,      114.7190,       84.8940,        2.2205,        1.8652,      0.320100,     2327.9440
    747.744471,      110.9850,       84.3716,        2.3653,        2.0035,      0.313169,     2335.1340
    747.896886,      108.5960,       85.3729,        2.4656,        2.0968,      0.310423,     2349.8540
    748.049301,      109.3660,       87.7872,        2.5093,        2.1527,      0.310323,     2364.4140
    748.201716,      111.7740,       87.9243,        2.3560,        2.0504,      0.322064,     2367.4840
    748.354132,      114.5100,       88.4084,        2.2000,        1.9158,      0.335746,     2361.1440
    748.506547,      115.5730,       90.9214,        2.1848,        1.8825,      0.349533,     2348.5330
    748.658962,      115.6390,       91.4366,        2.1312,        1.8449,      0.349912,     2325.7140
    748.811377,      116.3060,       90.4400,        2.0656,        1.7951,      0.345977,     2308.1340
    748.963792,      117.3570,       89.6716,        2.0340,        1.7588,      0.341837,     2295.9540
    749.116208,      118.0000,       92.3159,        2.0181,        1.7507,      0.333415,     2297.2940
    749.268623,      118.3460,       97.7644,        2.0205,        1.7553,      0.320838,     2302.5430
    749.421038,      118.0300,       97.4816,        2.1004,        1.7971,      0.325444,     2305.2440
