~Version
VERS  .             3.0                                 : CWLS LOG ASCII STANDARD - VERSION 3.0
WRAP  .             NO                                  : One line per depth step
DLM   .             COMMA                               : Delimiter character between data columns
#Delimiting character ( SPACE TAB OR COMMA ).

~Well
#MNEM.UNIT          DATA                                DESCRIPTION
#----- ----        -----------------                   -----------
STRT  .M                45.415200                       : FIRST INDEX VALUE
STOP  .M              1570.939000                       : LAST INDEX VALUE
STEP  .M                 0.152415                       : STEP OF INDEX
NULL  .             -999.25                             : NULL VALUE
COMP  .                                                 : COMPANY
WELL  .             DENEB                               : WELL
FLD   .                                                 : FIELD
LOC   .                                                 : LOCATION
SRVC  .                                                 : SERVICE COMPANY
CTRY  .                                                 : COUNTRY
PROV  .                                                 : PROVINCE
UWI   .                                                 : UNIQUE WELL ID
LIC   .                                                 : LICENSE NUMBER
STAT  .                                                 : STATE
CNTY  .                                                 : COUNTY
API   .                                                 : API NUMBER
DATE  .                                                 : LOG DATE
X     .             652390.6754077                      : X OR EAST-WEST COORDINATE
Y     .             8156955.995978                      : Y OR NORTH-SOUTH COORDINATE
HZCS  .                                                 : HORIZONTAL CO-ORDINATE SYSTEM
LATI  .             -16.66496666667                     : LATITUDE
LONG  .             154.4290166667                      : LONGITUDE
GDAT  .                                                 : GEODETIC DATUM

~TOPS_PARAMETER 
#MNEM.UNIT                    VALUE                        DESCRIPTION
#--------------- ---         ------------                 -----------------

~TOPS_DEFINITION 
#MNEM.UNIT                 LOG CODE                  CURVE DESCRIPTION
#----------- ----         ------------              -----------------
DEPTH       .M                                      :     {F}
TOPS        .                                       : Values changed using TEXT_EDIT    {S30}

~TOPS_DATA | TOPS_DEFINITION
        4.1000,Doyles Creek Subgroup         
      419.4682,Horseshoe Creek Subgroup      
      501.5000,Apple Tree Flat Subgroup      
      733.3034,Watts Sandstone               
      745.0000,Denman Fm                     
      897.5169,Mt Leonard Fm                 
      988.0000,Althorpe Fm                   
      998.0000,Malabar Fm                    
     1032.6344,Mt Ogilvie Fm                 
     1072.6279,Milbrodale Fm                 
     1154.0702,Mt Thorley Fm                 
     1199.0000,Burnamwood Fm                 
     1301.8490,Archerfield Sandstone         
     1319.7432,Mulbring Siltstone            
     1392.5000,Muree Sandstone               
     1501.0000,Branxton Fm                   
     1543.2499,Greta Coal Measures           
     1558.5020,Dalwood Group                 
     1568.0780,                              

~PARAMETER 
#MNEM.UNIT                    VALUE                        DESCRIPTION
#--------------- ---         ------------                 -----------------

~CURVE 
#MNEM.UNIT                 LOG CODE                  CURVE DESCRIPTION
#----------- ----         ------------              -----------------
DEPTH       .M                                      :     {F}
DT          .US/F                                   : Loaded from LIS tape.  Reversed.    {F}
GR          .GAPI                                   : Loaded from LIS tape.  Reversed. (GR_2 Cleared: 1 Segment)    {F}
LLD         .OHMM                                   : Loaded from LIS tape.  Reversed.    {F}
LLS         .OHMM                                   : Loaded from LIS tape.  Reversed.    {F}
NPHI        .V/V                                    : Loaded from LIS tape.  Reversed.    {F}
RHOB        .K/M3                                   : Offset applied to log data.    {F}

~ASCII | CURVE 
# ...
   1289.428114,       83.5000,      145.5770,       19.3641,       16.6059,      0.247008,     2448.6740
   1289.580529,       83.6526,      144.6540,       19.0956,       16.3779,      0.238179,     2445.8540
   1289.732944,       83.9423,      144.2730,       18.9747,       16.3171,      0.233631,     2443.5340
   1289.885360,       83.9492,      138.2560,       19.0130,       16.4060,      0.236482,     2441.5830
   1290.037775,       83.5812,      132.1930,       19.0478,       16.3503,      0.234919,     2439.6240
   1290.190190,       83.3468,      132.1460,       19.0350,       16.3913,      0.226795,     2436.0730
   1290.342605,       83.0580,      144.1840,       19.2565,       16.5614,      0.223109,     2448.0830
   1290.495020,       82.8980,      149.9350,       19.1646,       16.5101,      0.228632,     2460.5430
   1290.647436,       83.1292,      151.8450,       19.0654,       16.4810,      0.229186,     2478.5830
   1290.799851,       83.0347,      142.4490,       19.2659,       16.5709,      0.236165,     2472.6840
   1290.952266,       82.8978,      145.4620,       19.3936,       16.7053,      0.237793,     2465.7240
   1291.104681,       82.9769,      144.9950,       19.5456,       16.7498,      0.242966,     2459.8840
   1291.257096,       82.7959,      145.5430,       19.7791,       16.9463,      0.232181,     2460.3940
   1291.409512,       83.1060,      150.4290,       19.4972,       16.7829,      0.229095,     2449.6340
   1291.561927,       83.0346,      152.6210,       19.0334,       16.3456,      0.224625,     2439.1140
   1291.714342,       83.1534,      152.8750,       19.3631,       16.5309,      0.233619,     2438.9040
   1291.866757,       83.1365,      145.2310,       19.3576,       16.5090,      0.227479,     2444.0430
   1292.019172,       82.9718,      137.1690,       19.1399,       16.2658,      0.235160,     2457.8940
   1292.171588,       82.8357,      137.1750,       20.1866,       17.1189,      0.231738,     2459.1640
   1292.324003,       82.8635,      135.8680,       20.2175,       17.0698,      0.233656,     2466.7640
   1292.476418,       82.9773,      135.0910,       20.0876,       16.9792,      0.224783,     2468.5630
   1292.628833,       82.8470,      133.0620,       20.5371,       17.2992,      0.226640,     2459.0040
   1292.781248,       82.6592,      134.6690,       20.9637,       17.5591,      0.225144,     2444.0740
   1292.933664,       82.5741,      145.7170,       21.1392,       17.6334,      0.223814,     2430.0740
   1293.086079,       82.4094,      148.3290,       21.2030,       17.6285,      0.224829,     2432.3240
   1293.238494,       82.5286,      147.3510,       21.2614,       17.6070,      0.229497,     2435.0130
   1293.390909,       82.8176,      143.2470,       21.0755,       17.3939,      0.232063,     2432.1740
   1293.543325,       82.8750,      138.5920,       21.2269,       17.4420,      0.230825,     2429.8640
   1293.695740,       82.6712,      133.7750,       21.9793,       17.9871,      0.234051,     2434.2840
   1293.848155,       82.3698,      127.1570,       22.2498,       18.1126,      0.230875,     2448.1240
   1294.000570,       82.3637,      127.8210,       22.4568,       18.1202,      0.231581,     2457.3940
   1294.152985,       82.7834,      128.9650,       22.8186,       18.2649,      0.225552,     2455.6140
   1294.305401,       83.0285,      131.2730,       22.9738,       18.2561,      0.219326,     2446.8940
   1294.457816,       83.0115,      137.1550,       23.3810,       18.3982,      0.211092,     2429.1940
   1294.610231,       83.0000,      136.2300,       23.6651,       18.4233,      0.210670,     2428.7940
   1294.762646,       82.8975,      132.8800,       23.4210,       18.1381,      0.209737,     2426.2930
   1294.915061,       82.8750,      127.8050,       22.8849,       17.6788,      0.211468,     2424.0030
   1295.067477,       83.0285,      124.2540,       23.8260,       18.3818,      0.203117,     2406.0430
   1295.219892,       82.8074,      120.2690,       24.4382,       18.9438,      0.202368,     2395.7740
   1295.372307,       82.4433,      119.0910,       27.4166,       21.3154,      0.204633,     2397.5440
   1295.524722,       82.4263,      125.2050,       30.0397,       23.4289,      0.211489,     2411.0740
   1295.677137,       82.4886,      132.7480,       28.5649,       22.4677,      0.213290,     2423.4640
   1295.829553,       82.7049,      133.6130,       25.5343,       20.1496,      0.205376,     2425.5940
   1295.981968,       82.8010,      126.4550,       21.9286,       17.3378,      0.199226,     2409.6440
   1296.134383,       83.1194,      117.2540,       18.8866,       14.8167,      0.197443,     2386.8840
   1296.286798,       83.8546,      108.8920,       16.6114,       12.9524,      0.195261,     2369.8040
   1296.439213,       84.9207,      103.3970,       15.6541,       12.1246,      0.206813,     2352.6140
   1296.591629,       85.2787,      105.1140,       14.9392,       11.5318,      0.227488,     2328.6040
   1296.744044,       83.9844,      108.8030,       16.1455,       12.4813,      0.244615,     2300.0830
   1296.896459,       82.7152,      118.8660,       17.0416,       13.1328,      0.241162,     2312.3330
   1297.048874,       80.7542,      119.9110,       18.1155,       14.0007,      0.224502,     2357.9430
   1297.201289,       79.7608,      114.7230,       19.3395,       14.8973,      0.219592,     2416.5830
   1297.353705,       79.8814,      113.8820,       18.4209,       14.2387,      0.216434,     2440.3640
   1297.506120,       79.7842,      120.4800,       17.7067,       13.5441,      0.205438,     2431.9940
   1297.658535,       79.1355,      131.1040,       18.4410,       13.8945,      0.195124,     2439.1040
   1297.810950,       79.8220,      128.5010,       17.7594,       13.2697,      0.183324,     2436.4040
   1297.963365,       80.0000,      121.5090,       17.0323,       12.7226,      0.191555,     2436.9630
   1298.115781,       79.6408,      117.6740,       18.4154,       13.8271,      0.185831,     2419.6840
   1298.268196,       79.6648,      122.3920,       17.8171,       13.3967,      0.186480,     2414.2340
   1298.420611,       79.0214,      124.2800,       18.3852,       13.3756,      0.180607,     2426.6840
   1298.573026,       78.8750,      117.8060,       18.7896,       13.7673,      0.190846,     2440.7440
   1298.725442,       78.9262,      106.5880,       17.9966,       13.4179,      0.192959,     2430.3640
   1298.877857,       79.1429,      101.8700,       15.8941,       11.8896,      0.193272,     2409.9040
   1299.030272,       79.3410,       98.7026,       14.6520,       10.9071,      0.190560,     2396.4640
   1299.182687,       79.1187,       94.2285,       13.6832,       10.1503,      0.190342,     2394.3440
   1299.335102,       79.0111,       86.5335,       11.7792,        8.7990,      0.182392,     2381.4830
   1299.487518,       78.8975,       93.5739,       11.0606,        8.2713,      0.175857,     2367.5040
   1299.639933,       79.3373,      115.0610,       12.0530,        9.0156,      0.168383,     2366.6540
   1299.792348,       80.3080,      140.0500,       13.9470,       10.3260,      0.192194,     2392.6040
   1299.944763,       82.1929,      164.7350,       17.4614,       12.7190,      0.234226,     2449.5540
   1300.097178,       83.0772,      175.5070,       20.9808,       15.5917,      0.268326,     2509.0040
   1300.249594,       83.8032,      186.8280,       20.3969,       15.4218,      0.280740,     2536.9840
   1300.402009,       84.0917,      182.1120,       18.9564,       14.1951,      0.274597,     2540.8340
   1300.554424,       84.2787,      181.2400,       18.4276,       13.6268,      0.294564,     2537.6240
   1300.706839,       84.3125,      177.0630,       18.7064,       13.6220,      0.312551,     2533.7140
   1300.859254,       84.3125,      170.9750,       19.4985,       14.1477,      0.321867,     2521.7530
   1301.011670,       83.5425,      167.7190,       21.2052,       15.2382,      0.315622,     2514.5340
