~Version
VERS  .             3.0                                 : CWLS LOG ASCII STANDARD - VERSION 3.0
WRAP  .             NO                                  : One line per depth step
DLM   .             COMMA                               : Delimiter character between data columns
#Delimiting character ( SPACE TAB OR COMMA ).

~Well
#MNEM.UNIT          DATA                                DESCRIPTION
#----- ----        -----------------                   -----------
STRT  .M                45.415200                       : FIRST INDEX VALUE
STOP  .M              1570.939000                       : LAST INDEX VALUE
STEP  .M                 0.152415                       : STEP OF INDEX
NULL  .             -999.25                             : NULL VALUE
COMP  .                                                 : COMPANY
WELL  .             DENEB                               : WELL
FLD   .                                                 : FIELD
LOC   .                                                 : LOCATION
SRVC  .                                                 : SERVICE COMPANY
CTRY  .                                                 : COUNTRY
PROV  .                                                 : PROVINCE
UWI   .                                                 : UNIQUE WELL ID
LIC   .                                                 : LICENSE NUMBER
STAT  .                                                 : STATE
CNTY  .                                                 : COUNTY
API   .                                                 : API NUMBER
DATE  .                                                 : LOG DATE
X     .             652390.6754077                      : X OR EAST-WEST COORDINATE
Y     .             8156955.995978                      : Y OR NORTH-SOUTH COORDINATE
HZCS  .                                                 : HORIZONTAL CO-ORDINATE SYSTEM
LATI  .             -16.66496666667                     : LATITUDE
LONG  .             154.4290166667                      : LONGITUDE
GDAT  .                                                 : GEODETIC DATUM

~TOPS_PARAMETER 
#MNEM.UNIT                    VALUE                        DESCRIPTION
#--------------- ---         ------------                 -----------------

~TOPS_DEFINITION 
#MNEM.UNIT                 LOG CODE                  CURVE DESCRIPTION
#----------- ----         ------------              -----------------
DEPTH       .M                                      :     {F}
TOPS        .                                       : Values changed using TEXT_EDIT    {S30}

~TOPS_DATA | TOPS_DEFINITION
        4.1000,Doyles Creek Subgroup         
      419.4682,Horseshoe Creek Subgroup      
      501.5000,Apple Tree Flat Subgroup      
      733.3034,Watts Sandstone               
      745.0000,Denman Fm                     
      897.5169,Mt Leonard Fm                 
      988.0000,Althorpe Fm                   
      998.0000,Malabar Fm                    
     1032.6344,Mt Ogilvie Fm                 
     1072.6279,Milbrodale Fm                 
     1154.0702,Mt Thorley Fm                 
     1199.0000,Burnamwood Fm                 
     1301.8490,Archerfield Sandstone         
     1319.7432,Mulbring Siltstone            
     1392.5000,Muree Sandstone               
     1501.0000,Branxton Fm                   
     1543.2499,Greta Coal Measures           
     1558.5020,Dalwood Group                 
     1568.0780,                              

~PARAMETER 
#MNEM.UNIT                    VALUE                        DESCRIPTION
#--------------- ---         ------------                 -----------------

~CURVE 
#MNEM.UNIT                 LOG CODE                  CURVE DESCRIPTION
#----------- ----         ------------              -----------------
DEPTH       .M                                      :     {F}
DT          .US/F                                   : Loaded from LIS tape.  Reversed.    {F}
GR          .GAPI                                   : Loaded from LIS tape.  Reversed. (GR_2 Cleared: 1 Segment)    {F}
LLD         .OHMM                                   : Loaded from LIS tape.  Reversed.    {F}
LLS         .OHMM                                   : Loaded from LIS tape.  Reversed.    {F}
NPHI        .V/V                                    : Loaded from LIS tape.  Reversed.    {F}
RHOB        .K/M3                                   : Offset applied to log data.    {F}

~ASCII | CURVE 
# ...
    291.870589,      158.1250,       88.7776,        2.5364,        1.7527,      0.422809,     1994.3040
    292.023004,      158.1860,       91.7084,        2.4884,        1.6794,      0.461040,     2051.1640
    292.175419,      158.6200,       93.7625,        2.4373,        1.6554,      0.475699,     2074.9740
    292.327834,      159.2910,       90.2886,        2.3419,        1.5817,      0.465405,     2081.7930
    292.480249,      159.5000,       88.6756,        2.2811,        1.5664,      0.431185,     2081.9540
    292.632665,      159.5200,       87.5641,        2.2347,        1.5243,      0.408441,     2012.0440
    292.785080,      159.5230,       86.8197,        2.2714,        1.5546,      0.415111,     1881.3740
    292.937495,      158.8790,       84.7257,        2.3612,        1.5808,      0.454438,     1695.4940
    293.089910,      158.7180,       85.6672,        2.5390,        1.6594,      0.513138,     1579.0240
    293.242325,      161.2450,       88.3126,        3.2376,        1.7240,      0.502714,     1524.3440
    293.394741,      161.6920,       90.8561,        2.4630,        1.6954,      0.488293,     1563.6240
    293.547156,      160.5440,       89.7284,        2.3068,        1.5959,      0.490577,     1646.2540
    293.699571,      160.1470,       86.4483,        2.1829,        1.5499,      0.510623,     1738.9840
    293.851986,      164.1530,       87.5840,        2.0801,        1.4885,      0.484005,     1812.4140
    294.004401,      167.6000,       85.2339,        1.9707,        1.4288,      0.451846,     1798.3140
    294.156817,      168.4110,       87.6314,        2.1123,        1.5039,      0.439413,     1624.8740
    294.309232,      169.8540,       88.5632,        2.1926,        1.6039,      0.452279,     1522.8340
    294.461647,      169.3240,       89.3243,        2.3849,        1.7357,      0.467615,     1504.1940
    294.614062,      166.1630,       94.7829,        2.6212,        1.9616,      0.467277,     1622.1040
    294.766478,      160.7870,       95.4498,        2.9338,        2.1915,      0.466267,     1775.0740
    294.918893,      158.6000,      100.0960,        3.1470,        2.3824,      0.451441,     1933.9140
    295.071308,      161.0940,       92.3116,        3.1582,        2.3925,      0.472942,     2018.0730
    295.223723,      166.9800,       85.6340,        3.1302,        2.3864,      0.515463,     1981.2740
    295.376138,      162.1080,       83.6884,        2.7967,        2.1973,      0.599536,     1869.0540
    295.528554,      160.7900,       83.9101,        2.6325,        2.0813,      0.582798,     1845.5040
    295.680969,      161.1440,       86.1536,        2.6606,        2.0965,      0.490610,     1927.6540
    295.833384,      162.4560,       83.3545,        2.7640,        2.1783,      0.381865,     2076.5730
    295.985799,      167.1490,       81.9586,        3.0924,        2.3986,      0.352966,     2127.8640
    296.138214,      176.8680,       75.9281,        3.6841,        2.8156,      0.372182,     1994.4440
    296.290630,      179.5540,       70.4884,        3.6513,        2.9063,      0.407204,     1815.5340
    296.443045,      177.0650,       69.3068,        3.3403,        2.7334,      0.486708,     1626.9840
    296.595460,      174.5230,       73.4662,        3.1030,        2.5617,      0.572668,     1534.9740
    296.747875,      166.9500,       82.3330,        2.9839,        2.4641,      0.573765,     1560.3140
    296.900290,      165.8610,       86.2526,        2.8914,        2.3694,      0.510972,     1695.5240
    297.052706,      149.6640,       89.3238,        2.6676,        2.1433,      0.467834,     1856.2740
    297.205121,      154.0240,       80.4499,        2.4455,        1.9865,      0.470657,     1855.3840
    297.357536,      151.8950,       78.6658,        2.1823,        1.7940,      0.541496,     1676.7040
    297.509951,      150.4330,       76.6426,        2.0711,        1.6466,      0.518816,     1563.8740
    297.662366,      152.1660,       81.2393,        2.1928,        1.6342,      0.529029,     1544.3540
    297.814782,      152.2870,       82.2031,        2.1964,        1.6359,      0.473872,     1631.4140
    297.967197,      148.5210,       85.6364,        2.0605,        1.5465,      0.469189,     1776.7440
    298.119612,      148.1460,       84.7186,        1.9636,        1.4911,      0.434385,     1850.6940
    298.272027,      149.1430,       84.2538,        1.9808,        1.5129,      0.408376,     1790.7840
    298.424442,      150.1670,       83.7164,        2.2248,        1.6332,      0.413716,     1645.8840
    298.576858,      147.2940,       88.8546,        2.4589,        1.8232,      0.467566,     1482.1040
    298.729273,      141.1460,       88.2304,        2.8995,        2.1293,      0.511370,     1446.8740
    298.881688,      141.5440,       83.6312,        3.0835,        2.3123,      0.554559,     1567.1840
    299.034103,      143.3920,       73.1204,        2.8291,        2.1516,      0.520526,     1837.9840
    299.186519,      145.5630,       69.5831,        2.5869,        1.9584,      0.503820,     2113.7330
    299.338934,      146.0900,       68.2123,        2.3512,        1.8533,      0.468918,     2007.9640
    299.491349,      143.6460,       70.9692,        2.1793,        1.7063,      0.465901,     1893.8540
    299.643764,      141.3070,       74.9519,        2.1975,        1.6812,      0.457997,     1874.7840
    299.796179,      137.5890,       77.6308,        2.2320,        1.7077,      0.453934,     1947.3440
    299.948595,      132.8540,       81.3957,        2.2431,        1.7079,      0.457926,     1994.9240
    300.101010,      132.1250,       81.3726,        2.2973,        1.7201,      0.457922,     1987.9940
    300.253425,      132.8780,       82.4275,        2.3984,        1.7746,      0.461513,     2038.9140
    300.405840,      136.9840,       83.5067,        2.3275,        1.7541,      0.465692,     2105.3940
    300.558255,      139.3320,       85.0862,        2.1515,        1.6547,      0.446457,     2139.8030
    300.710671,      141.9140,       79.9862,        2.1792,        1.7292,      0.431683,     2108.1540
    300.863086,      138.0840,       76.5092,        2.6098,        2.0792,      0.407587,     2047.9840
    301.015501,      124.1890,       71.7076,        3.3698,        2.6767,      0.445239,     1959.2440
    301.167916,      106.7560,       70.1288,        6.3676,        4.6105,      0.517575,     1941.4440
    301.320331,       90.3231,       63.9272,       14.8625,       10.0276,      0.530681,     2036.6040
    301.472747,       76.9645,       58.0336,       23.9043,       17.0499,      0.447557,     2206.5340
    301.625162,       68.5990,       53.8905,       19.1332,       15.4009,      0.281648,     2402.9740
    301.777577,       64.9820,       53.5481,       10.3810,        8.8546,      0.160410,     2534.0730
    301.929992,       67.5736,       51.8616,        5.2154,        4.5056,      0.123379,     2584.2430
    302.082407,       75.9562,       55.0035,        3.4513,        2.9767,      0.128836,     2618.9640
    302.234823,       93.3326,       63.5780,        2.4826,        2.1439,      0.156190,     2622.6640
    302.387238,      112.1150,       76.9851,        2.0722,        1.7387,      0.208938,     2516.5230
    302.539653,      126.9440,       83.6450,        2.0892,        1.7105,      0.284524,     2355.0340
    302.692068,      133.8780,       87.0541,        2.0496,        1.6972,      0.364110,     2250.3040
    302.844483,      134.2900,       85.1770,        2.0920,        1.7260,      0.411831,     2204.5030
    302.996899,      133.8640,       84.3844,        2.1535,        1.7849,      0.450007,     2153.4540
    303.149314,      136.2500,       80.5731,        2.2115,        1.7943,      0.445392,     2147.2730
    303.301729,      132.8080,       80.2694,        2.4021,        1.9166,      0.457767,     2132.2940
    303.454144,      131.2500,       82.7192,        2.5266,        1.9762,      0.434953,     2131.3440
