~Version
VERS  .             3.0                                 : CWLS LOG ASCII STANDARD - VERSION 3.0
WRAP  .             NO                                  : One line per depth step
DLM   .             COMMA                               : Delimiter character between data columns
#Delimiting character ( SPACE TAB OR COMMA ).

~Well
#MNEM.UNIT          DATA                                DESCRIPTION
#----- ----        -----------------                   -----------
STRT  .M                45.415200                       : FIRST INDEX VALUE
STOP  .M              1570.939000                       : LAST INDEX VALUE
STEP  .M                 0.152415                       : STEP OF INDEX
NULL  .             -999.25                             : NULL VALUE
COMP  .                                                 : COMPANY
WELL  .             DENEB                               : WELL
FLD   .                                                 : FIELD
LOC   .                                                 : LOCATION
SRVC  .                                                 : SERVICE COMPANY
CTRY  .                                                 : COUNTRY
PROV  .                                                 : PROVINCE
UWI   .                                                 : UNIQUE WELL ID
LIC   .                                                 : LICENSE NUMBER
STAT  .                                                 : STATE
CNTY  .                                                 : COUNTY
API   .                                                 : API NUMBER
DATE  .                                                 : LOG DATE
X     .             652390.6754077                      : X OR EAST-WEST COORDINATE
Y     .             8156955.995978                      : Y OR NORTH-SOUTH COORDINATE
HZCS  .                                                 : HORIZONTAL CO-ORDINATE SYSTEM
LATI  .             -16.66496666667                     : LATITUDE
LONG  .             154.4290166667                      : LONGITUDE
GDAT  .                                                 : GEODETIC DATUM

~TOPS_PARAMETER 
#MNEM.UNIT                    VALUE                        DESCRIPTION
#--------------- ---         ------------                 -----------------

~TOPS_DEFINITION 
#MNEM.UNIT                 LOG CODE                  CURVE DESCRIPTION
#----------- ----         ------------              -----------------
DEPTH       .M                                      :     {F}
TOPS        .                                       : Values changed using TEXT_EDIT    {S30}

~TOPS_DATA | TOPS_DEFINITION
        4.1000,Doyles Creek Subgroup         
      419.4682,Horseshoe Creek Subgroup      
      501.5000,Apple Tree Flat Subgroup      
      733.3034,Watts Sandstone               
      745.0000,Denman Fm                     
      897.5169,Mt Leonard Fm                 
      988.0000,Althorpe Fm                   
      998.0000,Malabar Fm                    
     1032.6344,Mt Ogilvie Fm                 
     1072.6279,Milbrodale Fm                 
     1154.0702,Mt Thorley Fm                 
     1199.0000,Burnamwood Fm                 
     1301.8490,Archerfield Sandstone         
     1319.7432,Mulbring Siltstone            
     1392.5000,Muree Sandstone               
     1501.0000,Branxton Fm                   
     1543.2499,Greta Coal Measures           
     1558.5020,Dalwood Group                 
     1568.0780,                              

~PARAMETER 
#MNEM.UNIT                    VALUE                        DESCRIPTION
#--------------- ---         ------------                 -----------------

~CURVE 
#MNEM.UNIT                 LOG CODE                  CURVE DESCRIPTION
#----------- ----         ------------              -----------------
DEPTH       .M                                      :     {F}
DT          .US/F                                   : Loaded from LIS tape.  Reversed.    {F}
GR          .GAPI                                   : Loaded from LIS tape.  Reversed. (GR_2 Cleared: 1 Segment)    {F}
LLD         .OHMM                                   : Loaded from LIS tape.  Reversed.    {F}
LLS         .OHMM                                   : Loaded from LIS tape.  Reversed.    {F}
NPHI        .V/V                                    : Loaded from LIS tape.  Reversed.    {F}
RHOB        .K/M3                                   : Offset applied to log data.    {F}

~ASCII | CURVE 
# ...
   1195.540347,       87.2678,       49.9993,       16.9466,        7.7234,      0.218253,     2293.1940
   1195.692762,       88.5381,       42.9449,       14.6977,        6.9065,      0.215810,     2243.6840
   1195.845177,       88.4516,       40.2756,       12.6518,        6.1841,      0.212392,     2202.3440
   1195.997592,       87.2759,       41.3126,       11.6642,        5.7444,      0.202959,     2188.7540
   1196.150008,       85.9039,       42.7756,       11.9382,        5.9332,      0.198360,     2197.5940
   1196.302423,       84.8568,       44.2935,       12.5365,        6.4404,      0.191873,     2212.7530
   1196.454838,       83.7750,       42.5626,       12.7050,        6.7193,      0.191048,     2231.3740
   1196.607253,       83.0763,       43.0756,       12.8314,        6.9121,      0.190671,     2236.1440
   1196.759668,       83.0318,       45.3548,       12.6734,        6.9188,      0.191535,     2236.1440
   1196.912084,       83.0625,       46.9325,       11.2014,        6.3115,      0.190058,     2236.1440
   1197.064499,       82.9683,       49.5333,        9.0443,        5.2154,      0.184671,     2230.2640
   1197.216914,       82.4650,       50.5411,        7.4816,        4.3892,      0.179044,     2234.2340
   1197.369329,       81.4174,       53.8051,        6.7650,        3.9876,      0.183255,     2243.5030
   1197.521745,       80.4645,       51.7298,        6.7556,        3.9173,      0.183953,     2268.0240
   1197.674160,       80.0618,       51.1892,        7.7993,        4.4238,      0.187269,     2282.5540
   1197.826575,       80.2827,       50.5193,        8.8118,        5.0520,      0.184060,     2280.5530
   1197.978990,       81.2734,       48.2641,        8.4393,        5.0463,      0.194068,     2271.7240
   1198.131405,       82.8354,       50.6893,        7.5630,        4.8101,      0.200332,     2254.6140
   1198.283821,       83.9110,       56.7864,        6.3110,        4.2634,      0.215926,     2254.2440
   1198.436236,       85.5372,       67.8993,        5.6838,        3.9120,      0.234311,     2252.7340
   1198.588651,       86.5186,       81.3242,        6.4390,        4.3375,      0.238770,     2266.5030
   1198.741066,       86.9241,      101.1530,        8.0171,        5.3629,      0.236921,     2289.0440
   1198.893481,       87.3774,      124.6940,       10.9075,        7.2031,      0.247016,     2336.0130
   1199.045897,       88.0669,      140.5460,       15.5244,       10.8639,      0.275956,     2392.2340
   1199.198312,       89.2392,      146.1990,       15.1686,       11.4110,      0.315460,     2438.4540
   1199.350727,       90.2701,      150.7740,       13.0987,       10.1403,      0.322735,     2454.9240
   1199.503142,       91.2102,      156.6400,       11.5779,        9.0756,      0.319928,     2456.8440
   1199.655557,       91.3903,      160.2960,       10.5642,        8.3615,      0.297947,     2461.2740
   1199.807973,       90.6659,      158.5420,       10.1914,        8.0862,      0.289908,     2455.3240
   1199.960388,       89.9190,      162.2750,       10.3755,        8.2654,      0.289182,     2447.0440
   1200.112803,       88.6171,      160.0680,       10.7066,        8.6035,      0.282793,     2443.6540
   1200.265218,       87.8710,      165.0340,       11.3307,        9.1628,      0.281502,     2443.1740
   1200.417633,       88.4113,      156.8920,       11.8357,        9.6305,      0.283214,     2440.2140
   1200.570049,       89.7604,      154.8550,       11.8713,        9.7685,      0.285909,     2436.3130
   1200.722464,       91.6815,      150.3450,       11.5547,        9.5858,      0.285884,     2447.1540
   1200.874879,       93.5101,      155.2690,       10.7181,        8.9871,      0.298561,     2467.2240
   1201.027294,       93.1316,      161.7360,        9.8313,        8.3275,      0.308660,     2476.9240
   1201.179709,       92.0242,      165.8660,        9.2048,        7.8276,      0.308331,     2482.7630
   1201.332125,       90.8506,      162.7740,        9.1511,        7.7778,      0.285427,     2479.7540
   1201.484540,       89.6657,      157.0630,        9.3521,        7.9590,      0.293438,     2509.3030
   1201.636955,       89.5641,      157.5160,       10.0048,        8.4808,      0.298340,     2545.9340
   1201.789370,       89.9571,      161.6350,       10.9492,        9.2671,      0.305381,     2579.7040
   1201.941786,       89.4476,      166.8180,       11.6048,        9.8886,      0.284337,     2544.8440
   1202.094201,       88.4921,      162.9140,       12.4219,       10.5985,      0.265383,     2501.4640
   1202.246616,       87.8722,      160.9670,       13.0469,       11.1804,      0.251019,     2458.0630
   1202.399031,       87.4189,      162.2940,       12.9372,       11.3195,      0.238321,     2442.6540
   1202.551446,       87.5973,      170.0600,       11.6204,       10.3253,      0.243511,     2445.6740
   1202.703862,       88.9181,      172.3750,       10.0453,        8.9595,      0.254229,     2460.3940
   1202.856277,       90.5449,      171.9960,        8.5679,        7.7340,      0.286831,     2477.9840
   1203.008692,       91.9772,      169.4170,        7.4527,        6.8007,      0.315217,     2479.2830
   1203.161107,       91.8865,      177.1440,        7.1229,        6.5575,      0.325726,     2473.8940
   1203.313522,       90.9425,      177.1200,        7.3551,        6.7322,      0.320468,     2473.9540
   1203.465938,       90.4033,      175.8710,        7.6103,        6.9277,      0.302079,     2475.9040
   1203.618353,       90.3125,      167.5920,        8.0290,        7.2651,      0.295023,     2471.9240
   1203.770768,       89.6504,      169.5400,        8.7836,        7.9576,      0.291109,     2464.6040
   1203.923183,       88.5376,      162.9490,        9.7931,        8.8828,      0.291149,     2468.6240
   1204.075598,       86.9666,      152.9600,       11.1462,        9.9837,      0.277021,     2482.4040
   1204.228014,       86.8468,      142.1890,       12.3287,       11.0208,      0.266908,     2526.1240
   1204.380429,       87.7918,      145.6700,       10.2123,        9.3072,      0.293318,     2564.0940
   1204.532844,       90.2866,      158.7930,        7.9664,        7.4273,      0.329604,     2577.9940
   1204.685259,       92.4218,      171.8540,        6.8005,        6.4220,      0.367259,     2562.1240
   1204.837674,       93.6360,      174.9700,        6.0998,        5.7788,      0.367175,     2534.1540
   1204.990090,       94.7760,      170.9220,        5.9165,        5.6106,      0.363888,     2516.7840
   1205.142505,       95.0150,      164.4010,        5.8730,        5.5719,      0.358204,     2498.6440
   1205.294920,       95.1421,      170.0420,        5.9589,        5.6379,      0.356445,     2496.9140
   1205.447335,       94.3339,      185.9380,        6.1869,        5.8235,      0.361632,     2506.7540
   1205.599750,       93.2058,      198.5310,        6.4196,        6.0126,      0.357332,     2517.0130
   1205.752166,       91.8461,      202.5490,        6.9995,        6.4832,      0.342123,     2526.7640
   1205.904581,       90.3119,      192.4490,        7.7889,        7.1400,      0.330094,     2530.5940
   1206.056996,       88.2791,      181.9230,        8.8237,        8.0580,      0.326526,     2529.5840
   1206.209411,       85.5196,      163.6800,       11.2343,        9.9934,      0.313938,     2533.5630
   1206.361826,       82.9551,      145.0990,       14.4602,       12.4739,      0.294803,     2558.7830
   1206.514242,       82.1376,      133.8470,       16.5807,       14.0980,      0.274458,     2592.9340
   1206.666657,       82.4905,      135.5250,       17.3279,       14.7877,      0.275476,     2614.7540
   1206.819072,       83.8578,      145.0000,       15.3527,       13.3329,      0.276603,     2593.7630
   1206.971487,       85.4846,      153.1330,       14.1623,       12.3706,      0.269318,     2547.1740
   1207.123903,       85.9227,      154.0170,       13.8046,       12.1000,      0.256665,     2509.6540
