~Version
VERS  .             3.0                                 : CWLS LOG ASCII STANDARD - VERSION 3.0
WRAP  .             NO                                  : One line per depth step
DLM   .             COMMA                               : Delimiter character between data columns
#Delimiting character ( SPACE TAB OR COMMA ).

~Well
#MNEM.UNIT          DATA                                DESCRIPTION
#----- ----        -----------------                   -----------
STRT  .M                45.415200                       : FIRST INDEX VALUE
STOP  .M              1570.939000                       : LAST INDEX VALUE
STEP  .M                 0.152415                       : STEP OF INDEX
NULL  .             -999.25                             : NULL VALUE
COMP  .                                                 : COMPANY
WELL  .             DENEB                               : WELL
FLD   .                                                 : FIELD
LOC   .                                                 : LOCATION
SRVC  .                                                 : SERVICE COMPANY
CTRY  .                                                 : COUNTRY
PROV  .                                                 : PROVINCE
UWI   .                                                 : UNIQUE WELL ID
LIC   .                                                 : LICENSE NUMBER
STAT  .                                                 : STATE
CNTY  .                                                 : COUNTY
API   .                                                 : API NUMBER
DATE  .                                                 : LOG DATE
X     .             652390.6754077                      : X OR EAST-WEST COORDINATE
Y     .             8156955.995978                      : Y OR NORTH-SOUTH COORDINATE
HZCS  .                                                 : HORIZONTAL CO-ORDINATE SYSTEM
LATI  .             -16.66496666667                     : LATITUDE
LONG  .             154.4290166667                      : LONGITUDE
GDAT  .                                                 : GEODETIC DATUM

~TOPS_PARAMETER 
#MNEM.UNIT                    VALUE                        DESCRIPTION
#--------------- ---         ------------                 -----------------

~TOPS_DEFINITION 
#MNEM.UNIT                 LOG CODE                  CURVE DESCRIPTION
#----------- ----         ------------              -----------------
DEPTH       .M                                      :     {F}
TOPS        .                                       : Values changed using TEXT_EDIT    {S30}

~TOPS_DATA | TOPS_DEFINITION
        4.1000,Doyles Creek Subgroup         
      419.4682,Horseshoe Creek Subgroup      
      501.5000,Apple Tree Flat Subgroup      
      733.3034,Watts Sandstone               
      745.0000,Denman Fm                     
      897.5169,Mt Leonard Fm                 
      988.0000,Althorpe Fm                   
      998.0000,Malabar Fm                    
     1032.6344,Mt Ogilvie Fm                 
     1072.6279,Milbrodale Fm                 
     1154.0702,Mt Thorley Fm                 
     1199.0000,Burnamwood Fm                 
     1301.8490,Archerfield Sandstone         
     1319.7432,Mulbring Siltstone            
     1392.5000,Muree Sandstone               
     1501.0000,Branxton Fm                   
     1543.2499,Greta Coal Measures           
     1558.5020,Dalwood Group                 
     1568.0780,                              

~PARAMETER 
#MNEM.UNIT                    VALUE                        DESCRIPTION
#--------------- ---         ------------                 -----------------

~CURVE 
#MNEM.UNIT                 LOG CODE                  CURVE DESCRIPTION
#----------- ----         ------------              -----------------
DEPTH       .M                                      :     {F}
DT          .US/F                                   : Loaded from LIS tape.  Reversed.    {F}
GR          .GAPI                                   : Loaded from LIS tape.  Reversed. (GR_2 Cleared: 1 Segment)    {F}
LLD         .OHMM                                   : Loaded from LIS tape.  Reversed.    {F}
LLS         .OHMM                                   : Loaded from LIS tape.  Reversed.    {F}
NPHI        .V/V                                    : Loaded from LIS tape.  Reversed.    {F}
RHOB        .K/M3                                   : Offset applied to log data.    {F}

~ASCII | CURVE 
# ...
    374.022385,      141.1700,      101.5520,        2.2002,        1.5246,      0.435372,     2099.1340
    374.174800,      140.9020,       99.1003,        2.0640,        1.4405,      0.408239,     2104.4440
    374.327215,      141.0270,       96.4232,        1.9022,        1.3326,      0.389459,     2099.2540
    374.479630,      141.3130,       90.2349,        1.8270,        1.2558,      0.384101,     2088.2540
    374.632046,      142.1620,       87.7354,        1.8037,        1.2665,      0.383363,     2073.8740
    374.784461,      142.8570,       91.0856,        1.8282,        1.2600,      0.400689,     2065.8030
    374.936876,      143.4120,       90.8042,        1.9461,        1.3398,      0.420820,     2065.5340
    375.089291,      143.3470,       91.5478,        2.1604,        1.4587,      0.429877,     2072.2540
    375.241706,      140.3280,       86.7310,        2.2264,        1.5593,      0.429180,     2081.1540
    375.394122,      137.3340,       85.1953,        2.4149,        1.7007,      0.443148,     2088.2930
    375.546537,      134.8400,       83.7895,        2.6812,        1.8957,      0.446355,     2101.2340
    375.698952,      132.6850,       86.0813,        2.6358,        1.9034,      0.457339,     2117.5840
    375.851367,      132.0820,       86.4023,        2.5042,        1.8215,      0.447211,     2126.3340
    376.003782,      132.4290,       85.3947,        2.3690,        1.7303,      0.449938,     2124.3940
    376.156198,      133.1670,       81.6869,        2.2536,        1.6819,      0.423105,     2122.0130
    376.308613,      135.3400,       83.6841,        2.2428,        1.6367,      0.424419,     2105.5430
    376.461028,      136.4240,       88.0837,        2.1497,        1.5834,      0.427179,     2047.9640
    376.613443,      137.7460,       92.9840,        2.1200,        1.5234,      0.451236,     2009.7040
    376.765859,      139.1380,       94.1404,        1.9420,        1.3970,      0.437922,     1991.1040
    376.918274,      141.2990,       90.5976,        1.8313,        1.3465,      0.435843,     2029.6240
    377.070689,      142.2940,       87.6451,        1.8098,        1.3345,      0.426002,     2056.7440
    377.223104,      142.1090,       85.9003,        1.8284,        1.3652,      0.439095,     2069.1040
    377.375519,      142.1990,       88.2334,        1.9890,        1.4761,      0.446001,     2057.9740
    377.527935,      140.7460,       90.1917,        2.2001,        1.6036,      0.449560,     2059.4140
    377.680350,      139.4020,       89.3879,        2.1668,        1.5846,      0.449607,     2073.5330
    377.832765,      139.1230,       92.0307,        2.1070,        1.5211,      0.457587,     2086.5940
    377.985180,      137.5040,       93.4475,        1.9646,        1.4990,      0.454563,     2089.6540
    378.137595,      136.5700,      100.3130,        1.9569,        1.4604,      0.443322,     2088.7940
    378.290011,      136.3750,      103.0590,        1.9555,        1.4681,      0.423636,     2084.4840
    378.442426,      136.2380,      105.4630,        1.9910,        1.5151,      0.425983,     2078.6140
    378.594841,      135.2100,      103.8170,        2.1588,        1.6230,      0.418391,     2076.9840
    378.747256,      132.5940,      100.9740,        2.3290,        1.7515,      0.416397,     2090.2630
    378.899671,      129.4380,       98.2285,        2.4901,        1.8750,      0.405636,     2103.2940
    379.052087,      125.1060,       95.8695,        2.7011,        2.0661,      0.407539,     2115.3040
    379.204502,      119.1630,       93.9143,        3.0186,        2.3001,      0.394321,     2107.0540
    379.356917,      115.1900,       86.4049,        3.0857,        2.3628,      0.400898,     2106.1930
    379.509332,      109.8630,       79.8871,        2.9717,        2.3304,      0.379339,     2147.3740
    379.661747,      109.6090,       75.4742,        2.9702,        2.3758,      0.358126,     2226.2340
    379.814163,      109.7700,       77.3898,        3.1904,        2.5730,      0.339826,     2286.2140
    379.966578,      106.1130,       74.6268,        4.1969,        3.2964,      0.379260,     2241.5340
    380.118993,       98.8032,       69.0072,        6.9816,        5.2840,      0.430285,     2191.2240
    380.271408,       86.2760,       63.9945,       10.6326,        7.8732,      0.400626,     2213.1140
    380.423823,       77.4263,       61.4852,        9.1640,        7.1956,      0.298857,     2324.5140
    380.576239,       78.3721,       63.0983,        5.2013,        4.1874,      0.195378,     2461.1140
    380.728654,       91.1294,       67.1412,        3.3051,        2.7004,      0.163671,     2518.7630
    380.881069,      104.2270,       70.9800,        2.4821,        2.0830,      0.200014,     2460.2140
    381.033484,      115.3680,       79.2616,        2.3377,        1.9395,      0.262733,     2303.4440
    381.185900,      119.6700,       81.1568,        2.8039,        2.2747,      0.323266,     2184.3330
    381.338315,      113.2460,       83.3022,        3.7914,        3.0504,      0.368151,     2116.8130
    381.490730,      102.7240,       77.7102,        5.8069,        4.6133,      0.398445,     2119.5240
    381.643145,       90.3720,       72.3951,        9.2936,        7.2518,      0.379474,     2178.2140
    381.795560,       79.2166,       66.9951,       11.9333,        9.3943,      0.302600,     2290.8240
    381.947976,       75.7562,       64.5149,        7.1562,        5.6965,      0.215449,     2431.4340
    382.100391,       82.6029,       60.5051,        4.5800,        3.6645,      0.173640,     2504.9040
    382.252806,       96.9669,       64.2232,        3.2614,        2.6037,      0.193293,     2448.5330
    382.405221,      111.4270,       70.2518,        2.6103,        2.0686,      0.250169,     2325.6440
    382.557636,      122.1200,       80.1884,        2.4901,        1.9023,      0.322633,     2196.7140
    382.710052,      125.9090,       85.2500,        2.5963,        1.9305,      0.380971,     2130.0140
    382.862467,      125.6360,       85.7867,        2.6278,        1.9448,      0.388076,     2093.5630
    383.014882,      126.6170,       87.1616,        2.5626,        1.8842,      0.387154,     2092.6940
    383.167297,      126.6620,       85.2304,        2.6149,        1.9114,      0.381831,     2090.9340
    383.319712,      126.4300,       84.6187,        2.6636,        1.9239,      0.371470,     2096.8140
    383.472128,      127.1930,       82.9702,        2.6456,        1.8988,      0.379019,     2103.5530
    383.624543,      125.9590,       81.6077,        2.7140,        1.9206,      0.387230,     2111.5740
    383.776958,      125.1530,       82.9657,        2.7880,        1.9451,      0.397413,     2112.2240
    383.929373,      124.2100,       83.4379,        2.7430,        1.9084,      0.372950,     2110.4740
    384.081788,      123.4860,       88.2982,        2.6138,        1.8367,      0.355470,     2115.0430
    384.234204,      123.0840,       85.1927,        2.5091,        1.7638,      0.369182,     2117.2240
    384.386619,      123.6510,       88.1118,        2.4772,        1.7288,      0.389502,     2123.9540
    384.539034,      124.6250,       87.6667,        2.4743,        1.6846,      0.381515,     2121.7740
    384.691449,      124.6530,       87.8950,        2.5292,        1.7015,      0.396172,     2126.9640
    384.843864,      124.3880,       86.6976,        2.5720,        1.7542,      0.394974,     2134.1440
    384.996280,      122.7610,       80.9679,        2.5834,        1.7700,      0.398424,     2131.3130
    385.148695,      121.3340,       77.2269,        2.6042,        1.7957,      0.367464,     2126.3340
    385.301110,      120.8060,       72.7362,        2.6681,        1.8477,      0.356924,     2127.4240
    385.453525,      121.5240,       82.0908,        2.7200,        1.8979,      0.349696,     2139.1240
    385.605940,      123.7380,       88.5704,        2.6744,        1.8691,      0.356318,     2145.6340
