~Version
VERS  .             3.0                                 : CWLS LOG ASCII STANDARD - VERSION 3.0
WRAP  .             NO                                  : One line per depth step
DLM   .             COMMA                               : Delimiter character between data columns
#Delimiting character ( SPACE TAB OR COMMA ).

~Well
#MNEM.UNIT          DATA                                DESCRIPTION
#----- ----        -----------------                   -----------
STRT  .M                45.415200                       : FIRST INDEX VALUE
STOP  .M              1570.939000                       : LAST INDEX VALUE
STEP  .M                 0.152415                       : STEP OF INDEX
NULL  .             -999.25                             : NULL VALUE
COMP  .                                                 : COMPANY
WELL  .             DENEB                               : WELL
FLD   .                                                 : FIELD
LOC   .                                                 : LOCATION
SRVC  .                                                 : SERVICE COMPANY
CTRY  .                                                 : COUNTRY
PROV  .                                                 : PROVINCE
UWI   .                                                 : UNIQUE WELL ID
LIC   .                                                 : LICENSE NUMBER
STAT  .                                                 : STATE
CNTY  .                                                 : COUNTY
API   .                                                 : API NUMBER
DATE  .                                                 : LOG DATE
X     .             652390.6754077                      : X OR EAST-WEST COORDINATE
Y     .             8156955.995978                      : Y OR NORTH-SOUTH COORDINATE
HZCS  .                                                 : HORIZONTAL CO-ORDINATE SYSTEM
LATI  .             -16.66496666667                     : LATITUDE
LONG  .             154.4290166667                      : LONGITUDE
GDAT  .                                                 : GEODETIC DATUM

~TOPS_PARAMETER 
#MNEM.UNIT                    VALUE                        DESCRIPTION
#--------------- ---         ------------                 -----------------

~TOPS_DEFINITION 
#MNEM.UNIT                 LOG CODE                  CURVE DESCRIPTION
#----------- ----         ------------              -----------------
DEPTH       .M                                      :     {F}
TOPS        .                                       : Values changed using TEXT_EDIT    {S30}

~TOPS_DATA | TOPS_DEFINITION
        4.1000,Doyles Creek Subgroup         
      419.4682,Horseshoe Creek Subgroup      
      501.5000,Apple Tree Flat Subgroup      
      733.3034,Watts Sandstone               
      745.0000,Denman Fm                     
      897.5169,Mt Leonard Fm                 
      988.0000,Althorpe Fm                   
      998.0000,Malabar Fm                    
     1032.6344,Mt Ogilvie Fm                 
     1072.6279,Milbrodale Fm                 
     1154.0702,Mt Thorley Fm                 
     1199.0000,Burnamwood Fm                 
     1301.8490,Archerfield Sandstone         
     1319.7432,Mulbring Siltstone            
     1392.5000,Muree Sandstone               
     1501.0000,Branxton Fm                   
     1543.2499,Greta Coal Measures           
     1558.5020,Dalwood Group                 
     1568.0780,                              

~PARAMETER 
#MNEM.UNIT                    VALUE                        DESCRIPTION
#--------------- ---         ------------                 -----------------

~CURVE 
#MNEM.UNIT                 LOG CODE                  CURVE DESCRIPTION
#----------- ----         ------------              -----------------
DEPTH       .M                                      :     {F}
DT          .US/F                                   : Loaded from LIS tape.  Reversed.    {F}
GR          .GAPI                                   : Loaded from LIS tape.  Reversed. (GR_2 Cleared: 1 Segment)    {F}
LLD         .OHMM                                   : Loaded from LIS tape.  Reversed.    {F}
LLS         .OHMM                                   : Loaded from LIS tape.  Reversed.    {F}
NPHI        .V/V                                    : Loaded from LIS tape.  Reversed.    {F}
RHOB        .K/M3                                   : Offset applied to log data.    {F}

~ASCII | CURVE 
# ...
   1101.652580,       96.6550,      113.3010,        5.1454,        4.4410,      0.304633,     2450.5230
   1101.804995,       96.1546,      107.9590,        5.2475,        4.5313,      0.289616,     2452.9440
   1101.957410,       95.8700,      110.5260,        5.2227,        4.5077,      0.278762,     2454.2940
   1102.109825,       96.0719,      126.8620,        5.1949,        4.4927,      0.279069,     2452.1940
   1102.262241,       96.4904,      135.5390,        5.1141,        4.4474,      0.277906,     2453.6940
   1102.414656,       96.6682,      139.3490,        5.1173,        4.4409,      0.288320,     2452.1940
   1102.567071,       96.4283,      131.6820,        5.1452,        4.4860,      0.291432,     2456.3940
   1102.719486,       96.1824,      127.1680,        5.1692,        4.5500,      0.295271,     2456.0940
   1102.871901,       96.0385,      121.2710,        5.1822,        4.5513,      0.302095,     2452.1840
   1103.024317,       96.0866,      119.4860,        5.1325,        4.4996,      0.304538,     2450.9840
   1103.176732,       96.7729,      120.9360,        5.0247,        4.4104,      0.310087,     2445.5830
   1103.329147,       97.5381,      128.1390,        4.8854,        4.3278,      0.293247,     2437.7740
   1103.481562,       97.7500,      133.5560,        4.7746,        4.2756,      0.283312,     2435.3640
   1103.633977,       98.0963,      135.7510,        4.7352,        4.2598,      0.291846,     2436.7140
   1103.786393,       98.4233,      132.4360,        4.7326,        4.2781,      0.299961,     2440.0240
   1103.938808,       98.4136,      130.9230,        4.7901,        4.2898,      0.299057,     2430.4140
   1104.091223,       98.4615,      129.8750,        4.7694,        4.2942,      0.294472,     2422.8940
   1104.243638,       98.8475,      131.1120,        4.7025,        4.2680,      0.303149,     2417.6240
   1104.396053,       99.0866,      132.1350,        4.6217,        4.2122,      0.320817,     2419.8940
   1104.548469,       99.4719,      132.6840,        4.6107,        4.2161,      0.325305,     2425.7530
   1104.700884,       99.5385,      132.0100,        4.7170,        4.2919,      0.319638,     2428.9040
   1104.853299,       99.1103,      129.2870,        4.8727,        4.4344,      0.305544,     2428.1440
   1105.005714,       98.9375,      131.4670,        5.0913,        4.6329,      0.293841,     2427.5430
   1105.158130,       98.2872,      128.7570,        5.4244,        4.8790,      0.291693,     2428.9040
   1105.310545,       96.8716,      125.7660,        5.6748,        5.0060,      0.307249,     2430.8540
   1105.462960,       95.1198,      112.4380,        5.8546,        5.0696,      0.324448,     2423.3330
   1105.615375,       93.2193,       97.8243,        6.2487,        5.2976,      0.315561,     2404.8440
   1105.767790,       91.4070,       83.0437,        6.4878,        5.3336,      0.285441,     2381.9440
   1105.920206,       91.0051,       73.7571,        6.7688,        5.4187,      0.265073,     2351.7640
   1106.072621,       91.1059,       70.4037,        8.0039,        6.2812,      0.268885,     2323.9740
   1106.225036,       90.2154,       73.3644,        8.8755,        6.9766,      0.280583,     2291.8540
   1106.377451,       89.0754,       79.4469,        9.6032,        7.4755,      0.279437,     2289.1940
   1106.529866,       87.8359,       85.9647,       10.7407,        8.0846,      0.272583,     2315.9040
   1106.682282,       87.1770,       83.3354,       10.7588,        8.0545,      0.266437,     2346.3340
   1106.834697,       87.8448,       74.1849,        9.9676,        7.5428,      0.256160,     2360.7140
   1106.987112,       88.3609,       69.3286,        9.7270,        7.3434,      0.243298,     2349.5430
   1107.139527,       88.6979,       68.9096,        9.2849,        7.0338,      0.228749,     2327.2930
   1107.291942,       89.1174,       68.5833,        9.6801,        7.2624,      0.227184,     2298.3440
   1107.444358,       89.3369,       63.0528,       10.5168,        7.9757,      0.224442,     2282.0940
   1107.596773,       88.8531,       57.7830,       10.9515,        8.4394,      0.223675,     2285.9040
   1107.749188,       88.8853,       57.5844,       10.9111,        8.4571,      0.223782,     2291.5830
   1107.901603,       89.0434,       57.1072,       10.1048,        7.9560,      0.229060,     2285.9930
   1108.054018,       89.4548,       53.9194,        8.9102,        7.0469,      0.234851,     2276.2040
   1108.206434,       89.9728,       54.8057,        8.0353,        6.4017,      0.237008,     2263.7440
   1108.358849,       90.7778,       63.0525,        7.6544,        6.1038,      0.246145,     2262.3030
   1108.511264,       92.0175,       79.8803,        7.3415,        5.9154,      0.256443,     2256.7040
   1108.663679,       93.0459,       96.7384,        7.1309,        5.9406,      0.270480,     2282.2340
   1108.816094,       94.2286,      108.3930,        6.8269,        5.9782,      0.289023,     2343.8130
   1108.968510,       95.3211,      113.6370,        6.2524,        5.6923,      0.310898,     2399.0330
   1109.120925,       95.8863,      115.8880,        5.8483,        5.3716,      0.316170,     2426.1240
   1109.273340,       96.0434,      121.4330,        5.7069,        5.2166,      0.314412,     2421.9540
   1109.425755,       95.9755,      121.6250,        5.7513,        5.2136,      0.307510,     2417.7840
   1109.578170,       95.4573,      121.0560,        5.9333,        5.3911,      0.308780,     2417.7840
   1109.730586,       94.8146,      116.2680,        6.0494,        5.5200,      0.306805,     2425.9440
   1109.883001,       94.6250,      114.5180,        6.0537,        5.5370,      0.308581,     2425.4140
   1110.035416,       94.4076,      115.7310,        6.0316,        5.5145,      0.308021,     2418.2140
   1110.187831,       94.8347,      122.8020,        5.8796,        5.4205,      0.319368,     2406.3130
   1110.340247,       95.3683,      125.9060,        5.7525,        5.3011,      0.318905,     2404.8840
   1110.492662,       95.1079,      121.3810,        5.7623,        5.3260,      0.313002,     2406.0630
   1110.645077,       95.1120,      112.6580,        5.6800,        5.2830,      0.300619,     2414.2440
   1110.797492,       95.7965,      108.7060,        5.5180,        5.1820,      0.296238,     2419.1440
   1110.949907,       96.3238,      109.7310,        5.3976,        5.1005,      0.301830,     2423.8130
   1111.102323,       96.6998,      112.3860,        5.3209,        5.0255,      0.307615,     2422.8640
   1111.254738,       96.9433,      116.8250,        5.2327,        4.9456,      0.309082,     2423.0540
   1111.407153,       96.7818,      122.0850,        5.2841,        4.9988,      0.302262,     2423.6440
   1111.559568,       96.6875,      124.3410,        5.3563,        5.0584,      0.297276,     2420.9240
   1111.711983,       96.7747,      122.6640,        5.3452,        5.0683,      0.306600,     2417.0140
   1111.864399,       96.3750,      116.4310,        5.4354,        5.1416,      0.330176,     2418.5630
   1112.016814,       95.9257,      112.3800,        5.5385,        5.2238,      0.333947,     2415.6440
   1112.169229,       95.9872,      114.6390,        5.5269,        5.1892,      0.318381,     2415.2440
   1112.321644,       96.0189,      117.0270,        5.5333,        5.1566,      0.293782,     2418.5530
   1112.474059,       96.9158,      115.0150,        6.1269,        5.6839,      0.311879,     2422.4640
   1112.626475,       97.6628,      104.1750,        6.9443,        6.3768,      0.347185,     2371.6540
   1112.778890,       96.7646,       92.9264,        7.5403,        6.7966,      0.413367,     2282.5640
   1112.931305,       95.7880,       86.8589,        8.0157,        7.2356,      0.417010,     2230.4930
   1113.083720,       94.9958,       90.3579,        7.4584,        6.8984,      0.386746,     2255.9430
   1113.236135,       94.8373,      100.5980,        6.1666,        5.8198,      0.334482,     2335.3940
