~Version
VERS  .             3.0                                 : CWLS LOG ASCII STANDARD - VERSION 3.0
WRAP  .             NO                                  : One line per depth step
DLM   .             COMMA                               : Delimiter character between data columns
#Delimiting character ( SPACE TAB OR COMMA ).

~Well
#MNEM.UNIT          DATA                                DESCRIPTION
#----- ----        -----------------                   -----------
STRT  .M                45.415200                       : FIRST INDEX VALUE
STOP  .M              1570.939000                       : LAST INDEX VALUE
STEP  .M                 0.152415                       : STEP OF INDEX
NULL  .             -999.25                             : NULL VALUE
COMP  .                                                 : COMPANY
WELL  .             DENEB                               : WELL
FLD   .                                                 : FIELD
LOC   .                                                 : LOCATION
SRVC  .                                                 : SERVICE COMPANY
CTRY  .                                                 : COUNTRY
PROV  .                                                 : PROVINCE
UWI   .                                                 : UNIQUE WELL ID
LIC   .                                                 : LICENSE NUMBER
STAT  .                                                 : STATE
CNTY  .                                                 : COUNTY
API   .                                                 : API NUMBER
DATE  .                                                 : LOG DATE
X     .             652390.6754077                      : X OR EAST-WEST COORDINATE
Y     .             8156955.995978                      : Y OR NORTH-SOUTH COORDINATE
HZCS  .                                                 : HORIZONTAL CO-ORDINATE SYSTEM
LATI  .             -16.66496666667                     : LATITUDE
LONG  .             154.4290166667                      : LONGITUDE
GDAT  .                                                 : GEODETIC DATUM

~TOPS_PARAMETER 
#MNEM.UNIT                    VALUE                        DESCRIPTION
#--------------- ---         ------------                 -----------------

~TOPS_DEFINITION 
#MNEM.UNIT                 LOG CODE                  CURVE DESCRIPTION
#----------- ----         ------------              -----------------
DEPTH       .M                                      :     {F}
TOPS        .                                       : Values changed using TEXT_EDIT    {S30}

~TOPS_DATA | TOPS_DEFINITION
        4.1000,Doyles Creek Subgroup         
      419.4682,Horseshoe Creek Subgroup      
      501.5000,Apple Tree Flat Subgroup      
      733.3034,Watts Sandstone               
      745.0000,Denman Fm                     
      897.5169,Mt Leonard Fm                 
      988.0000,Althorpe Fm                   
      998.0000,Malabar Fm                    
     1032.6344,Mt Ogilvie Fm                 
     1072.6279,Milbrodale Fm                 
     1154.0702,Mt Thorley Fm                 
     1199.0000,Burnamwood Fm                 
     1301.8490,Archerfield Sandstone         
     1319.7432,Mulbring Siltstone            
     1392.5000,Muree Sandstone               
     1501.0000,Branxton Fm                   
     1543.2499,Greta Coal Measures           
     1558.5020,Dalwood Group                 
     1568.0780,                              

~PARAMETER 
#MNEM.UNIT                    VALUE                        DESCRIPTION
#--------------- ---         ------------                 -----------------

~CURVE 
#MNEM.UNIT                 LOG CODE                  CURVE DESCRIPTION
#----------- ----         ------------              -----------------
DEPTH       .M                                      :     {F}
DT          .US/F                                   : Loaded from LIS tape.  Reversed.    {F}
GR          .GAPI                                   : Loaded from LIS tape.  Reversed. (GR_2 Cleared: 1 Segment)    {F}
LLD         .OHMM                                   : Loaded from LIS tape.  Reversed.    {F}
LLS         .OHMM                                   : Loaded from LIS tape.  Reversed.    {F}
NPHI        .V/V                                    : Loaded from LIS tape.  Reversed.    {F}
RHOB        .K/M3                                   : Offset applied to log data.    {F}

~ASCII | CURVE 
# ...
   1019.500784,       96.4265,       83.4949,        5.2774,        5.0248,      0.304869,     2344.9730
   1019.653199,       96.3729,       86.7003,        5.3744,        5.1302,      0.305471,     2339.5040
   1019.805614,       94.5699,       87.9084,        5.6588,        5.3934,      0.292808,     2339.1240
   1019.958029,       91.4134,       82.4836,        6.5470,        6.2135,      0.278517,     2345.1840
   1020.110444,       87.0201,       76.5544,        7.7278,        7.3182,      0.273615,     2369.3240
   1020.262860,       83.4180,       71.4499,        8.4675,        8.0022,      0.250413,     2404.3230
   1020.415275,       81.8150,       72.8198,        8.5330,        8.0368,      0.216056,     2442.7830
   1020.567690,       84.2535,       78.2391,        7.7052,        7.2518,      0.205972,     2435.6440
   1020.720105,       88.9269,       84.4425,        6.4314,        6.0889,      0.220133,     2393.6940
   1020.872520,       93.2769,       86.7328,        5.5464,        5.3031,      0.251815,     2360.5830
   1021.024936,       95.7863,       90.3146,        5.2121,        5.0490,      0.279638,     2358.8440
   1021.177351,       95.3342,       93.0955,        5.3943,        5.1866,      0.299481,     2373.1040
   1021.329766,       92.8330,       92.3818,        5.8667,        5.6208,      0.304904,     2384.9640
   1021.482181,       89.7920,       87.0748,        6.3619,        6.0981,      0.281722,     2393.4840
   1021.634596,       87.8104,       81.2879,        6.5064,        6.2951,      0.255027,     2402.5330
   1021.787012,       88.7884,       79.4202,        6.0610,        5.9265,      0.238344,     2397.3440
   1021.939427,       91.3877,       79.0545,        5.2358,        5.1041,      0.245917,     2374.8640
   1022.091842,       94.2535,       81.7127,        4.6693,        4.5695,      0.259487,     2356.3040
   1022.244257,       96.1923,       87.8314,        4.2880,        4.2116,      0.272869,     2348.8740
   1022.396672,       97.3658,       91.8912,        3.9479,        3.8933,      0.287983,     2349.9640
   1022.549088,       97.6302,       92.5903,        3.8638,        3.8175,      0.294081,     2346.3840
   1022.701503,       97.3220,       91.8184,        3.9290,        3.8577,      0.296000,     2346.0730
   1022.853918,       96.0675,       89.7575,        3.9339,        3.8576,      0.293438,     2349.9740
   1023.006333,       95.5175,       92.2944,        3.9594,        3.8581,      0.285876,     2355.1240
   1023.158749,       95.9219,       92.3334,        3.8396,        3.7463,      0.278659,     2349.7440
   1023.311164,       97.2437,       92.1689,        3.6655,        3.5763,      0.269188,     2344.2630
   1023.463579,       98.0355,       91.4437,        3.7166,        3.6067,      0.280496,     2351.0840
   1023.615994,       96.8440,       89.2289,        4.0105,        3.8480,      0.292189,     2359.0330
   1023.768409,       95.3239,       88.1347,        4.4432,        4.2561,      0.291129,     2364.9040
   1023.920825,       92.3175,       86.7212,        5.0404,        4.8041,      0.282370,     2370.7540
   1024.073240,       89.2357,       86.6397,        5.1502,        4.9088,      0.273322,     2390.3540
   1024.225655,       89.1156,       87.0402,        4.7576,        4.5901,      0.267057,     2406.4840
   1024.378070,       91.1650,       90.5478,        4.4304,        4.3032,      0.261068,     2408.7140
   1024.530485,       94.4676,       93.0211,        3.7640,        3.6964,      0.268184,     2389.2240
   1024.682901,       98.3720,       95.8720,        3.1281,        3.0821,      0.285935,     2363.7240
   1024.835316,      101.4930,       95.8320,        2.9570,        2.8988,      0.295782,     2344.0240
   1024.987731,      102.9200,      101.2290,        2.8648,        2.8193,      0.305212,     2335.1940
   1025.140146,      103.3080,      106.2510,        2.9280,        2.8865,      0.307377,     2336.3040
   1025.292561,      101.6100,      105.6010,        3.2875,        3.2170,      0.316495,     2340.2130
   1025.444977,       98.7039,      102.7080,        3.7778,        3.6684,      0.314136,     2350.3640
   1025.597392,       96.1833,       98.7591,        4.2810,        4.1299,      0.307067,     2357.7930
   1025.749807,       94.6109,       95.6995,        4.4767,        4.3341,      0.295296,     2357.9340
   1025.902222,       95.7523,       92.1065,        4.2258,        4.1222,      0.282341,     2350.9640
   1026.054637,       97.3476,       88.7157,        3.8700,        3.7821,      0.272988,     2347.4740
   1026.207053,       99.4323,       91.3725,        3.4802,        3.4263,      0.266891,     2347.4740
   1026.359468,      100.9360,       98.0868,        3.2344,        3.1596,      0.272338,     2343.7140
   1026.511883,      101.8130,      105.7990,        3.1486,        3.0632,      0.291145,     2346.6440
   1026.664298,      102.2450,      109.6290,        3.2864,        3.1441,      0.310610,     2358.2040
   1026.816713,      101.0260,      105.1250,        3.7259,        3.5117,      0.309989,     2373.1440
   1026.969129,       97.9874,       96.9810,        4.6794,        4.3356,      0.303647,     2374.9640
   1027.121544,       94.0403,       88.6656,        5.9474,        5.4462,      0.288459,     2372.8640
   1027.273959,       90.3471,       81.2971,        7.3061,        6.6391,      0.287685,     2374.1240
   1027.426374,       87.8792,       78.7544,        7.7150,        7.0031,      0.275493,     2384.8640
   1027.578789,       86.4637,       77.0389,        7.6540,        6.9790,      0.274141,     2387.9240
   1027.731205,       84.5381,       77.4087,        7.7848,        7.1510,      0.273932,     2385.2840
   1027.883620,       82.6840,       77.2018,        7.3866,        6.8201,      0.265839,     2388.3440
   1028.036035,       81.6010,       77.5743,        7.2256,        6.6662,      0.254192,     2390.4440
   1028.188450,       79.4625,       79.8722,        7.3889,        6.8506,      0.246056,     2386.6740
   1028.340866,       78.7192,       79.4263,        7.0959,        6.6407,      0.252001,     2383.3230
   1028.493281,       79.6378,       78.0228,        6.9930,        6.5464,      0.253211,     2397.6840
   1028.645696,       80.4240,       77.9687,        7.2210,        6.7967,      0.253034,     2407.3130
   1028.798111,       82.2387,       76.6727,        6.9495,        6.6428,      0.254852,     2397.9340
   1028.950526,       86.1033,       79.7790,        6.1479,        5.9499,      0.250340,     2383.5940
   1029.102942,       89.7233,       82.5416,        5.4505,        5.2820,      0.239064,     2383.7530
   1029.255357,       92.3393,       89.6250,        4.6853,        4.5480,      0.244420,     2390.3030
   1029.407772,       95.7202,       92.6112,        3.9477,        3.8531,      0.265076,     2383.6040
   1029.560187,       99.4266,       91.1378,        3.5503,        3.4753,      0.291732,     2378.7240
   1029.712602,      100.8490,       95.2348,        3.3141,        3.2252,      0.301128,     2383.7530
   1029.865018,      101.6230,      105.7120,        3.1237,        3.0494,      0.306134,     2394.0940
   1030.017433,      102.0400,      114.9280,        3.0000,        2.9350,      0.306255,     2394.4830
   1030.169848,      102.5450,      115.7740,        2.8686,        2.8043,      0.300916,     2389.8740
   1030.322263,      103.2170,      112.8110,        2.7662,        2.6801,      0.294409,     2389.7530
   1030.474678,      103.8000,      112.3550,        2.6616,        2.5736,      0.298605,     2381.6240
   1030.627094,      104.2010,      112.9700,        2.5949,        2.4959,      0.306027,     2365.4240
   1030.779509,      104.3530,      107.6120,        2.5808,        2.4740,      0.318794,     2349.1340
   1030.931924,      103.9720,      102.3880,        2.6093,        2.4934,      0.323763,     2346.0830
   1031.084339,      103.1030,      102.5620,        2.6647,        2.5221,      0.333035,     2344.9440
