~Version
VERS  .             3.0                                 : CWLS LOG ASCII STANDARD - VERSION 3.0
WRAP  .             NO                                  : One line per depth step
DLM   .             COMMA                               : Delimiter character between data columns
#Delimiting character ( SPACE TAB OR COMMA ).

~Well
#MNEM.UNIT          DATA                                DESCRIPTION
#----- ----        -----------------                   -----------
STRT  .M                45.415200                       : FIRST INDEX VALUE
STOP  .M              1570.939000                       : LAST INDEX VALUE
STEP  .M                 0.152415                       : STEP OF INDEX
NULL  .             -999.25                             : NULL VALUE
COMP  .                                                 : COMPANY
WELL  .             DENEB                               : WELL
FLD   .                                                 : FIELD
LOC   .                                                 : LOCATION
SRVC  .                                                 : SERVICE COMPANY
CTRY  .                                                 : COUNTRY
PROV  .                                                 : PROVINCE
UWI   .                                                 : UNIQUE WELL ID
LIC   .                                                 : LICENSE NUMBER
STAT  .                                                 : STATE
CNTY  .                                                 : COUNTY
API   .                                                 : API NUMBER
DATE  .                                                 : LOG DATE
X     .             652390.6754077                      : X OR EAST-WEST COORDINATE
Y     .             8156955.995978                      : Y OR NORTH-SOUTH COORDINATE
HZCS  .                                                 : HORIZONTAL CO-ORDINATE SYSTEM
LATI  .             -16.66496666667                     : LATITUDE
LONG  .             154.4290166667                      : LONGITUDE
GDAT  .                                                 : GEODETIC DATUM

~TOPS_PARAMETER 
#MNEM.UNIT                    VALUE                        DESCRIPTION
#--------------- ---         ------------                 -----------------

~TOPS_DEFINITION 
#MNEM.UNIT                 LOG CODE                  CURVE DESCRIPTION
#----------- ----         ------------              -----------------
DEPTH       .M                                      :     {F}
TOPS        .                                       : Values changed using TEXT_EDIT    {S30}

~TOPS_DATA | TOPS_DEFINITION
        4.1000,Doyles Creek Subgroup         
      419.4682,Horseshoe Creek Subgroup      
      501.5000,Apple Tree Flat Subgroup      
      733.3034,Watts Sandstone               
      745.0000,Denman Fm                     
      897.5169,Mt Leonard Fm                 
      988.0000,Althorpe Fm                   
      998.0000,Malabar Fm                    
     1032.6344,Mt Ogilvie Fm                 
     1072.6279,Milbrodale Fm                 
     1154.0702,Mt Thorley Fm                 
     1199.0000,Burnamwood Fm                 
     1301.8490,Archerfield Sandstone         
     1319.7432,Mulbring Siltstone            
     1392.5000,Muree Sandstone               
     1501.0000,Branxton Fm                   
     1543.2499,Greta Coal Measures           
     1558.5020,Dalwood Group                 
     1568.0780,                              

~PARAMETER 
#MNEM.UNIT                    VALUE                        DESCRIPTION
#--------------- ---         ------------                 -----------------

~CURVE 
#MNEM.UNIT                 LOG CODE                  CURVE DESCRIPTION
#----------- ----         ------------              -----------------
DEPTH       .M                                      :     {F}
DT          .US/F                                   : Loaded from LIS tape.  Reversed.    {F}
GR          .GAPI                                   : Loaded from LIS tape.  Reversed. (GR_2 Cleared: 1 Segment)    {F}
LLD         .OHMM                                   : Loaded from LIS tape.  Reversed.    {F}
LLS         .OHMM                                   : Loaded from LIS tape.  Reversed.    {F}
NPHI        .V/V                                    : Loaded from LIS tape.  Reversed.    {F}
RHOB        .K/M3                                   : Offset applied to log data.    {F}

~ASCII | CURVE 
# ...
   1559.355444,       50.1301,       53.5452,       29.5999,       26.5475,      0.116324,     2688.4940
   1559.507860,       50.9314,       53.3141,       38.6433,       34.0455,      0.064838,     2751.2940
   1559.660275,       51.9880,       57.2674,       57.7613,       51.5668,      0.053832,     2757.5530
   1559.812690,       51.9380,       56.9407,       47.3254,       42.9928,      0.049354,     2775.0540
   1559.965105,       51.6890,       50.7864,       45.4398,       41.4865,      0.044462,     2775.2040
   1560.117520,       52.1208,       48.9240,       45.1881,       41.2221,      0.040565,     2798.4140
   1560.269936,       51.8147,       56.0435,       46.4583,       42.6235,      0.038103,     2796.7040
   1560.422351,       52.6781,       67.5007,       50.2530,       47.2431,      0.039535,     2787.0330
   1560.574766,       52.8735,       71.9645,       48.0637,       46.3976,      0.048753,     2773.3640
   1560.727181,       53.5588,       69.9486,       44.6692,       43.7028,      0.062912,     2755.7630
   1560.879596,       53.5006,       73.4054,       44.5973,       44.4455,      0.072664,     2757.6040
   1561.032012,       55.1144,       84.3039,       41.1716,       42.2345,      0.079060,     2753.7540
   1561.184427,       57.1663,       96.0042,       34.4313,       36.0047,      0.079585,     2792.3840
   1561.336842,       58.3660,       99.7844,       29.4884,       31.2625,      0.081044,     2779.2140
   1561.489257,       58.4372,       94.8991,       28.4949,       30.4188,      0.085914,     2757.7230
   1561.641672,       58.4375,       91.2195,       29.5030,       31.5244,      0.090778,     2685.9940
   1561.794088,       57.7541,       87.1494,       32.4168,       34.7716,      0.096644,     2693.1240
   1561.946503,       56.3885,       85.3302,       36.1182,       38.6252,      0.097163,     2668.0330
   1562.098918,       55.3201,       83.2647,       38.8541,       41.6125,      0.097168,     2679.4240
   1562.251333,       54.0680,       82.9389,       40.4477,       43.3223,      0.098626,     2669.7730
   1562.403748,       54.6204,       84.3013,       47.0789,       49.6105,      0.093306,     2692.9840
   1562.556164,       53.5062,       84.4990,       61.0254,       63.2954,      0.087920,     2699.0040
   1562.708579,       53.3762,       84.7477,       71.4896,       74.2549,      0.074829,     2706.7740
   1562.860994,       53.2508,       81.2111,       80.4500,       83.4629,      0.065491,     2697.1440
   1563.013409,       52.4407,       75.8334,       88.9662,       92.7047,      0.057161,     2735.9940
   1563.165824,       51.7553,       66.9437,       94.2535,       98.4674,      0.059067,     2743.8940
   1563.318240,       50.6928,       66.5641,      105.3460,      110.3380,      0.062969,     2751.7230
   1563.470655,       50.2538,       64.0845,      112.4170,      117.9710,      0.061536,     2757.5730
   1563.623070,       50.2500,       67.9759,      121.0020,      128.5630,      0.055700,     2745.9740
   1563.775485,       49.9386,       67.0034,      116.1380,      126.0930,      0.047391,     2761.4840
   1563.927901,       50.5580,       67.6826,      110.7430,      121.3050,      0.041546,     2755.7140
   1564.080316,       50.3136,       65.8832,      106.0620,      117.4140,      0.037615,     2763.4440
   1564.232731,       50.9943,       64.6973,       90.2329,      102.1220,      0.039050,     2765.4240
   1564.385146,       51.1243,       63.8485,       77.9217,       87.5431,      0.040034,     2767.3840
   1564.537561,       51.2496,       60.2604,       76.9455,       86.9143,      0.041013,     2781.0240
   1564.689977,       52.1812,       60.6225,       70.3892,       80.2793,      0.043926,     2788.8230
   1564.842392,       55.3000,       60.6561,       55.4666,       62.7783,      0.047350,     2806.3840
   1564.994807,       59.9014,       63.8189,       37.2805,       41.5152,      0.050755,     2789.0140
   1565.147222,       64.5388,       61.0146,       25.6448,       28.5160,      0.052724,     2784.9940
   1565.299637,       67.9918,       61.6859,       20.6965,       23.0926,      0.065399,     2753.7940
   1565.452053,       68.5590,       59.4825,       18.5910,       20.7663,      0.082414,     2724.6040
   1565.604468,       68.0020,       58.0674,       18.6486,       20.8564,      0.104901,     2664.0840
   1565.756883,       67.1934,       56.7286,       20.3142,       22.5739,      0.113706,     2644.4830
   1565.909298,       65.6944,       56.3766,       23.2146,       25.6719,      0.120573,     2628.7940
   1566.061713,       63.5665,       58.9639,       25.5738,       27.9976,      0.120605,     2632.6140
   1566.214129,       63.8732,       56.5762,       29.2527,       31.8868,      0.120120,     2622.9240
   1566.366544,       64.1243,       58.4319,       29.5486,       31.8856,      0.107460,     2617.0240
   1566.518959,       64.7458,       58.0961,       25.8391,       27.7347,      0.094813,     2617.0040
   1566.671374,       65.6836,       59.0585,       24.0131,       25.5382,      0.080138,     2609.2240
   1566.823789,       66.3116,       57.3149,       21.4775,       22.8876,      0.083004,     2609.1940
   1566.976205,       67.5560,       58.8979,       19.5216,       20.6139,      0.086894,     2601.4140
   1567.128620,       67.6248,       59.3427,       19.1194,       20.1799,      0.093733,     2603.3340
   1567.281035,       67.2524,       61.5796,       20.5685,       21.5323,      0.092780,     2591.6840
   1567.433450,       67.5614,       61.9363,       20.7859,       21.7269,      0.092773,     2585.7740
   1567.585865,       67.8125,       61.5000,       20.6283,       21.5273,      0.088867,     2558.4040
   1567.738281,       68.5590,       62.1531,       19.6207,       21.5195,      0.081577,     2548.6940
   1567.890696,       69.7476,       58.9439,       16.9698,       19.3153,      0.073746,     2546.6940
   1568.043111,       70.0607,       59.3725,       16.4183,       17.3669,      0.068876,     2568.0540
   1568.195526,       70.5609,       57.8486,       16.2123,       17.1318,      0.073229,     2595.4240
   1568.347941,       70.1250,     -999.2500,       16.0617,       17.1011,      0.072266,     2593.5630
   1568.500357,       71.0586,     -999.2500,       15.5537,       16.4648,      0.047468,     2585.7840
   1568.652772,       72.1858,     -999.2500,       14.7407,       15.7479,      0.022498,     2574.0540
   1568.805187,       71.8145,     -999.2500,       14.4567,       15.3364,      0.008376,     2581.8030
   1568.957602,       71.3138,     -999.2500,       15.9446,       16.7255,      0.008301,     2585.7440
   1569.110018,       68.4375,     -999.2500,       18.2001,       19.0219,      0.008301,     2585.7540
   1569.262433,       67.1299,     -214.3750,       18.9143,       19.6736,      0.008301,     2593.5340
   1569.414848,       65.6250,     -214.3750,       19.0661,       19.7929,      0.008301,     2587.7040
   1569.567263,       66.0604,     -214.3750,       19.0546,       19.8499,      0.008301,     2585.7640
   1569.719678,       67.0604,     -214.3750,       19.0752,       19.8205,      0.008301,     2583.8040
   1569.872094,       67.3125,     -214.3750,       19.0695,       19.8788,      0.008301,     2583.8040
   1570.024509,       69.1192,     -214.3750,       19.0858,       19.9126,      0.008301,     2577.9640
   1570.176924,       69.3125,     -214.3750,       19.0970,       19.9388,      0.008301,     2550.5940
   1570.329339,       68.4413,     -214.3750,       19.0711,       19.8881,      0.008301,     2535.0440
   1570.481754,       67.9383,     -214.3750,       19.1922,       19.8801,      0.008301,     2534.9740
   1570.634170,       68.3133,     -214.3750,       19.1194,       19.9472,      0.008301,     2548.6540
   1570.786585,       68.9981,     -214.3750,       19.1339,       19.9626,      0.008788,     2554.4840
   1570.939000,       69.3125,     -214.3750,       19.1136,       19.9353,      0.008789,     2562.3130
