~Version
VERS  .             3.0                                 : CWLS LOG ASCII STANDARD - VERSION 3.0
WRAP  .             NO                                  : One line per depth step
DLM   .             COMMA                               : Delimiter character between data columns
#Delimiting character ( SPACE TAB OR COMMA ).

~Well
#MNEM.UNIT          DATA                                DESCRIPTION
#----- ----        -----------------                   -----------
STRT  .M                196.13880                       : FIRST INDEX VALUE
STOP  .M               1579.62600                       : LAST INDEX VALUE
STEP  .M                  0.15240                       : STEP OF INDEX
NULL  .             -999.25                             : NULL VALUE
COMP  .                                                 : COMPANY
WELL  .             ELECTRA                             : WELL
FLD   .                                                 : FIELD
LOC   .                                                 : LOCATION
SRVC  .                                                 : SERVICE COMPANY
CTRY  .                                                 : COUNTRY
PROV  .                                                 : PROVINCE
UWI   .                                                 : UNIQUE WELL ID
LIC   .                                                 : LICENSE NUMBER
STAT  .                                                 : STATE
CNTY  .                                                 : COUNTY
API   .                                                 : API NUMBER
DATE  .                                                 : LOG DATE
X     .             2143051.716                         : X OR EAST-WEST COORDINATE
Y     .             26768067.231                        : Y OR NORTH-SOUTH COORDINATE
HZCS  .                                                 : HORIZONTAL CO-ORDINATE SYSTEM
LATI  .             -16.64728388889                     : LATITUDE
LONG  .             154.4364930556                      : LONGITUDE
GDAT  .                                                 : GEODETIC DATUM

~TOPS_PARAMETER 
#MNEM.UNIT                    VALUE                        DESCRIPTION
#--------------- ---         ------------                 -----------------

~TOPS_DEFINITION 
#MNEM.UNIT                 LOG CODE                  CURVE DESCRIPTION
#----------- ----         ------------              -----------------
DEPTH       .FT                                     :     {F}
TOPS        .                                       : Values changed using TEXT_EDIT    {S72}

~TOPS_DATA | TOPS_DEFINITION
       13.7795,Doyles Creek Subgroup                                                   
     1433.7270,Horseshoe Creek Subgroup                                                
     1653.0770,Apple Tree Flat Subgroup                                                
     2412.7852,Watts Sandstone                                                         
     2444.2257,Denman Fm                                                               
     3016.6200,Mt Leonard Fm                                                           
     3352.1896,Althorpe Fm                                                             
     3389.2417,Malabar Fm                                                              
     3476.9249,Mt Ogilvie Fm                                                           
     3590.7158,Milbrodale Fm                                                           
     3852.8016,Mt Thorley Fm                                                           
     3990.1575,Burnamwood Fm                                                           
     4276.9029,Archerfield Sandstone                                                   
     4366.1417,Mulbring Siltstone                                                      
     4566.9291,Muree Sandstone                                                         
     4960.6299,Branxton Fm                                                             
     5037.5474,Greta Coal Measures                                                     
     5126.9840,Dalwood Group                                                           
     5155.3938,                                                                        

~PARAMETER 
#MNEM.UNIT                    VALUE                        DESCRIPTION
#--------------- ---         ------------                 -----------------

~CURVE 
#MNEM.UNIT                 LOG CODE                  CURVE DESCRIPTION
#----------- ----         ------------              -----------------
DEPTH       .M                                      : Index    {F}
DT          .US/F                                   : Delta-T (also called Slowness or Interval Transit Time)    {F}
GR          .GAPI                                   : Gamma Ray    {F}
LLD         .OHMM                                   : Laterolog Deep Resistivity    {F}
LLS         .OHMM                                   : Laterolog Shallow Resistivity    {F}
NPHI        .V/V                                    : Thermal Neutron Porosity (original Ratio Method) in Selected Lit    {F}
RHOB        .K/M3                                   : Bulk Density    {F}

~ASCII | CURVE 
# ...
     923.69640,      108.5900,       73.3400,        2.9570,        2.8070,   -999.250000,     2397.0000
     923.84880,      109.6520,       70.5270,        2.8160,        2.6310,   -999.250000,     2387.0000
     924.00120,      110.7150,       71.1520,        2.6200,        2.4660,   -999.250000,     2391.0000
     924.15360,      108.1520,       70.9020,        2.5650,        2.3470,   -999.250000,     2407.0000
     924.30600,      103.0900,       71.3400,        2.5040,        2.3330,   -999.250000,     2442.0000
     924.45840,       99.4020,       68.7150,        2.4410,        2.2530,   -999.250000,     2469.0000
     924.61080,       99.1520,       70.4020,        2.4350,        2.2540,   -999.250000,     2453.0000
     924.76320,      103.3400,       69.4020,        2.4390,        2.2470,   -999.250000,     2428.0000
     924.91560,      106.8400,       72.4650,        2.3200,        2.1550,   -999.250000,     2397.0000
     925.06800,      110.2770,       72.4650,        2.3220,        2.1100,   -999.250000,     2391.0000
     925.22040,      110.0270,       78.1520,        2.3330,        2.1990,   -999.250000,     2377.0000
     925.37280,      109.0270,       77.9020,        2.4240,        2.2340,   -999.250000,     2365.0000
     925.52520,      109.0270,       77.2770,        2.4920,        2.2980,   -999.250000,     2352.0000
     925.67760,      108.7150,       67.3400,        2.5490,        2.3850,   -999.250000,     2350.0000
     925.83000,      107.5270,       71.1520,        2.6870,        2.5040,   -999.250000,     2362.0000
     925.98240,      107.0270,       71.9020,        2.6520,        2.4660,   -999.250000,     2371.0000
     926.13480,      107.4020,       71.4650,        2.5990,        2.3920,   -999.250000,     2381.0000
     926.28720,      107.2770,       68.4020,        2.5020,        2.3320,   -999.250000,     2385.0000
     926.43960,      108.6520,       65.5270,        2.3720,        2.1850,   -999.250000,     2395.0000
     926.59200,      110.6520,       69.8400,        2.2160,        2.0500,   -999.250000,     2389.0000
     926.74440,      111.7770,       76.5270,        2.1590,        2.0070,   -999.250000,     2383.0000
     926.89680,      112.9020,       79.6520,        2.1290,        1.9650,   -999.250000,     2379.0000
     927.04920,      112.8400,       83.2770,        2.1450,        1.9850,   -999.250000,     2379.0000
     927.20160,      113.3400,       79.7150,        2.1240,        1.9650,   -999.250000,     2391.0000
     927.35400,      113.0270,       79.5900,        2.0920,        1.8970,   -999.250000,     2383.0000
     927.50640,      113.0900,       75.8400,        2.0550,        1.8730,   -999.250000,     2391.0000
     927.65880,      113.4020,       75.8400,        2.0320,        1.8630,   -999.250000,     2379.0000
     927.81120,      111.9020,       79.0270,        2.1200,        1.9550,   -999.250000,     2385.0000
     927.96360,      110.6520,       78.7770,        2.2200,        2.0410,   -999.250000,     2385.0000
     928.11600,      110.0900,       80.0900,        2.2130,        2.0170,   -999.250000,     2387.0000
     928.26840,      109.7150,       77.5900,        2.2050,        2.0060,   -999.250000,     2383.0000
     928.42080,      110.3400,       73.8400,        2.1080,        1.9000,   -999.250000,     2383.0000
     928.57320,      111.5270,       75.7770,        1.9810,        1.7810,   -999.250000,     2379.0000
     928.72560,      112.2770,       75.5270,        1.9410,        1.7650,   -999.250000,     2395.0000
     928.87800,      113.3400,       84.7770,        1.9690,        1.7820,   -999.250000,     2387.0000
     929.03040,      114.2150,       84.5270,        2.0050,        1.8140,   -999.250000,     2399.0000
     929.18280,      115.1520,       87.4020,        2.0310,        1.8450,   -999.250000,     2379.0000
     929.33520,      115.6520,       83.4650,        2.1290,        1.9590,   -999.250000,     2373.0000
     929.48760,      114.7150,       83.4650,        2.3260,        2.0980,   -999.250000,     2354.0000
     929.64000,      114.2150,       80.9650,        2.3710,        2.1740,   -999.250000,     2364.0000
     929.79240,      112.6520,       80.2770,        2.5340,        2.2920,   -999.250000,     2367.0000
     929.94480,      111.0270,       77.5270,        2.6430,        2.3890,   -999.250000,     2379.0000
     930.09720,      111.2150,       76.9020,        2.5770,        2.3560,   -999.250000,     2387.0000
     930.24960,      110.5270,       73.7150,        2.5540,        2.3450,   -999.250000,     2379.0000
     930.40200,      110.1520,       72.5270,        2.5940,        2.3830,   -999.250000,     2383.0000
     930.55440,      109.2770,       69.5900,        2.5020,        2.3190,   -999.250000,     2381.0000
     930.70680,      108.7770,       71.0270,        2.3980,        2.1810,   -999.250000,     2401.0000
     930.85920,      109.2770,       71.3400,        2.3710,        2.2040,   -999.250000,     2395.0000
     931.01160,      110.7770,       76.5900,        2.3270,        2.1220,   -999.250000,     2393.0000
     931.16400,      112.4650,       82.0270,        2.1620,        2.0020,   -999.250000,     2383.0000
     931.31640,      113.8400,       84.2150,        2.0520,        1.8340,   -999.250000,     2387.0000
     931.46880,      115.1520,       89.2770,        1.9010,        1.7000,   -999.250000,     2367.0000
     931.62120,      116.5270,       87.9650,        1.7640,        1.5950,   -999.250000,     2371.0000
     931.77360,      116.5900,       94.6520,        1.6990,        1.5480,   -999.250000,     2379.0000
     931.92600,      115.9020,       90.6520,        1.7370,        1.5720,   -999.250000,     2395.0000
     932.07840,      115.7150,       87.2770,        1.7830,        1.5950,   -999.250000,     2391.0000
     932.23080,      115.9650,       82.2770,        1.8090,        1.6200,   -999.250000,     2379.0000
     932.38320,      116.1520,       79.2150,        1.8250,        1.6390,   -999.250000,     2381.0000
     932.53560,      116.0270,       82.0270,        1.8770,        1.6820,   -999.250000,     2385.0000
     932.68800,      116.0900,       81.1520,        1.8940,        1.7040,   -999.250000,     2379.0000
     932.84040,      115.9020,       81.1520,        1.8960,        1.7150,   -999.250000,     2375.0000
     932.99280,      116.3400,       83.7770,        1.8750,        1.6750,   -999.250000,     2373.0000
     933.14520,      117.0270,       85.8400,        1.7880,        1.6080,   -999.250000,     2379.0000
     933.29760,      117.7150,       83.0900,        1.7590,        1.5640,   -999.250000,     2379.0000
     933.45000,      118.1520,       82.0270,        1.7800,        1.5970,   -999.250000,     2381.0000
     933.60240,      117.5270,       81.7770,        1.8440,        1.6420,   -999.250000,     2377.0000
     933.75480,      117.4020,       86.5270,        1.9730,        1.7710,   -999.250000,     2383.0000
     933.90720,      116.2770,       83.1520,        2.1680,        1.9270,   -999.250000,     2377.0000
     934.05960,      115.4020,       79.1520,        2.2490,        2.0270,   -999.250000,     2377.0000
     934.21200,      115.1520,       77.2150,        2.3000,        2.0500,   -999.250000,     2365.0000
     934.36440,      114.7150,       80.4650,        2.2600,        2.0510,   -999.250000,     2371.0000
     934.51680,      114.4020,       81.5900,        2.2810,        2.0360,   -999.250000,     2369.0000
     934.66920,      113.8400,       81.0270,        2.2530,        2.0480,   -999.250000,     2381.0000
     934.82160,      114.2150,       80.9650,        2.2120,        2.0100,   -999.250000,     2387.0000
     934.97400,      114.1520,       79.9650,        2.2270,        1.9670,   -999.250000,     2387.0000
     935.12640,      114.3400,       79.2770,        2.1490,        1.9150,   -999.250000,     2375.0000
     935.27880,      114.5270,       81.5900,        2.0770,        1.8200,   -999.250000,     2362.0000
