~Version
VERS  .             3.0                                 : CWLS LOG ASCII STANDARD - VERSION 3.0
WRAP  .             NO                                  : One line per depth step
DLM   .             COMMA                               : Delimiter character between data columns
#Delimiting character ( SPACE TAB OR COMMA ).

~Well
#MNEM.UNIT          DATA                                DESCRIPTION
#----- ----        -----------------                   -----------
STRT  .M                196.13880                       : FIRST INDEX VALUE
STOP  .M               1579.62600                       : LAST INDEX VALUE
STEP  .M                  0.15240                       : STEP OF INDEX
NULL  .             -999.25                             : NULL VALUE
COMP  .                                                 : COMPANY
WELL  .             ELECTRA                             : WELL
FLD   .                                                 : FIELD
LOC   .                                                 : LOCATION
SRVC  .                                                 : SERVICE COMPANY
CTRY  .                                                 : COUNTRY
PROV  .                                                 : PROVINCE
UWI   .                                                 : UNIQUE WELL ID
LIC   .                                                 : LICENSE NUMBER
STAT  .                                                 : STATE
CNTY  .                                                 : COUNTY
API   .                                                 : API NUMBER
DATE  .                                                 : LOG DATE
X     .             2143051.716                         : X OR EAST-WEST COORDINATE
Y     .             26768067.231                        : Y OR NORTH-SOUTH COORDINATE
HZCS  .                                                 : HORIZONTAL CO-ORDINATE SYSTEM
LATI  .             -16.64728388889                     : LATITUDE
LONG  .             154.4364930556                      : LONGITUDE
GDAT  .                                                 : GEODETIC DATUM

~TOPS_PARAMETER 
#MNEM.UNIT                    VALUE                        DESCRIPTION
#--------------- ---         ------------                 -----------------

~TOPS_DEFINITION 
#MNEM.UNIT                 LOG CODE                  CURVE DESCRIPTION
#----------- ----         ------------              -----------------
DEPTH       .FT                                     :     {F}
TOPS        .                                       : Values changed using TEXT_EDIT    {S72}

~TOPS_DATA | TOPS_DEFINITION
       13.7795,Doyles Creek Subgroup                                                   
     1433.7270,Horseshoe Creek Subgroup                                                
     1653.0770,Apple Tree Flat Subgroup                                                
     2412.7852,Watts Sandstone                                                         
     2444.2257,Denman Fm                                                               
     3016.6200,Mt Leonard Fm                                                           
     3352.1896,Althorpe Fm                                                             
     3389.2417,Malabar Fm                                                              
     3476.9249,Mt Ogilvie Fm                                                           
     3590.7158,Milbrodale Fm                                                           
     3852.8016,Mt Thorley Fm                                                           
     3990.1575,Burnamwood Fm                                                           
     4276.9029,Archerfield Sandstone                                                   
     4366.1417,Mulbring Siltstone                                                      
     4566.9291,Muree Sandstone                                                         
     4960.6299,Branxton Fm                                                             
     5037.5474,Greta Coal Measures                                                     
     5126.9840,Dalwood Group                                                           
     5155.3938,                                                                        

~PARAMETER 
#MNEM.UNIT                    VALUE                        DESCRIPTION
#--------------- ---         ------------                 -----------------

~CURVE 
#MNEM.UNIT                 LOG CODE                  CURVE DESCRIPTION
#----------- ----         ------------              -----------------
DEPTH       .M                                      : Index    {F}
DT          .US/F                                   : Delta-T (also called Slowness or Interval Transit Time)    {F}
GR          .GAPI                                   : Gamma Ray    {F}
LLD         .OHMM                                   : Laterolog Deep Resistivity    {F}
LLS         .OHMM                                   : Laterolog Shallow Resistivity    {F}
NPHI        .V/V                                    : Thermal Neutron Porosity (original Ratio Method) in Selected Lit    {F}
RHOB        .K/M3                                   : Bulk Density    {F}

~ASCII | CURVE 
     196.13880,       56.1990,       50.6370,       89.0000,        0.2560,   -999.250000,     2174.0000
     196.29120,       56.1990,       51.1990,       89.0000,        0.2560,   -999.250000,     2207.0000
     196.44360,       56.3870,       49.1990,       89.0000,        0.2550,   -999.250000,     2229.0000
     196.59600,       56.2620,       46.6370,       89.0000,        0.2550,   -999.250000,     2235.0000
     196.74840,       56.5120,       42.5740,       16.3100,        0.2550,   -999.250000,     2231.0000
     196.90080,       56.9490,       38.2620,        1.1020,        0.2560,   -999.250000,     2225.0000
     197.05320,       62.9490,       40.9800,        0.6020,        0.2560,   -999.250000,     2254.0000
     197.20560,       56.6990,       45.6050,        0.5940,        0.2550,   -999.250000,     2254.0000
     197.35800,       56.9490,       47.1370,        0.5810,        0.2540,   -999.250000,     2266.0000
     197.51040,       57.1370,       46.2930,        0.5700,        0.2540,   -999.250000,     2285.0000
     197.66280,       56.8870,       46.2930,        0.5560,        0.2540,   -999.250000,     2330.0000
     197.81520,       62.5740,       40.4180,        0.5440,        0.2540,   -999.250000,     2283.0000
     197.96760,       62.9490,       44.0120,        0.5350,        0.2560,   -999.250000,     2248.0000
     198.12000,       56.1370,       43.4800,        0.5240,        0.2570,   -999.250000,     2184.0000
     198.27240,       56.1370,       48.1990,        0.5130,        0.2570,   -999.250000,     2223.0000
     198.42480,       56.6990,       46.0120,        0.5060,        0.2560,   -999.250000,     2190.0000
     198.57720,       56.5740,       46.8550,        0.4980,        0.2560,   -999.250000,     2223.0000
     198.72960,       56.6990,       45.6990,        0.4850,        0.2570,   -999.250000,     2223.0000
     198.88200,       56.0740,       46.5740,        0.4740,        0.2580,   -999.250000,     2260.0000
     199.03440,       56.5120,       51.2930,        0.4670,        0.2600,   -999.250000,     2248.0000
     199.18680,       56.0120,       48.7620,        0.4590,        0.2630,   -999.250000,     2266.0000
     199.33920,       56.1990,       46.4180,        0.4540,        0.2690,   -999.250000,     2276.0000
     199.49160,       56.1990,       43.7620,        0.4520,        0.2810,   -999.250000,     2281.0000
     199.64400,       56.1370,       44.8550,        0.4510,        0.3070,   -999.250000,     2278.0000
     199.79640,       56.5740,       49.7620,        0.4520,        0.3630,   -999.250000,     2319.0000
     199.94880,       57.5120,       46.4180,        0.4660,        0.4880,   -999.250000,     2356.0000
     200.10120,       57.5740,       47.8240,        0.5100,        0.7310,   -999.250000,     2330.0000
     200.25360,       26.6920,       45.3240,        0.6690,        0.9850,   -999.250000,     2328.0000
     200.40600,       37.3240,       46.3870,        2.0650,        0.4760,   -999.250000,     2264.0000
     200.55840,       56.6990,       46.7930,        0.4220,        0.1440,   -999.250000,     2180.0000
     200.71080,      107.4020,       44.1370,        0.4960,        0.1290,   -999.250000,     2260.0000
     200.86320,      118.4020,       46.0430,        0.6440,        0.1290,   -999.250000,     2108.0000
     201.01560,      126.0900,       50.4180,        0.6090,        0.1820,   -999.250000,     2080.0000
     201.16800,      143.5630,       65.6520,        0.7670,        0.2860,   -999.250000,     1990.0000
     201.32040,      138.8130,       76.7770,        0.7610,        1.6140,   -999.250000,     2014.0000
     201.47280,      131.9380,       82.1520,        0.7380,        1.5070,   -999.250000,     2010.0000
     201.62520,      128.9380,       74.2770,        0.9810,        0.7900,   -999.250000,     2018.0000
     201.77760,      128.4380,       73.9650,        1.0500,        0.8190,   -999.250000,     2035.0000
     201.93000,      129.5630,       72.7770,        0.9610,        0.8500,   -999.250000,     2033.0000
     202.08240,      131.3130,       80.1520,        0.8900,        0.8760,   -999.250000,     2047.0000
     202.23480,      132.0630,       75.0900,        0.8620,        0.8760,   -999.250000,     2010.0000
     202.38720,      135.3130,       78.5900,        0.9560,        0.9960,   -999.250000,     2033.0000
     202.53960,      136.4380,       73.9650,        1.0870,        1.1450,   -999.250000,     2080.0000
     202.69200,      138.9380,       76.0270,        1.2910,        1.3870,   -999.250000,     2137.0000
     202.84440,      141.3130,       68.7150,        1.7030,        1.7750,   -999.250000,     2115.0000
     202.99680,      141.3130,       71.0270,        2.1370,        2.0580,   -999.250000,     2047.0000
     203.14920,      142.1880,       72.3400,        2.1300,        2.0160,   -999.250000,     2033.0000
     203.30160,      141.6880,       82.4020,        1.9660,        1.7810,   -999.250000,     2030.0000
     203.45400,      141.0630,       82.2150,        1.7980,        1.6150,   -999.250000,     2065.0000
     203.60640,      139.4380,       80.6520,        1.6090,        1.4340,   -999.250000,     2078.0000
     203.75880,      139.9380,       71.1520,        1.5530,        1.3620,   -999.250000,     2073.0000
     203.91120,      139.6880,       71.2150,        1.5810,        1.3350,   -999.250000,     2061.0000
     204.06360,      141.0630,       76.7770,        1.6410,        1.3980,   -999.250000,     1980.0000
     204.21600,      142.3130,       78.6520,        1.8400,        1.4940,   -999.250000,     1863.0000
     204.36840,      146.8130,       78.9020,        2.0150,        1.6460,   -999.250000,     1695.0000
     204.52080,      148.1880,       71.0270,        2.3220,        1.8950,   -999.250000,     1711.0000
     204.67320,      144.9380,       69.4020,        2.4460,        1.9070,   -999.250000,     1771.0000
     204.82560,      139.6880,       70.9650,        2.2140,        1.6340,   -999.250000,     1993.0000
     204.97800,      140.0630,       83.0900,        1.9000,        1.3800,   -999.250000,     2037.0000
     205.13040,      140.5630,       81.9020,        1.5920,        1.1040,   -999.250000,     2074.0000
     205.28280,      140.6880,       84.0900,        1.5760,        1.0150,   -999.250000,     2059.0000
     205.43520,      142.5630,       80.2150,        1.8630,        1.1040,   -999.250000,     2088.0000
     205.58760,      142.3130,       76.5900,        2.1900,        1.2710,   -999.250000,     2020.0000
     205.74000,      140.8130,       72.5270,        2.6780,        1.5340,   -999.250000,     1981.0000
     205.89240,      140.8130,       71.4650,        2.9550,        1.7240,   -999.250000,     1945.0000
     206.04480,      140.9380,       72.4650,        2.6920,        1.6240,   -999.250000,     1920.0000
     206.19720,      140.6880,       68.5270,        2.4750,        1.4710,   -999.250000,     1901.0000
     206.34960,      140.0630,       67.7150,        2.3280,        1.4180,   -999.250000,     1920.0000
     206.50200,      141.8130,       68.8400,        2.2680,        1.4210,   -999.250000,     1986.0000
     206.65440,      141.8130,       70.9650,        2.3870,        1.4680,   -999.250000,     2045.0000
     206.80680,      143.9380,       67.6520,        2.6860,        1.6570,   -999.250000,     2022.0000
     206.95920,      146.4380,       68.0270,        3.0240,        1.9180,   -999.250000,     1947.0000
     207.11160,      148.0630,       65.3400,        3.1460,        1.9550,   -999.250000,     1857.0000
     207.26400,      149.5630,       68.1520,        2.9810,        1.8660,   -999.250000,     1850.0000
     207.41640,      149.1880,       73.5900,        2.7020,        1.7380,   -999.250000,     1895.0000
     207.56880,      147.5630,       74.4020,        2.2920,        1.4900,   -999.250000,     1977.0000
     207.72120,      144.9380,       75.5270,        2.0620,        1.3270,   -999.250000,     2039.0000
