~Version
VERS  .             3.0                                 : CWLS LOG ASCII STANDARD - VERSION 3.0
WRAP  .             NO                                  : One line per depth step
DLM   .             COMMA                               : Delimiter character between data columns
#Delimiting character ( SPACE TAB OR COMMA ).

~Well
#MNEM.UNIT          DATA                                DESCRIPTION
#----- ----        -----------------                   -----------
STRT  .M                  3.80390                       : FIRST INDEX VALUE
STOP  .M               1582.21070                       : LAST INDEX VALUE
STEP  .M                  0.15240                       : STEP OF INDEX
NULL  .             -999.25                             : NULL VALUE
COMP  .                                                 : COMPANY
WELL  .             FURUD                               : WELL
FLD   .                                                 : FIELD
LOC   .                                                 : LOCATION
SRVC  .                                                 : SERVICE COMPANY
CTRY  .                                                 : COUNTRY
PROV  .                                                 : PROVINCE
UWI   .                                                 : UNIQUE WELL ID
LIC   .                                                 : LICENSE NUMBER
STAT  .                                                 : STATE
CNTY  .                                                 : COUNTY
API   .                                                 : API NUMBER
DATE  .                                                 : LOG DATE
X     .             653771.9542756                      : X OR EAST-WEST COORDINATE
Y     .             8157280.499579                      : Y OR NORTH-SOUTH COORDINATE
HZCS  .                                                 : HORIZONTAL CO-ORDINATE SYSTEM
LATI  .             -16.66194444444                     : LATITUDE
LONG  .             154.4419444444                      : LONGITUDE
GDAT  .                                                 : GEODETIC DATUM

~DEVIATION_PARAMETER 
#MNEM.UNIT                    VALUE                        DESCRIPTION
#--------------- ---         ------------                 -----------------

~DEVIATION_DEFINITION 
#MNEM.UNIT                 LOG CODE                  CURVE DESCRIPTION
#----------- ----         ------------              -----------------
DEPTH       .M                                      :     {F}
AZIMUTH     .DEG                                    :     {F}
DEVIATION   .DEG                                    : 90-DIP    {F}

~DEVIATION_DATA | DEVIATION_DEFINITION
      343.0000,       89.5000,        0.5000
      495.0000,       89.7500,        0.2500
      645.0000,       89.5000,        0.5000
      800.0000,       89.2500,        0.7500
      950.0000,       88.7500,        1.2500
     1053.0000,       89.0000,        1.0000
     1201.0000,       89.2500,        0.7500
     1353.0000,       89.5000,        0.5000
     1577.0000,       88.7500,        1.2500

~TOPS_PARAMETER 
#MNEM.UNIT                    VALUE                        DESCRIPTION
#--------------- ---         ------------                 -----------------

~TOPS_DEFINITION 
#MNEM.UNIT                 LOG CODE                  CURVE DESCRIPTION
#----------- ----         ------------              -----------------
DEPTH       .M                                      :     {F}
TOPS        .                                       : Formation Tops    {S24}

~TOPS_DATA | TOPS_DEFINITION
        5.6000,Doyles Creek Subgroup   
      427.1711,Horseshoe Creek Subgroup
      490.4921,Apple Tree Flat Subgroup
      737.0000,Watts Sandstone         
      746.0000,Denman Fm               
      867.1244,Mt Leonard Fm           
      996.0000,Althorpe Fm             
     1003.0000,Malabar Fm              
     1049.2716,Mt Ogilvie Fm           
     1098.2854,Milbrodale Fm           
     1154.9063,Mt Thorley Fm           
     1205.0000,Burnamwood Fm           
     1292.5000,Archerfield Sandstone   
     1322.5000,Mulbring Siltstone      
     1398.5875,Muree Sandstone         
     1506.0000,Branxton Fm             
     1546.0000,Greta Coal Measures     
     1569.7129,Dalwood Group           
     1583.5793,                        

~PARAMETER 
#MNEM.UNIT                    VALUE                        DESCRIPTION
#--------------- ---         ------------                 -----------------

~CURVE 
#MNEM.UNIT                 LOG CODE                  CURVE DESCRIPTION
#----------- ----         ------------              -----------------
DEPTH       .M                                      :     {F}
GR          .GAPI         310010                    : GR_1 (Cleared: Bottom)    {F}
LLD         .OHMM         220100                    :     {F}
NPHI        .V/V          890000                    :     {F}
RHOB        .K/M3         350020                    : Offset applied to log data.    {F}

~ASCII | CURVE 
# ...
    1210.50710,      134.8690,        8.6353,      0.291142,     2559.6240
    1210.65950,      125.0120,       10.4326,      0.267815,     2614.1240
    1210.81190,      122.3380,       10.5107,      0.283573,     2630.0240
    1210.96430,      129.0360,        9.1821,      0.308002,     2593.7230
    1211.11670,      144.7300,        7.4212,      0.332963,     2551.4240
    1211.26910,      151.9710,        6.0909,      0.330122,     2539.8230
    1211.42150,      146.9480,        5.7320,      0.333185,     2539.8230
    1211.57390,      142.9090,        5.6483,      0.344697,     2534.1240
    1211.72630,      149.0690,        5.6340,      0.342699,     2531.9240
    1211.87870,      157.3850,        5.6618,      0.337654,     2536.9240
    1212.03110,      159.5780,        5.8167,      0.322340,     2545.2240
    1212.18350,      162.1520,        5.9844,      0.327163,     2550.7230
    1212.33590,      156.0900,        6.1123,      0.328147,     2546.0230
    1212.48830,      158.0950,        6.4523,      0.329132,     2545.5240
    1212.64070,      155.4990,        7.6105,      0.298636,     2558.5240
    1212.79310,      146.6890,        9.7253,      0.253729,     2590.7240
    1212.94550,      123.6470,       13.7199,      0.210442,     2616.7230
    1213.09790,      105.7960,       17.4015,      0.210249,     2596.6240
    1213.25030,      106.9720,       18.1312,      0.229203,     2544.4240
    1213.40270,      119.4040,       15.8338,      0.242158,     2490.9240
    1213.55510,      132.6090,       13.7831,      0.240220,     2462.3230
    1213.70750,      139.7600,       13.2386,      0.239228,     2460.5230
    1213.85990,      145.0160,       12.8911,      0.237312,     2472.9240
    1214.01230,      145.7920,       12.1135,      0.237919,     2497.3240
    1214.16470,      146.4270,       11.3868,      0.246153,     2517.4240
    1214.31710,      146.0690,       11.1529,      0.250163,     2520.3240
    1214.46950,      140.6930,       11.5636,      0.260506,     2500.1240
    1214.62190,      135.4230,       12.4265,      0.245575,     2482.0240
    1214.77430,      133.4080,       13.7236,      0.275760,     2479.7240
    1214.92670,      131.6710,       14.7631,      0.299967,     2483.6240
    1215.07910,      134.1760,       14.6819,      0.310020,     2484.0230
    1215.23150,      133.6270,       14.0994,      0.275395,     2478.2230
    1215.38390,      140.7590,       13.7509,      0.252818,     2473.1240
    1215.53630,      144.0610,       13.5959,      0.249142,     2468.6240
    1215.68870,      140.3160,       13.1515,      0.244795,     2466.0240
    1215.84110,      145.2100,       12.7383,      0.249757,     2473.7240
    1215.99350,      152.4070,       11.6438,      0.267939,     2499.0240
    1216.14590,      162.1270,       10.2323,      0.315467,     2540.7230
    1216.29830,      162.8250,        9.0471,      0.331914,     2572.3230
    1216.45070,      167.7040,        8.2440,      0.339811,     2596.6240
    1216.60310,      167.0120,        8.1388,      0.314145,     2596.5240
    1216.75550,      166.5080,        8.4906,      0.298865,     2583.5240
    1216.90790,      166.4970,        9.4272,      0.285542,     2561.7240
    1217.06030,      163.4630,       10.2314,      0.265350,     2543.1240
    1217.21270,      159.4850,       11.2673,      0.258348,     2533.1240
    1217.36510,      156.1470,       12.1246,      0.254557,     2514.3240
    1217.51750,      149.3480,       12.0514,      0.261249,     2505.7240
    1217.66990,      141.6950,       11.7434,      0.269549,     2507.6240
    1217.82230,      138.9690,       11.3926,      0.279081,     2514.9240
    1217.97470,      145.2570,       11.0222,      0.274686,     2519.8230
    1218.12710,      149.9660,       11.1242,      0.255905,     2523.5230
    1218.27950,      145.8510,       11.5497,      0.239965,     2529.7240
    1218.43190,      138.6790,       12.2556,      0.238180,     2523.3230
    1218.58430,      136.1280,       12.8036,      0.229954,     2504.6240
    1218.73670,      137.1510,       11.9761,      0.220244,     2448.7230
    1218.88910,      134.3950,       11.8872,      0.218220,     2410.4240
    1219.04150,      126.8340,       12.0607,      0.220020,     2383.7240
    1219.19390,      120.6580,       12.2789,      0.214126,     2398.5230
    1219.34630,      124.1790,       13.6466,      0.210659,     2411.9240
    1219.49870,      131.5920,       15.2867,      0.212783,     2433.2240
    1219.65110,      136.2200,       15.6373,      0.228161,     2453.3230
    1219.80350,      131.9460,       15.1925,      0.240496,     2466.5240
    1219.95590,      130.1240,       14.6441,      0.251671,     2472.7240
    1220.10830,      125.0750,       13.9827,      0.256482,     2450.0240
    1220.26070,      122.8510,       13.6297,      0.243643,     2433.1240
    1220.41310,      123.5430,       13.5857,      0.245916,     2432.0240
    1220.56550,      126.4050,       13.6333,      0.240526,     2434.3230
    1220.71790,      129.8830,       14.0421,      0.247236,     2428.0230
    1220.87030,      129.3440,       14.3517,      0.241503,     2432.4240
    1221.02270,      126.9470,       14.6719,      0.247202,     2440.8230
    1221.17510,      124.0680,       15.1840,      0.236911,     2450.4240
    1221.32750,      121.5730,       14.9534,      0.220626,     2428.3240
    1221.47990,      119.2170,       15.5793,      0.212747,     2417.8230
    1221.63230,      112.7950,       14.8969,      0.219178,     2418.8240
    1221.78470,      108.0610,       14.4000,      0.229084,     2429.3240
    1221.93710,      105.6840,       15.0647,      0.223254,     2425.9240
    1222.08950,      105.8990,       15.6506,      0.217415,     2405.8240
    1222.24190,      109.5170,       16.5477,      0.213886,     2401.8240
    1222.39430,      110.1280,       17.7130,      0.211915,     2396.4240
    1222.54670,      110.3590,       18.0745,      0.212475,     2397.7240
    1222.69910,      110.7700,       17.3871,      0.219499,     2388.2240
    1222.85150,      112.3060,       14.7446,      0.225539,     2383.1240
    1223.00390,      117.0030,       13.9821,      0.227336,     2394.5230
    1223.15630,      119.9790,       14.4159,      0.229342,     2398.8240
    1223.30870,      104.4990,       14.2964,      0.226997,     2415.7230
    1223.46110,      102.5230,       15.6667,      0.226598,     2409.9240
    1223.61350,      109.5610,       16.6282,      0.228384,     2405.8240
    1223.76590,      118.7110,       15.6385,      0.222090,     2392.4240
    1223.91830,      123.8790,       14.6811,      0.242054,     2389.0230
    1224.07070,      127.1070,       14.7471,      0.254338,     2419.5240
    1224.22310,      123.5530,       14.6223,      0.262939,     2452.0240
    1224.37550,      119.1750,       14.1137,      0.255863,     2452.6240
    1224.52790,      113.2840,       14.0573,      0.248728,     2430.2240
    1224.68030,      113.2450,       13.6420,      0.253795,     2418.2240
    1224.83270,      113.7110,       13.3413,      0.251906,     2413.9240
    1224.98510,      116.5970,       13.2866,      0.243765,     2406.2230
    1225.13750,      116.0230,       13.2344,      0.235965,     2393.2240
    1225.28990,      122.9710,       13.3241,      0.237034,     2403.5240
    1225.44230,      123.4680,       13.4746,      0.245699,     2398.8240
    1225.59470,      129.6980,       13.5425,      0.259320,     2415.1240
    1225.74710,      130.0670,       13.2747,      0.264582,     2421.8240
    1225.89950,      126.5100,       12.6511,      0.263295,     2445.8230
    1226.05190,      116.0230,       12.0681,      0.263210,     2441.9240
    1226.20430,      112.5220,       11.3632,      0.264882,     2449.3230
    1226.35670,      116.3190,       10.9814,      0.263494,     2440.2240
    1226.50910,      121.1020,       10.9280,      0.256926,     2437.3230
    1226.66150,      122.1090,       10.8744,      0.252472,     2434.7240
