~Version
VERS  .             3.0                                 : CWLS LOG ASCII STANDARD - VERSION 3.0
WRAP  .             NO                                  : One line per depth step
DLM   .             COMMA                               : Delimiter character between data columns
#Delimiting character ( SPACE TAB OR COMMA ).

~Well
#MNEM.UNIT          DATA                                DESCRIPTION
#----- ----        -----------------                   -----------
STRT  .M                  3.80390                       : FIRST INDEX VALUE
STOP  .M               1582.21070                       : LAST INDEX VALUE
STEP  .M                  0.15240                       : STEP OF INDEX
NULL  .             -999.25                             : NULL VALUE
COMP  .                                                 : COMPANY
WELL  .             FURUD                               : WELL
FLD   .                                                 : FIELD
LOC   .                                                 : LOCATION
SRVC  .                                                 : SERVICE COMPANY
CTRY  .                                                 : COUNTRY
PROV  .                                                 : PROVINCE
UWI   .                                                 : UNIQUE WELL ID
LIC   .                                                 : LICENSE NUMBER
STAT  .                                                 : STATE
CNTY  .                                                 : COUNTY
API   .                                                 : API NUMBER
DATE  .                                                 : LOG DATE
X     .             653771.9542756                      : X OR EAST-WEST COORDINATE
Y     .             8157280.499579                      : Y OR NORTH-SOUTH COORDINATE
HZCS  .                                                 : HORIZONTAL CO-ORDINATE SYSTEM
LATI  .             -16.66194444444                     : LATITUDE
LONG  .             154.4419444444                      : LONGITUDE
GDAT  .                                                 : GEODETIC DATUM

~DEVIATION_PARAMETER 
#MNEM.UNIT                    VALUE                        DESCRIPTION
#--------------- ---         ------------                 -----------------

~DEVIATION_DEFINITION 
#MNEM.UNIT                 LOG CODE                  CURVE DESCRIPTION
#----------- ----         ------------              -----------------
DEPTH       .M                                      :     {F}
AZIMUTH     .DEG                                    :     {F}
DEVIATION   .DEG                                    : 90-DIP    {F}

~DEVIATION_DATA | DEVIATION_DEFINITION
      343.0000,       89.5000,        0.5000
      495.0000,       89.7500,        0.2500
      645.0000,       89.5000,        0.5000
      800.0000,       89.2500,        0.7500
      950.0000,       88.7500,        1.2500
     1053.0000,       89.0000,        1.0000
     1201.0000,       89.2500,        0.7500
     1353.0000,       89.5000,        0.5000
     1577.0000,       88.7500,        1.2500

~TOPS_PARAMETER 
#MNEM.UNIT                    VALUE                        DESCRIPTION
#--------------- ---         ------------                 -----------------

~TOPS_DEFINITION 
#MNEM.UNIT                 LOG CODE                  CURVE DESCRIPTION
#----------- ----         ------------              -----------------
DEPTH       .M                                      :     {F}
TOPS        .                                       : Formation Tops    {S24}

~TOPS_DATA | TOPS_DEFINITION
        5.6000,Doyles Creek Subgroup   
      427.1711,Horseshoe Creek Subgroup
      490.4921,Apple Tree Flat Subgroup
      737.0000,Watts Sandstone         
      746.0000,Denman Fm               
      867.1244,Mt Leonard Fm           
      996.0000,Althorpe Fm             
     1003.0000,Malabar Fm              
     1049.2716,Mt Ogilvie Fm           
     1098.2854,Milbrodale Fm           
     1154.9063,Mt Thorley Fm           
     1205.0000,Burnamwood Fm           
     1292.5000,Archerfield Sandstone   
     1322.5000,Mulbring Siltstone      
     1398.5875,Muree Sandstone         
     1506.0000,Branxton Fm             
     1546.0000,Greta Coal Measures     
     1569.7129,Dalwood Group           
     1583.5793,                        

~PARAMETER 
#MNEM.UNIT                    VALUE                        DESCRIPTION
#--------------- ---         ------------                 -----------------

~CURVE 
#MNEM.UNIT                 LOG CODE                  CURVE DESCRIPTION
#----------- ----         ------------              -----------------
DEPTH       .M                                      :     {F}
GR          .GAPI         310010                    : GR_1 (Cleared: Bottom)    {F}
LLD         .OHMM         220100                    :     {F}
NPHI        .V/V          890000                    :     {F}
RHOB        .K/M3         350020                    : Offset applied to log data.    {F}

~ASCII | CURVE 
# ...
    1031.13230,       50.3149,       10.6998,      0.215246,     2473.3230
    1031.28470,       54.7210,        9.3712,      0.241084,     2397.3230
    1031.43710,       52.4222,        8.8225,      0.232851,     2346.8240
    1031.58950,       49.5736,        9.3306,      0.229108,     2326.5230
    1031.74190,       51.5547,       10.3914,      0.236235,     2322.7240
    1031.89430,       51.9175,        9.7156,      0.261816,     2328.8230
    1032.04670,       59.2430,        8.4476,      0.268260,     2327.7240
    1032.19910,       64.1622,        7.9829,      0.280582,     2327.5240
    1032.35150,       68.9299,        7.4981,      0.268909,     2327.3240
    1032.50390,       66.8390,        7.5592,      0.264533,     2312.8230
    1032.65630,       61.4469,        8.3269,      0.259801,     2302.1240
    1032.80870,       66.9044,        7.8844,      0.278227,     2315.1240
    1032.96110,       70.8166,        6.4389,      0.302875,     2342.6240
    1033.11350,       70.7128,        4.5900,      0.309918,     2375.0230
    1033.26590,       71.3693,        3.7377,      0.305757,     2376.1240
    1033.41830,       69.3162,        3.1983,      0.307134,     2376.3240
    1033.57070,       74.6719,        2.9498,      0.319389,     2386.3240
    1033.72310,       75.1651,        3.0635,      0.315767,     2392.0230
    1033.87550,       74.4403,        3.2253,      0.307342,     2380.9240
    1034.02790,       72.2783,        3.4337,      0.297884,     2372.8240
    1034.18030,       67.5181,        3.4153,      0.292711,     2353.9240
    1034.33270,       69.7261,        3.2367,      0.300115,     2353.4240
    1034.48510,       71.9048,        3.0300,      0.311861,     2357.3230
    1034.63750,       76.2325,        2.8431,      0.317767,     2368.5230
    1034.78990,       76.6245,        2.7921,      0.310700,     2365.7240
    1034.94230,       77.1325,        2.9915,      0.288720,     2374.7240
    1035.09470,       75.2435,        3.1439,      0.266609,     2402.7230
    1035.24710,       72.8138,        3.2402,      0.267298,     2404.0240
    1035.39950,       73.4438,        3.3154,      0.281082,     2399.5240
    1035.55190,       76.2211,        3.1476,      0.301884,     2403.4240
    1035.70430,       82.7560,        3.0315,      0.310081,     2400.9240
    1035.85670,       79.5825,        3.0480,      0.311395,     2405.9240
    1036.00910,       77.8747,        3.1440,      0.303363,     2409.3240
    1036.16150,       79.5463,        3.2941,      0.308615,     2418.9240
    1036.31390,       82.6933,        3.3255,      0.302327,     2427.5230
    1036.46630,       84.8279,        3.3040,      0.299156,     2424.6240
    1036.61870,       84.2267,        3.2645,      0.298941,     2415.9240
    1036.77110,       82.8615,        3.1544,      0.300044,     2408.6240
    1036.92350,       83.6833,        3.1520,      0.301806,     2415.5230
    1037.07590,       82.9706,        3.2473,      0.292976,     2415.8240
    1037.22830,       80.8591,        3.3196,      0.283480,     2419.7240
    1037.38070,       75.4211,        3.5205,      0.276630,     2403.1240
    1037.53310,       71.4185,        3.7026,      0.269411,     2397.5240
    1037.68550,       68.5510,        3.7527,      0.265508,     2405.1240
    1037.83790,       68.6980,        3.7081,      0.262116,     2395.9240
    1037.99030,       69.3636,        3.7264,      0.274553,     2374.4240
    1038.14270,       72.7222,        3.6585,      0.279065,     2357.9240
    1038.29510,       74.3413,        3.6185,      0.286854,     2357.3230
    1038.44750,       74.8970,        3.5874,      0.279082,     2357.3230
    1038.59990,       73.9473,        3.5478,      0.286914,     2355.0240
    1038.75230,       71.5356,        3.6408,      0.289808,     2354.7240
    1038.90470,       70.2730,        3.7082,      0.274607,     2367.0240
    1039.05710,       68.1444,        3.8431,      0.257966,     2379.5240
    1039.20950,       66.7988,        3.9469,      0.258136,     2396.9240
    1039.36190,       65.9605,        3.9430,      0.266675,     2398.2240
    1039.51430,       64.9877,        3.9917,      0.252535,     2398.4240
    1039.66670,       65.2442,        4.0297,      0.243678,     2410.6240
    1039.81910,       67.9194,        4.2798,      0.236595,     2415.7230
    1039.97150,       67.3754,        4.2877,      0.246673,     2412.0230
    1040.12390,       67.0811,        4.0592,      0.263163,     2407.9240
    1040.27630,       66.8177,        4.0168,      0.278766,     2398.1240
    1040.42870,       66.0982,        3.8733,      0.291826,     2385.9240
    1040.58110,       67.1593,        3.6868,      0.294324,     2375.3230
    1040.73350,       68.2510,        3.7520,      0.289707,     2374.9240
    1040.88590,       72.9637,        3.6112,      0.288784,     2382.2240
    1041.03830,       79.9573,        3.4879,      0.295135,     2380.9240
    1041.19070,       80.2048,        3.3801,      0.304020,     2387.9240
    1041.34310,       78.7469,        3.3913,      0.307619,     2372.0230
    1041.49550,       79.4778,        3.2441,      0.299728,     2387.7240
    1041.64790,       78.3817,        3.4414,      0.278574,     2392.5240
    1041.80030,       71.6169,        3.9470,      0.250437,     2414.7240
    1041.95270,       62.9862,        4.4196,      0.239888,     2412.1240
    1042.10510,       60.9128,        4.5747,      0.249116,     2415.2240
    1042.25750,       65.9042,        4.2500,      0.286852,     2389.6240
    1042.40990,       67.8405,        3.6076,      0.302003,     2378.8240
    1042.56230,       70.9072,        3.0243,      0.317402,     2354.6240
    1042.71470,       70.5399,        2.9680,      0.287020,     2359.0230
    1042.86710,       75.2290,        3.1328,      0.281086,     2362.9240
    1043.01950,       73.1172,        3.3544,      0.270709,     2360.9240
    1043.17190,       73.0494,        3.6660,      0.283699,     2341.8230
    1043.32430,       68.5813,        3.9623,      0.284343,     2328.4240
    1043.47670,       70.9538,        3.9537,      0.294885,     2331.5240
    1043.62910,       72.2214,        3.6769,      0.292585,     2334.0240
    1043.78150,       73.9914,        3.6057,      0.298781,     2350.9240
    1043.93390,       75.3386,        3.4879,      0.263885,     2396.3240
    1044.08630,       71.7048,        3.7581,      0.245603,     2452.9240
    1044.23870,       64.3042,        4.2644,      0.213964,     2453.0240
    1044.39110,       59.9934,        4.7077,      0.220710,     2452.9240
    1044.54350,       60.5877,        4.8011,      0.253176,     2445.4240
    1044.69590,       61.5207,        4.7003,      0.285910,     2390.5240
    1044.84830,       61.4019,        4.6451,      0.287839,     2354.7240
    1045.00070,       61.2545,        4.5657,      0.257807,     2406.0240
    1045.15310,       61.9456,        5.0813,      0.239948,     2445.6240
    1045.30550,       62.5170,        5.4685,      0.254903,     2412.1240
    1045.45790,       61.3602,        5.2002,      0.284001,     2410.2240
    1045.61030,       62.4181,        4.6997,      0.296286,     2367.6240
    1045.76270,       62.2052,        4.1049,      0.308955,     2330.1240
    1045.91510,       64.0838,        3.6892,      0.306892,     2335.9240
    1046.06750,       64.8342,        3.6785,      0.302022,     2342.4240
    1046.21990,       65.1547,        4.0245,      0.276495,     2366.9240
    1046.37230,       64.2170,        4.5196,      0.263399,     2365.3230
    1046.52470,       62.9755,        5.1315,      0.252923,     2374.5240
    1046.67710,       63.4477,        5.5097,      0.267966,     2366.8240
    1046.82950,       61.9051,        5.3490,      0.280772,     2361.6240
    1046.98190,       66.3663,        4.9314,      0.284847,     2353.4240
    1047.13430,       66.1104,        4.5430,      0.280472,     2351.4240
    1047.28670,       69.5914,        4.3359,      0.275918,     2352.4240
