~Version
VERS  .             3.0                                 : CWLS LOG ASCII STANDARD - VERSION 3.0
WRAP  .             NO                                  : One line per depth step
DLM   .             COMMA                               : Delimiter character between data columns
#Delimiting character ( SPACE TAB OR COMMA ).

~Well
#MNEM.UNIT          DATA                                DESCRIPTION
#----- ----        -----------------                   -----------
STRT  .M                  3.80390                       : FIRST INDEX VALUE
STOP  .M               1582.21070                       : LAST INDEX VALUE
STEP  .M                  0.15240                       : STEP OF INDEX
NULL  .             -999.25                             : NULL VALUE
COMP  .                                                 : COMPANY
WELL  .             FURUD                               : WELL
FLD   .                                                 : FIELD
LOC   .                                                 : LOCATION
SRVC  .                                                 : SERVICE COMPANY
CTRY  .                                                 : COUNTRY
PROV  .                                                 : PROVINCE
UWI   .                                                 : UNIQUE WELL ID
LIC   .                                                 : LICENSE NUMBER
STAT  .                                                 : STATE
CNTY  .                                                 : COUNTY
API   .                                                 : API NUMBER
DATE  .                                                 : LOG DATE
X     .             653771.9542756                      : X OR EAST-WEST COORDINATE
Y     .             8157280.499579                      : Y OR NORTH-SOUTH COORDINATE
HZCS  .                                                 : HORIZONTAL CO-ORDINATE SYSTEM
LATI  .             -16.66194444444                     : LATITUDE
LONG  .             154.4419444444                      : LONGITUDE
GDAT  .                                                 : GEODETIC DATUM

~DEVIATION_PARAMETER 
#MNEM.UNIT                    VALUE                        DESCRIPTION
#--------------- ---         ------------                 -----------------

~DEVIATION_DEFINITION 
#MNEM.UNIT                 LOG CODE                  CURVE DESCRIPTION
#----------- ----         ------------              -----------------
DEPTH       .M                                      :     {F}
AZIMUTH     .DEG                                    :     {F}
DEVIATION   .DEG                                    : 90-DIP    {F}

~DEVIATION_DATA | DEVIATION_DEFINITION
      343.0000,       89.5000,        0.5000
      495.0000,       89.7500,        0.2500
      645.0000,       89.5000,        0.5000
      800.0000,       89.2500,        0.7500
      950.0000,       88.7500,        1.2500
     1053.0000,       89.0000,        1.0000
     1201.0000,       89.2500,        0.7500
     1353.0000,       89.5000,        0.5000
     1577.0000,       88.7500,        1.2500

~TOPS_PARAMETER 
#MNEM.UNIT                    VALUE                        DESCRIPTION
#--------------- ---         ------------                 -----------------

~TOPS_DEFINITION 
#MNEM.UNIT                 LOG CODE                  CURVE DESCRIPTION
#----------- ----         ------------              -----------------
DEPTH       .M                                      :     {F}
TOPS        .                                       : Formation Tops    {S24}

~TOPS_DATA | TOPS_DEFINITION
        5.6000,Doyles Creek Subgroup   
      427.1711,Horseshoe Creek Subgroup
      490.4921,Apple Tree Flat Subgroup
      737.0000,Watts Sandstone         
      746.0000,Denman Fm               
      867.1244,Mt Leonard Fm           
      996.0000,Althorpe Fm             
     1003.0000,Malabar Fm              
     1049.2716,Mt Ogilvie Fm           
     1098.2854,Milbrodale Fm           
     1154.9063,Mt Thorley Fm           
     1205.0000,Burnamwood Fm           
     1292.5000,Archerfield Sandstone   
     1322.5000,Mulbring Siltstone      
     1398.5875,Muree Sandstone         
     1506.0000,Branxton Fm             
     1546.0000,Greta Coal Measures     
     1569.7129,Dalwood Group           
     1583.5793,                        

~PARAMETER 
#MNEM.UNIT                    VALUE                        DESCRIPTION
#--------------- ---         ------------                 -----------------

~CURVE 
#MNEM.UNIT                 LOG CODE                  CURVE DESCRIPTION
#----------- ----         ------------              -----------------
DEPTH       .M                                      :     {F}
GR          .GAPI         310010                    : GR_1 (Cleared: Bottom)    {F}
LLD         .OHMM         220100                    :     {F}
NPHI        .V/V          890000                    :     {F}
RHOB        .K/M3         350020                    : Offset applied to log data.    {F}

~ASCII | CURVE 
# ...
     672.38270,       73.7775,        1.3986,   -999.250000,     -999.2500
     672.53510,       70.9209,        1.4369,   -999.250000,     -999.2500
     672.68750,       74.0580,        1.3959,   -999.250000,     -999.2500
     672.83990,       71.8435,        1.4345,   -999.250000,     -999.2500
     672.99230,       75.7396,        1.3455,   -999.250000,     -999.2500
     673.14470,       71.8124,        1.3131,   -999.250000,     -999.2500
     673.29710,       77.6031,        1.3470,   -999.250000,     -999.2500
     673.44950,       74.8438,        1.3173,   -999.250000,     -999.2500
     673.60190,       74.8031,        1.3524,   -999.250000,     -999.2500
     673.75430,       72.1369,        1.3625,   -999.250000,     -999.2500
     673.90670,       76.3107,        1.3837,   -999.250000,     -999.2500
     674.05910,       76.2694,        1.3721,   -999.250000,     -999.2500
     674.21150,       72.8956,        1.3656,   -999.250000,     -999.2500
     674.36390,       75.2616,        1.3399,   -999.250000,     -999.2500
     674.51630,       71.1379,        1.3431,   -999.250000,     -999.2500
     674.66870,       74.2171,        1.3786,   -999.250000,     -999.2500
     674.82110,       75.5840,        1.3609,   -999.250000,     -999.2500
     674.97350,       74.3181,        1.3791,   -999.250000,     -999.2500
     675.12590,       72.7602,        1.3907,   -999.250000,     -999.2500
     675.27830,       65.7975,        1.3924,   -999.250000,     -999.2500
     675.43070,       72.0084,        1.4476,   -999.250000,     -999.2500
     675.58310,       77.1428,        1.4385,   -999.250000,     -999.2500
     675.73550,       84.9996,        1.4591,   -999.250000,     -999.2500
     675.88790,       85.5026,        1.4563,   -999.250000,     -999.2500
     676.04030,       79.4867,        1.4387,   -999.250000,     -999.2500
     676.19270,       73.8978,        1.4476,   -999.250000,     -999.2500
     676.34510,       72.6657,        1.4635,   -999.250000,     -999.2500
     676.49750,       75.8163,        1.4663,   -999.250000,     -999.2500
     676.64990,       72.0930,        1.4658,   -999.250000,     -999.2500
     676.80230,       72.7504,        1.4436,   -999.250000,     -999.2500
     676.95470,       72.0472,        1.4201,   -999.250000,     -999.2500
     677.10710,       76.8672,        1.3898,   -999.250000,     -999.2500
     677.25950,       73.9037,        1.4087,   -999.250000,     -999.2500
     677.41190,       74.9696,        1.4023,   -999.250000,     -999.2500
     677.56430,       73.9795,        1.4138,   -999.250000,     -999.2500
     677.71670,       78.8128,        1.3936,   -999.250000,     -999.2500
     677.86910,       81.7101,        1.3837,   -999.250000,     -999.2500
     678.02150,       82.8035,        1.4885,   -999.250000,     -999.2500
     678.17390,       80.3845,        1.5198,   -999.250000,     -999.2500
     678.32630,       77.8043,        1.5174,   -999.250000,     -999.2500
     678.47870,       80.6203,        1.6681,   -999.250000,     -999.2500
     678.63110,       79.4622,        1.6410,   -999.250000,     -999.2500
     678.78350,       75.2745,        1.6044,   -999.250000,     -999.2500
     678.93590,       72.7323,        1.6165,   -999.250000,     -999.2500
     679.08830,       72.8297,        1.6126,   -999.250000,     -999.2500
     679.24070,       72.4667,        1.6474,   -999.250000,     -999.2500
     679.39310,       74.8806,        1.6335,   -999.250000,     -999.2500
     679.54550,       80.4976,        1.6592,   -999.250000,     -999.2500
     679.69790,       82.7517,        1.6833,   -999.250000,     -999.2500
     679.85030,       77.8342,        1.7373,   -999.250000,     -999.2500
     680.00270,       74.2924,        1.7093,   -999.250000,     -999.2500
     680.15510,       73.4229,        1.7541,   -999.250000,     -999.2500
     680.30750,       75.5990,        1.8338,   -999.250000,     -999.2500
     680.45990,       75.6479,        1.8479,   -999.250000,     -999.2500
     680.61230,       81.2194,        1.8502,   -999.250000,     -999.2500
     680.76470,       85.7407,        1.8022,   -999.250000,     -999.2500
     680.91710,       85.8399,        1.7792,   -999.250000,     -999.2500
     681.06950,       81.4050,        1.7980,   -999.250000,     -999.2500
     681.22190,       77.3476,        1.8061,   -999.250000,     -999.2500
     681.37430,       77.2950,        1.8432,   -999.250000,     -999.2500
     681.52670,       78.9866,        1.8572,   -999.250000,     -999.2500
     681.67910,       77.6339,        1.8379,   -999.250000,     -999.2500
     681.83150,       77.3432,        1.8142,   -999.250000,     -999.2500
     681.98390,       78.0995,        1.7622,   -999.250000,     -999.2500
     682.13630,       80.8975,        1.7060,   -999.250000,     -999.2500
     682.28870,       81.4708,        1.6735,   -999.250000,     -999.2500
     682.44110,       82.2165,        1.7011,   -999.250000,     -999.2500
     682.59350,       81.8601,        1.8571,   -999.250000,     -999.2500
     682.74590,       80.0355,        1.8783,   -999.250000,     -999.2500
     682.89830,       75.6245,        1.8919,   -999.250000,     -999.2500
     683.05070,       74.5939,        1.8851,   -999.250000,     -999.2500
     683.20310,       74.3143,        1.7535,   -999.250000,     -999.2500
     683.35550,       75.5414,        1.6734,   -999.250000,     -999.2500
     683.50790,       75.3600,        1.7096,   -999.250000,     -999.2500
     683.66030,       81.9974,        1.6969,   -999.250000,     -999.2500
     683.81270,       86.6275,        1.7556,   -999.250000,     -999.2500
     683.96510,       91.0480,        1.7872,   -999.250000,     -999.2500
     684.11750,       89.2535,        1.7764,   -999.250000,     -999.2500
     684.26990,       89.2141,        1.8250,   -999.250000,     -999.2500
     684.42230,       88.2413,        1.8933,   -999.250000,     -999.2500
     684.57470,       90.6488,        1.9457,   -999.250000,     -999.2500
     684.72710,       84.9808,        1.9924,   -999.250000,     -999.2500
     684.87950,       78.9060,        1.9927,   -999.250000,     -999.2500
     685.03190,       70.9866,        1.8977,   -999.250000,     -999.2500
     685.18430,       74.4535,        1.8408,   -999.250000,     -999.2500
     685.33670,       80.3945,        1.7758,   -999.250000,     -999.2500
     685.48910,       85.0024,        1.7736,   -999.250000,     -999.2500
     685.64150,       85.4661,        1.7381,   -999.250000,     -999.2500
     685.79390,       81.5265,        1.7655,   -999.250000,     -999.2500
     685.94630,       79.7418,        1.8131,   -999.250000,     -999.2500
     686.09870,       80.3237,        1.8520,   -999.250000,     -999.2500
     686.25110,       79.3361,        1.8674,   -999.250000,     -999.2500
     686.40350,       80.8460,        1.9147,   -999.250000,     -999.2500
     686.55590,       81.1626,        1.9797,   -999.250000,     -999.2500
     686.70830,       80.5144,        1.9663,   -999.250000,     -999.2500
     686.86070,       82.2605,        1.9152,   -999.250000,     -999.2500
     687.01310,       77.7591,        1.8984,   -999.250000,     -999.2500
     687.16550,       81.2357,        1.8419,   -999.250000,     -999.2500
     687.31790,       75.7586,        1.8200,   -999.250000,     -999.2500
     687.47030,       77.8282,        1.9351,   -999.250000,     -999.2500
     687.62270,       79.6684,        1.9254,   -999.250000,     -999.2500
     687.77510,       81.7847,        1.9063,   -999.250000,     -999.2500
     687.92750,       88.2097,        1.8739,   -999.250000,     -999.2500
     688.07990,       87.6417,        1.8762,   -999.250000,     -999.2500
     688.23230,       93.9959,        1.8443,   -999.250000,     -999.2500
     688.38470,       90.1769,        1.8288,   -999.250000,     -999.2500
     688.53710,       85.4799,        1.8136,   -999.250000,     -999.2500
