~Version
VERS  .             3.0                                 : CWLS LOG ASCII STANDARD - VERSION 3.0
WRAP  .             NO                                  : One line per depth step
DLM   .             COMMA                               : Delimiter character between data columns
#Delimiting character ( SPACE TAB OR COMMA ).

~Well
#MNEM.UNIT          DATA                                DESCRIPTION
#----- ----        -----------------                   -----------
STRT  .M                  3.80390                       : FIRST INDEX VALUE
STOP  .M               1582.21070                       : LAST INDEX VALUE
STEP  .M                  0.15240                       : STEP OF INDEX
NULL  .             -999.25                             : NULL VALUE
COMP  .                                                 : COMPANY
WELL  .             FURUD                               : WELL
FLD   .                                                 : FIELD
LOC   .                                                 : LOCATION
SRVC  .                                                 : SERVICE COMPANY
CTRY  .                                                 : COUNTRY
PROV  .                                                 : PROVINCE
UWI   .                                                 : UNIQUE WELL ID
LIC   .                                                 : LICENSE NUMBER
STAT  .                                                 : STATE
CNTY  .                                                 : COUNTY
API   .                                                 : API NUMBER
DATE  .                                                 : LOG DATE
X     .             653771.9542756                      : X OR EAST-WEST COORDINATE
Y     .             8157280.499579                      : Y OR NORTH-SOUTH COORDINATE
HZCS  .                                                 : HORIZONTAL CO-ORDINATE SYSTEM
LATI  .             -16.66194444444                     : LATITUDE
LONG  .             154.4419444444                      : LONGITUDE
GDAT  .                                                 : GEODETIC DATUM

~DEVIATION_PARAMETER 
#MNEM.UNIT                    VALUE                        DESCRIPTION
#--------------- ---         ------------                 -----------------

~DEVIATION_DEFINITION 
#MNEM.UNIT                 LOG CODE                  CURVE DESCRIPTION
#----------- ----         ------------              -----------------
DEPTH       .M                                      :     {F}
AZIMUTH     .DEG                                    :     {F}
DEVIATION   .DEG                                    : 90-DIP    {F}

~DEVIATION_DATA | DEVIATION_DEFINITION
      343.0000,       89.5000,        0.5000
      495.0000,       89.7500,        0.2500
      645.0000,       89.5000,        0.5000
      800.0000,       89.2500,        0.7500
      950.0000,       88.7500,        1.2500
     1053.0000,       89.0000,        1.0000
     1201.0000,       89.2500,        0.7500
     1353.0000,       89.5000,        0.5000
     1577.0000,       88.7500,        1.2500

~TOPS_PARAMETER 
#MNEM.UNIT                    VALUE                        DESCRIPTION
#--------------- ---         ------------                 -----------------

~TOPS_DEFINITION 
#MNEM.UNIT                 LOG CODE                  CURVE DESCRIPTION
#----------- ----         ------------              -----------------
DEPTH       .M                                      :     {F}
TOPS        .                                       : Formation Tops    {S24}

~TOPS_DATA | TOPS_DEFINITION
        5.6000,Doyles Creek Subgroup   
      427.1711,Horseshoe Creek Subgroup
      490.4921,Apple Tree Flat Subgroup
      737.0000,Watts Sandstone         
      746.0000,Denman Fm               
      867.1244,Mt Leonard Fm           
      996.0000,Althorpe Fm             
     1003.0000,Malabar Fm              
     1049.2716,Mt Ogilvie Fm           
     1098.2854,Milbrodale Fm           
     1154.9063,Mt Thorley Fm           
     1205.0000,Burnamwood Fm           
     1292.5000,Archerfield Sandstone   
     1322.5000,Mulbring Siltstone      
     1398.5875,Muree Sandstone         
     1506.0000,Branxton Fm             
     1546.0000,Greta Coal Measures     
     1569.7129,Dalwood Group           
     1583.5793,                        

~PARAMETER 
#MNEM.UNIT                    VALUE                        DESCRIPTION
#--------------- ---         ------------                 -----------------

~CURVE 
#MNEM.UNIT                 LOG CODE                  CURVE DESCRIPTION
#----------- ----         ------------              -----------------
DEPTH       .M                                      :     {F}
GR          .GAPI         310010                    : GR_1 (Cleared: Bottom)    {F}
LLD         .OHMM         220100                    :     {F}
NPHI        .V/V          890000                    :     {F}
RHOB        .K/M3         350020                    : Offset applied to log data.    {F}

~ASCII | CURVE 
# ...
    1471.41590,       42.9781,      118.9160,      0.157207,     2488.9240
    1471.56830,       49.3232,       77.2794,      0.167988,     2447.3230
    1471.72070,       63.2640,       57.1580,      0.168279,     2413.8230
    1471.87310,       72.4903,       39.2033,      0.164599,     2384.8230
    1472.02550,       77.9338,       30.2629,      0.165740,     2371.8230
    1472.17790,       72.5175,       28.1151,      0.169854,     2366.7230
    1472.33030,       69.9548,       27.3652,      0.166169,     2374.8230
    1472.48270,       62.0975,       29.0213,      0.169245,     2375.1240
    1472.63510,       61.8464,       30.9718,      0.170014,     2361.2240
    1472.78750,       63.0678,       31.1567,      0.178879,     2341.2240
    1472.93990,       65.3825,       30.8268,      0.174278,     2345.5230
    1473.09230,       59.5842,       29.6353,      0.167642,     2364.8230
    1473.24470,       51.2383,       31.1008,      0.160846,     2395.2240
    1473.39710,       50.5016,       36.6284,      0.168292,     2417.1240
    1473.54950,       52.8750,       40.9888,      0.184278,     2447.9240
    1473.70190,       58.6527,       39.7189,      0.202840,     2495.3230
    1473.85430,       58.4879,       37.7531,      0.244817,     2544.0240
    1474.00670,       58.6438,       36.6835,      0.277401,     2494.0230
    1474.15910,       53.6671,       37.3490,      0.288982,     2425.6240
    1474.31150,       50.6287,       42.6639,      0.275997,     2385.1240
    1474.46390,       51.1141,       50.7878,      0.265644,     2383.5240
    1474.61630,       50.1086,       50.9767,      0.261334,     2381.6240
    1474.76870,       47.9747,       44.6643,      0.242059,     2359.8240
    1474.92110,       45.8978,       36.9192,      0.209104,     2335.2240
    1475.07350,       44.0300,       34.6544,      0.180647,     2324.7240
    1475.22590,       42.2511,       33.8669,      0.167397,     2313.7230
    1475.37830,       40.6203,       34.6674,      0.160876,     2300.0230
    1475.53070,       38.3398,       36.0360,      0.159886,     2289.6240
    1475.68310,       35.5431,       36.8812,      0.165503,     2285.3230
    1475.83550,       37.4732,       35.7398,      0.171337,     2286.6240
    1475.98790,       37.1906,       35.3587,      0.166602,     2276.1240
    1476.14030,       38.4103,       35.2089,      0.167756,     2277.1240
    1476.29270,       36.5886,       33.9847,      0.167187,     2282.8230
    1476.44510,       34.3321,       33.6262,      0.176438,     2301.2240
    1476.59750,       34.7067,       32.7014,      0.173292,     2317.6240
    1476.74990,       33.5530,       32.5088,      0.161428,     2365.5230
    1476.90230,       37.1939,       38.6119,      0.149724,     2404.8230
    1477.05470,       43.4068,       40.9469,      0.147488,     2396.7240
    1477.20710,       52.5351,       41.4860,      0.163544,     2361.4240
    1477.35950,       58.9245,       42.2217,      0.176658,     2319.2240
    1477.51190,       56.9501,       35.9841,      0.177961,     2294.2230
    1477.66430,       50.6439,       33.8695,      0.165513,     2267.5240
    1477.81670,       46.2104,       34.4969,      0.161503,     2267.3240
    1477.96910,       44.6352,       35.3792,      0.159561,     2269.2240
    1478.12150,       44.9461,       35.3213,      0.163121,     2269.3230
    1478.27390,       46.6570,       34.8820,      0.165278,     2267.0230
    1478.42630,       46.1095,       32.0029,      0.171092,     2265.9240
    1478.57870,       49.0533,       31.8463,      0.180975,     2278.9240
    1478.73110,       50.1016,       32.0846,      0.191379,     2296.3230
    1478.88350,       57.2759,       31.4142,      0.192503,     2311.0240
    1479.03590,       53.7584,       32.7894,      0.185241,     2320.5240
    1479.18830,       48.1017,       34.3498,      0.175561,     2324.8230
    1479.34070,       45.3161,       33.5809,      0.171120,     2331.1240
    1479.49310,       47.5179,       34.5219,      0.171417,     2340.2230
    1479.64550,       49.9226,       34.3964,      0.171929,     2353.3240
    1479.79790,       46.4072,       35.6674,      0.175619,     2379.9240
    1479.95030,       48.8249,       39.1398,      0.184637,     2391.0240
    1480.10270,       51.8234,       39.9312,      0.191493,     2400.5240
    1480.25510,       51.5914,       41.7730,      0.190677,     2402.8240
    1480.40750,       48.2987,       43.1586,      0.185257,     2385.0230
    1480.55990,       46.8718,       39.8525,      0.179713,     2368.7240
    1480.71230,       46.6296,       38.6243,      0.179018,     2357.4240
    1480.86470,       44.4052,       38.7087,      0.181471,     2332.5230
    1481.01710,       45.2810,       38.4238,      0.187962,     2296.2240
    1481.16950,       48.3830,       36.5583,      0.192470,     2281.8230
    1481.32190,       50.8386,       36.5568,      0.189686,     2290.7230
    1481.47430,       50.9519,       36.6296,      0.182855,     2317.2230
    1481.62670,       52.0586,       35.8696,      0.177594,     2336.9240
    1481.77910,       52.0443,       36.5343,      0.172103,     2343.2230
    1481.93150,       50.9968,       35.3309,      0.168700,     2336.3240
    1482.08390,       52.4238,       32.2874,      0.163432,     2347.3230
    1482.23630,       54.5507,       33.2630,      0.153916,     2375.8240
    1482.38870,       59.3409,       34.0359,      0.145331,     2401.3230
    1482.54110,       62.2574,       34.0027,      0.138300,     2422.5240
    1482.69350,       63.4765,       35.2852,      0.143484,     2416.2240
    1482.84590,       65.3019,       33.3888,      0.146646,     2417.5240
    1482.99830,       67.4972,       32.2472,      0.148243,     2405.0230
    1483.15070,       72.0351,       31.4895,      0.149258,     2421.3230
    1483.30310,       78.4611,       34.3885,      0.149936,     2448.5240
    1483.45550,       78.9724,       35.5404,      0.158454,     2471.4240
    1483.60790,       77.7771,       31.8012,      0.167086,     2432.2230
    1483.76030,       67.6841,       29.2829,      0.175769,     2371.3230
    1483.91270,       55.5124,       26.8720,      0.175385,     2341.5240
    1484.06510,       47.0169,       26.7341,      0.171821,     2377.5240
    1484.21750,       42.9792,       30.9329,      0.184537,     2391.1240
    1484.36990,       42.0881,       37.0418,      0.196410,     2425.3240
    1484.52230,       39.4978,       47.8182,      0.196478,     2435.0230
    1484.67470,       39.2117,       67.7094,      0.174118,     2501.9240
    1484.82710,       38.2252,       99.6948,      0.149045,     2584.7240
    1484.97950,       35.4928,      225.9040,      0.149071,     2665.3240
    1485.13190,       30.5591,      615.6890,      0.162820,     2703.9240
    1485.28430,       33.0551,      425.8260,      0.176577,     2652.0230
    1485.43670,       43.2302,      128.2390,      0.184818,     2559.8240
    1485.58910,       51.8216,       65.8659,      0.187789,     2477.2240
    1485.74150,       60.1064,       47.1004,      0.191222,     2418.3240
    1485.89390,       58.3820,       38.4727,      0.188754,     2420.0240
    1486.04630,       59.2827,       36.9157,      0.181344,     2450.1240
    1486.19870,       62.7590,       39.3419,      0.178428,     2466.1240
    1486.35110,       65.3937,       39.7128,      0.178844,     2466.5240
    1486.50350,       64.3244,       39.0274,      0.175998,     2460.9240
    1486.65590,       65.3608,       39.4645,      0.171910,     2466.3230
    1486.80830,       64.8865,       41.4258,      0.167978,     2454.4240
    1486.96070,       61.3337,       39.8790,      0.169475,     2413.3230
    1487.11310,       52.3930,       37.2987,      0.179290,     2349.0230
    1487.26550,       48.9207,       34.8913,      0.184197,     2296.5230
    1487.41790,       47.0804,       31.1225,      0.195697,     2271.4240
    1487.57030,       49.7046,       29.4063,      0.191729,     2279.4240
