~Version
VERS  .             3.0                                 : CWLS LOG ASCII STANDARD - VERSION 3.0
WRAP  .             NO                                  : One line per depth step
DLM   .             COMMA                               : Delimiter character between data columns
#Delimiting character ( SPACE TAB OR COMMA ).

~Well
#MNEM.UNIT          DATA                                DESCRIPTION
#----- ----        -----------------                   -----------
STRT  .M                  3.80390                       : FIRST INDEX VALUE
STOP  .M               1582.21070                       : LAST INDEX VALUE
STEP  .M                  0.15240                       : STEP OF INDEX
NULL  .             -999.25                             : NULL VALUE
COMP  .                                                 : COMPANY
WELL  .             FURUD                               : WELL
FLD   .                                                 : FIELD
LOC   .                                                 : LOCATION
SRVC  .                                                 : SERVICE COMPANY
CTRY  .                                                 : COUNTRY
PROV  .                                                 : PROVINCE
UWI   .                                                 : UNIQUE WELL ID
LIC   .                                                 : LICENSE NUMBER
STAT  .                                                 : STATE
CNTY  .                                                 : COUNTY
API   .                                                 : API NUMBER
DATE  .                                                 : LOG DATE
X     .             653771.9542756                      : X OR EAST-WEST COORDINATE
Y     .             8157280.499579                      : Y OR NORTH-SOUTH COORDINATE
HZCS  .                                                 : HORIZONTAL CO-ORDINATE SYSTEM
LATI  .             -16.66194444444                     : LATITUDE
LONG  .             154.4419444444                      : LONGITUDE
GDAT  .                                                 : GEODETIC DATUM

~DEVIATION_PARAMETER 
#MNEM.UNIT                    VALUE                        DESCRIPTION
#--------------- ---         ------------                 -----------------

~DEVIATION_DEFINITION 
#MNEM.UNIT                 LOG CODE                  CURVE DESCRIPTION
#----------- ----         ------------              -----------------
DEPTH       .M                                      :     {F}
AZIMUTH     .DEG                                    :     {F}
DEVIATION   .DEG                                    : 90-DIP    {F}

~DEVIATION_DATA | DEVIATION_DEFINITION
      343.0000,       89.5000,        0.5000
      495.0000,       89.7500,        0.2500
      645.0000,       89.5000,        0.5000
      800.0000,       89.2500,        0.7500
      950.0000,       88.7500,        1.2500
     1053.0000,       89.0000,        1.0000
     1201.0000,       89.2500,        0.7500
     1353.0000,       89.5000,        0.5000
     1577.0000,       88.7500,        1.2500

~TOPS_PARAMETER 
#MNEM.UNIT                    VALUE                        DESCRIPTION
#--------------- ---         ------------                 -----------------

~TOPS_DEFINITION 
#MNEM.UNIT                 LOG CODE                  CURVE DESCRIPTION
#----------- ----         ------------              -----------------
DEPTH       .M                                      :     {F}
TOPS        .                                       : Formation Tops    {S24}

~TOPS_DATA | TOPS_DEFINITION
        5.6000,Doyles Creek Subgroup   
      427.1711,Horseshoe Creek Subgroup
      490.4921,Apple Tree Flat Subgroup
      737.0000,Watts Sandstone         
      746.0000,Denman Fm               
      867.1244,Mt Leonard Fm           
      996.0000,Althorpe Fm             
     1003.0000,Malabar Fm              
     1049.2716,Mt Ogilvie Fm           
     1098.2854,Milbrodale Fm           
     1154.9063,Mt Thorley Fm           
     1205.0000,Burnamwood Fm           
     1292.5000,Archerfield Sandstone   
     1322.5000,Mulbring Siltstone      
     1398.5875,Muree Sandstone         
     1506.0000,Branxton Fm             
     1546.0000,Greta Coal Measures     
     1569.7129,Dalwood Group           
     1583.5793,                        

~PARAMETER 
#MNEM.UNIT                    VALUE                        DESCRIPTION
#--------------- ---         ------------                 -----------------

~CURVE 
#MNEM.UNIT                 LOG CODE                  CURVE DESCRIPTION
#----------- ----         ------------              -----------------
DEPTH       .M                                      :     {F}
GR          .GAPI         310010                    : GR_1 (Cleared: Bottom)    {F}
LLD         .OHMM         220100                    :     {F}
NPHI        .V/V          890000                    :     {F}
RHOB        .K/M3         350020                    : Offset applied to log data.    {F}

~ASCII | CURVE 
# ...
    1569.25670,       94.7846,       73.5760,      0.052204,     2731.2240
    1569.40910,       80.5849,       59.9540,      0.058094,     2735.9240
    1569.56150,       82.0616,       47.7079,      0.063559,     2726.6240
    1569.71390,       82.1315,       36.5742,      0.074706,     2726.7240
    1569.86630,       90.8489,       34.6092,      0.086206,     2747.5230
    1570.01870,       93.2575,       37.3127,      0.083640,     2766.9240
    1570.17110,       93.7304,       41.4711,      0.074363,     2769.0240
    1570.32350,       92.3209,       49.8727,      0.064668,     2751.8230
    1570.47590,       84.5802,       49.4821,      0.061832,     2725.0240
    1570.62830,       81.5980,       42.7424,      0.066428,     2712.7240
    1570.78070,       79.8862,       42.1145,      0.070836,     2719.8230
    1570.93310,       84.7742,       44.4893,      0.068979,     2736.2240
    1571.08550,       86.3899,       43.1961,      0.066355,     2730.0240
    1571.23790,       87.3349,       43.3325,      0.062981,     2708.4240
    1571.39030,       84.6185,       47.7249,      0.062464,     2695.2230
    1571.54270,       80.0662,       47.0201,      0.059971,     2699.8230
    1571.69510,       80.3228,       49.3690,      0.054221,     2717.5230
    1571.84750,       81.0587,       56.2548,      0.055824,     2724.5230
    1571.99990,       84.9030,       52.3596,      0.066486,     2734.8240
    1572.15230,       82.6511,       45.1597,      0.071836,     2749.7240
    1572.30470,       84.3079,       46.7959,      0.075654,     2768.7240
    1572.45710,       79.9002,       48.8273,      0.073752,     2766.9240
    1572.60950,       81.5466,       48.0697,      0.075203,     2766.6240
    1572.76190,       80.5242,       52.3880,      0.075749,     2782.1240
    1572.91430,       82.1157,       60.9287,      0.080100,     2793.6240
    1573.06670,       81.5103,       60.6255,      0.081499,     2812.2240
    1573.21910,       82.2164,       61.8610,      0.078599,     2787.7230
    1573.37150,       84.1129,       63.2975,      0.077608,     2742.7240
    1573.52390,       83.2528,       57.0514,      0.075727,     2749.3230
    1573.67630,       79.3097,       56.8899,      0.078577,     2748.0240
    1573.82870,       79.1418,       58.0226,      0.076223,     2751.2230
    1573.98110,       80.2976,       57.9282,      0.079612,     2721.2240
    1574.13350,       83.4561,       58.0942,      0.081055,     2724.3240
    1574.28590,       84.6409,       58.1154,      0.080975,     2718.5240
    1574.43830,       81.5336,       58.1511,      0.075647,     2712.8230
    1574.59070,       79.5980,       58.2101,      0.073235,     2721.4240
    1574.74310,       77.9179,       58.2177,      0.072805,     2771.3240
    1574.89550,       84.8974,       58.1818,      0.076194,     2775.2240
    1575.04790,       86.3853,       58.1338,      0.077622,     2773.3230
    1575.20030,       86.9749,       58.3130,      0.076653,     2775.3230
    1575.35270,       81.2406,       58.1708,      0.076150,     2783.4240
    1575.50510,       84.7584,       58.1965,      0.074700,     2804.3240
    1575.65750,       85.3218,       58.3007,      0.074212,     2794.6240
    1575.80990,       85.8844,       58.2747,      0.073730,     2790.9240
    1575.96230,     -999.2500,       58.2333,      0.073730,     2798.4240
    1576.11470,     -999.2500,       58.2961,      0.073738,     2789.2240
    1576.26710,     -999.2500,       58.2388,      0.074212,     2808.2240
    1576.41950,     -999.2500,       58.0108,      0.073723,     2798.7240
    1576.57190,     -999.2500,       58.0753,      0.073242,     2804.4240
    1576.72430,     -999.2500,       57.6819,      0.073249,     2802.9240
    1576.87670,     -999.2500,       57.9377,      0.073738,     2825.7240
    1577.02910,     -999.2500,       57.9645,      0.074219,     2811.8230
    1577.18150,     -999.2500,       59.0348,      0.074219,     2782.0240
    1577.33390,     -999.2500,     -999.2500,      0.074233,     2726.1240
    1577.48630,     -999.2500,     -999.2500,      0.075217,     2712.6240
    1577.63870,     -999.2500,     -999.2500,      0.076689,     2707.0230
    1577.79110,     -999.2500,     -999.2500,      0.078621,     2716.6240
    1577.94350,     -999.2500,     -999.2500,      0.079102,     2721.0230
    1578.09590,     -999.2500,     -999.2500,      0.079102,     2752.2240
    1578.24830,     -999.2500,     -999.2500,      0.079102,     2779.0240
    1578.40070,     -999.2500,     -999.2500,      0.079109,     2774.9240
    1578.55310,     -999.2500,     -999.2500,      0.079590,     2759.3230
    1578.70550,     -999.2500,     -999.2500,      0.079597,     2746.1240
    1578.85790,     -999.2500,     -999.2500,      0.080078,     2761.6240
    1579.01030,     -999.2500,     -999.2500,      0.080078,     2765.4240
    1579.16270,     -999.2500,     -999.2500,      0.080078,     2765.2240
    1579.31510,     -999.2500,     -999.2500,      0.080078,     2749.4240
    1579.46750,     -999.2500,     -999.2500,      0.080078,     2728.1240
    1579.61990,     -999.2500,     -999.2500,      0.080078,     2713.1240
    1579.77230,     -999.2500,     -999.2500,      0.080078,     2740.1240
    1579.92470,     -999.2500,     -999.2500,      0.080078,     2745.8230
    1580.07710,     -999.2500,     -999.2500,      0.080078,     2737.6240
    1580.22950,     -999.2500,     -999.2500,      0.080078,     2707.4240
    1580.38190,     -999.2500,     -999.2500,      0.080078,     2742.4240
    1580.53430,     -999.2500,     -999.2500,      0.080078,     2767.5240
    1580.68670,     -999.2500,     -999.2500,      0.080078,     2776.6240
    1580.83910,     -999.2500,     -999.2500,      0.080078,     2742.0240
    1580.99150,     -999.2500,     -999.2500,      0.080078,     2741.9240
    1581.14390,     -999.2500,     -999.2500,      0.080078,     2740.1240
    1581.29630,     -999.2500,     -999.2500,      0.080078,     2745.9240
    1581.44870,     -999.2500,     -999.2500,      0.080078,     2745.9240
    1581.60110,     -999.2500,     -999.2500,      0.080078,     2745.9240
    1581.75350,     -999.2500,     -999.2500,      0.080078,     2745.9240
    1581.90590,     -999.2500,     -999.2500,      0.080078,     2745.9240
    1582.05830,     -999.2500,     -999.2500,      0.080078,     -999.2500
    1582.21070,     -999.2500,     -999.2500,      0.079984,     -999.2500
