~Version
VERS  .             3.0                                 : CWLS LOG ASCII STANDARD - VERSION 3.0
WRAP  .             NO                                  : One line per depth step
DLM   .             COMMA                               : Delimiter character between data columns
#Delimiting character ( SPACE TAB OR COMMA ).

~Well
#MNEM.UNIT          DATA                                DESCRIPTION
#----- ----        -----------------                   -----------
STRT  .M                  3.80390                       : FIRST INDEX VALUE
STOP  .M               1582.21070                       : LAST INDEX VALUE
STEP  .M                  0.15240                       : STEP OF INDEX
NULL  .             -999.25                             : NULL VALUE
COMP  .                                                 : COMPANY
WELL  .             FURUD                               : WELL
FLD   .                                                 : FIELD
LOC   .                                                 : LOCATION
SRVC  .                                                 : SERVICE COMPANY
CTRY  .                                                 : COUNTRY
PROV  .                                                 : PROVINCE
UWI   .                                                 : UNIQUE WELL ID
LIC   .                                                 : LICENSE NUMBER
STAT  .                                                 : STATE
CNTY  .                                                 : COUNTY
API   .                                                 : API NUMBER
DATE  .                                                 : LOG DATE
X     .             653771.9542756                      : X OR EAST-WEST COORDINATE
Y     .             8157280.499579                      : Y OR NORTH-SOUTH COORDINATE
HZCS  .                                                 : HORIZONTAL CO-ORDINATE SYSTEM
LATI  .             -16.66194444444                     : LATITUDE
LONG  .             154.4419444444                      : LONGITUDE
GDAT  .                                                 : GEODETIC DATUM

~DEVIATION_PARAMETER 
#MNEM.UNIT                    VALUE                        DESCRIPTION
#--------------- ---         ------------                 -----------------

~DEVIATION_DEFINITION 
#MNEM.UNIT                 LOG CODE                  CURVE DESCRIPTION
#----------- ----         ------------              -----------------
DEPTH       .M                                      :     {F}
AZIMUTH     .DEG                                    :     {F}
DEVIATION   .DEG                                    : 90-DIP    {F}

~DEVIATION_DATA | DEVIATION_DEFINITION
      343.0000,       89.5000,        0.5000
      495.0000,       89.7500,        0.2500
      645.0000,       89.5000,        0.5000
      800.0000,       89.2500,        0.7500
      950.0000,       88.7500,        1.2500
     1053.0000,       89.0000,        1.0000
     1201.0000,       89.2500,        0.7500
     1353.0000,       89.5000,        0.5000
     1577.0000,       88.7500,        1.2500

~TOPS_PARAMETER 
#MNEM.UNIT                    VALUE                        DESCRIPTION
#--------------- ---         ------------                 -----------------

~TOPS_DEFINITION 
#MNEM.UNIT                 LOG CODE                  CURVE DESCRIPTION
#----------- ----         ------------              -----------------
DEPTH       .M                                      :     {F}
TOPS        .                                       : Formation Tops    {S24}

~TOPS_DATA | TOPS_DEFINITION
        5.6000,Doyles Creek Subgroup   
      427.1711,Horseshoe Creek Subgroup
      490.4921,Apple Tree Flat Subgroup
      737.0000,Watts Sandstone         
      746.0000,Denman Fm               
      867.1244,Mt Leonard Fm           
      996.0000,Althorpe Fm             
     1003.0000,Malabar Fm              
     1049.2716,Mt Ogilvie Fm           
     1098.2854,Milbrodale Fm           
     1154.9063,Mt Thorley Fm           
     1205.0000,Burnamwood Fm           
     1292.5000,Archerfield Sandstone   
     1322.5000,Mulbring Siltstone      
     1398.5875,Muree Sandstone         
     1506.0000,Branxton Fm             
     1546.0000,Greta Coal Measures     
     1569.7129,Dalwood Group           
     1583.5793,                        

~PARAMETER 
#MNEM.UNIT                    VALUE                        DESCRIPTION
#--------------- ---         ------------                 -----------------

~CURVE 
#MNEM.UNIT                 LOG CODE                  CURVE DESCRIPTION
#----------- ----         ------------              -----------------
DEPTH       .M                                      :     {F}
GR          .GAPI         310010                    : GR_1 (Cleared: Bottom)    {F}
LLD         .OHMM         220100                    :     {F}
NPHI        .V/V          890000                    :     {F}
RHOB        .K/M3         350020                    : Offset applied to log data.    {F}

~ASCII | CURVE 
# ...
     933.29150,       76.9713,        1.6742,   -999.250000,     -999.2500
     933.44390,       78.7175,        1.6651,   -999.250000,     -999.2500
     933.59630,       77.4490,        1.6774,   -999.250000,     -999.2500
     933.74870,       73.8686,        1.7505,   -999.250000,     -999.2500
     933.90110,       70.8045,        1.8215,   -999.250000,     -999.2500
     934.05350,       69.8517,        1.8967,   -999.250000,     -999.2500
     934.20590,       74.0967,        1.9231,   -999.250000,     -999.2500
     934.35830,       78.0422,        1.8890,   -999.250000,     -999.2500
     934.51070,       77.2274,        1.8707,   -999.250000,     -999.2500
     934.66310,       72.1796,        1.8847,   -999.250000,     -999.2500
     934.81550,       67.1458,        1.8998,   -999.250000,     -999.2500
     934.96790,       66.9509,        1.9330,   -999.250000,     -999.2500
     935.12030,       69.4782,        1.9301,   -999.250000,     -999.2500
     935.27270,       71.4301,        1.8985,   -999.250000,     -999.2500
     935.42510,       72.9726,        1.8671,   -999.250000,     -999.2500
     935.57750,       75.3761,        1.7933,   -999.250000,     -999.2500
     935.72990,       76.7960,        1.7576,   -999.250000,     -999.2500
     935.88230,       74.6778,        1.7788,   -999.250000,     -999.2500
     936.03470,       71.3984,        1.8318,   -999.250000,     -999.2500
     936.18710,       70.4496,        1.8641,   -999.250000,     -999.2500
     936.33950,       74.1512,        1.9038,   -999.250000,     -999.2500
     936.49190,       76.3094,        1.8615,   -999.250000,     -999.2500
     936.64430,       74.4880,        1.9507,   -999.250000,     -999.2500
     936.79670,       68.1773,        1.9641,   -999.250000,     -999.2500
     936.94910,       67.2852,        1.9810,   -999.250000,     -999.2500
     937.10150,       68.3919,        1.9497,   -999.250000,     -999.2500
     937.25390,       72.7622,        1.8163,   -999.250000,     -999.2500
     937.40630,       73.9680,        1.7473,   -999.250000,     -999.2500
     937.55870,       72.8956,        1.7551,   -999.250000,     -999.2500
     937.71110,       75.7892,        1.7648,   -999.250000,     -999.2500
     937.86350,       79.6374,        1.7345,   -999.250000,     -999.2500
     938.01590,       83.9711,        1.7281,   -999.250000,     -999.2500
     938.16830,       84.9113,        1.6828,   -999.250000,     -999.2500
     938.32070,       78.8528,        1.6838,   -999.250000,     -999.2500
     938.47310,       76.3542,        1.6917,   -999.250000,     -999.2500
     938.62550,       72.1246,        1.6630,   -999.250000,     -999.2500
     938.77790,       71.9627,        1.6859,   -999.250000,     -999.2500
     938.93030,       71.2664,        1.6370,   -999.250000,     -999.2500
     939.08270,       72.7570,        1.6185,   -999.250000,     -999.2500
     939.23510,       76.3698,        1.5967,   -999.250000,     -999.2500
     939.38750,       77.5366,        1.6335,   -999.250000,     -999.2500
     939.53990,       76.9585,        1.6483,   -999.250000,     -999.2500
     939.69230,       77.6616,        1.7095,   -999.250000,     -999.2500
     939.84470,       78.6244,        1.6422,   -999.250000,     -999.2500
     939.99710,       82.1839,        1.6475,   -999.250000,     -999.2500
     940.14950,       79.4033,        1.6431,   -999.250000,     -999.2500
     940.30190,       76.8811,        1.6020,   -999.250000,     -999.2500
     940.45430,       72.3754,        1.6237,   -999.250000,     -999.2500
     940.60670,       71.4105,        1.6710,   -999.250000,     -999.2500
     940.75910,       72.3035,        1.7196,   -999.250000,     -999.2500
     940.91150,       71.5753,        1.7336,   -999.250000,     -999.2500
     941.06390,       70.2339,        1.7183,   -999.250000,     -999.2500
     941.21630,       71.4174,        1.6856,   -999.250000,     -999.2500
     941.36870,       76.9612,        1.6142,   -999.250000,     -999.2500
     941.52110,       80.0818,        1.6120,   -999.250000,     -999.2500
     941.67350,       77.5372,        1.6826,   -999.250000,     -999.2500
     941.82590,       72.3757,        1.7377,   -999.250000,     -999.2500
     941.97830,       71.2446,        1.8020,   -999.250000,     -999.2500
     942.13070,       72.4854,        1.7506,   -999.250000,     -999.2500
     942.28310,       76.6006,        1.7165,   -999.250000,     -999.2500
     942.43550,       78.4337,        1.7050,   -999.250000,     -999.2500
     942.58790,       79.0363,        1.6797,   -999.250000,     -999.2500
     942.74030,       78.9554,        1.7021,   -999.250000,     -999.2500
     942.89270,       81.2639,        1.6860,   -999.250000,     -999.2500
     943.04510,       82.9106,        1.6220,   -999.250000,     -999.2500
     943.19750,       82.9440,        1.6190,   -999.250000,     -999.2500
     943.34990,       79.1004,        1.5515,   -999.250000,     -999.2500
     943.50230,       79.6353,        1.5299,   -999.250000,     -999.2500
     943.65470,       78.5319,        1.5555,   -999.250000,     -999.2500
     943.80710,       75.9864,        1.6182,   -999.250000,     -999.2500
     943.95950,       71.1992,        1.6172,   -999.250000,     -999.2500
     944.11190,       70.0136,        1.6182,   -999.250000,     -999.2500
     944.26430,       70.8421,        1.6040,   -999.250000,     -999.2500
     944.41670,       73.9873,        1.6075,   -999.250000,     -999.2500
     944.56910,       78.9211,        1.6040,   -999.250000,     -999.2500
     944.72150,       85.0088,        1.6116,   -999.250000,     -999.2500
     944.87390,       91.8124,        1.5475,   -999.250000,     -999.2500
     945.02630,       88.7164,        1.5043,   -999.250000,     -999.2500
     945.17870,       83.8452,        1.4529,   -999.250000,     -999.2500
     945.33110,       79.1777,        1.4303,   -999.250000,     -999.2500
     945.48350,       80.3907,        1.4361,   -999.250000,     -999.2500
     945.63590,       85.7277,        1.4514,   -999.250000,     -999.2500
     945.78830,       85.0179,        1.4364,   -999.250000,     -999.2500
     945.94070,       83.0754,        1.4488,   -999.250000,     -999.2500
     946.09310,       78.0430,        1.4568,   -999.250000,     -999.2500
     946.24550,       76.9782,        1.4667,   -999.250000,     -999.2500
     946.39790,       73.1496,        1.4902,   -999.250000,     -999.2500
     946.55030,       74.6177,        1.4779,   -999.250000,     -999.2500
     946.70270,       75.4384,        1.4571,   -999.250000,     -999.2500
     946.85510,       77.8099,        1.4656,   -999.250000,     -999.2500
     947.00750,       80.9677,        1.4623,   -999.250000,     -999.2500
     947.15990,       80.6326,        1.4454,   -999.250000,     -999.2500
     947.31230,       79.5213,        1.4198,   -999.250000,     -999.2500
     947.46470,       73.6296,        1.4018,   -999.250000,     -999.2500
     947.61710,       71.4369,        1.4423,   -999.250000,     -999.2500
     947.76950,       73.2430,        1.4899,   -999.250000,     -999.2500
     947.92190,       74.7792,        1.5313,   -999.250000,     -999.2500
     948.07430,       73.3871,        1.5803,   -999.250000,     -999.2500
     948.22670,       77.3683,        1.5663,   -999.250000,     -999.2500
     948.37910,       81.1117,        1.5384,   -999.250000,     -999.2500
     948.53150,       82.6319,        1.5136,   -999.250000,     -999.2500
     948.68390,       81.9784,        1.5212,   -999.250000,     -999.2500
     948.83630,       79.9647,        1.5500,   -999.250000,     -999.2500
     948.98870,       80.2422,        1.5599,   -999.250000,     -999.2500
     949.14110,       82.3615,        1.5720,   -999.250000,     -999.2500
     949.29350,       80.9801,        1.6028,   -999.250000,     -999.2500
     949.44590,       77.2624,        1.5981,   -999.250000,     -999.2500
