~Version
VERS  .             3.0                                 : CWLS LOG ASCII STANDARD - VERSION 3.0
WRAP  .             NO                                  : One line per depth step
DLM   .             COMMA                               : Delimiter character between data columns
#Delimiting character ( SPACE TAB OR COMMA ).

~Well
#MNEM.UNIT          DATA                                DESCRIPTION
#----- ----        -----------------                   -----------
STRT  .M                  3.80390                       : FIRST INDEX VALUE
STOP  .M               1582.21070                       : LAST INDEX VALUE
STEP  .M                  0.15240                       : STEP OF INDEX
NULL  .             -999.25                             : NULL VALUE
COMP  .                                                 : COMPANY
WELL  .             FURUD                               : WELL
FLD   .                                                 : FIELD
LOC   .                                                 : LOCATION
SRVC  .                                                 : SERVICE COMPANY
CTRY  .                                                 : COUNTRY
PROV  .                                                 : PROVINCE
UWI   .                                                 : UNIQUE WELL ID
LIC   .                                                 : LICENSE NUMBER
STAT  .                                                 : STATE
CNTY  .                                                 : COUNTY
API   .                                                 : API NUMBER
DATE  .                                                 : LOG DATE
X     .             653771.9542756                      : X OR EAST-WEST COORDINATE
Y     .             8157280.499579                      : Y OR NORTH-SOUTH COORDINATE
HZCS  .                                                 : HORIZONTAL CO-ORDINATE SYSTEM
LATI  .             -16.66194444444                     : LATITUDE
LONG  .             154.4419444444                      : LONGITUDE
GDAT  .                                                 : GEODETIC DATUM

~DEVIATION_PARAMETER 
#MNEM.UNIT                    VALUE                        DESCRIPTION
#--------------- ---         ------------                 -----------------

~DEVIATION_DEFINITION 
#MNEM.UNIT                 LOG CODE                  CURVE DESCRIPTION
#----------- ----         ------------              -----------------
DEPTH       .M                                      :     {F}
AZIMUTH     .DEG                                    :     {F}
DEVIATION   .DEG                                    : 90-DIP    {F}

~DEVIATION_DATA | DEVIATION_DEFINITION
      343.0000,       89.5000,        0.5000
      495.0000,       89.7500,        0.2500
      645.0000,       89.5000,        0.5000
      800.0000,       89.2500,        0.7500
      950.0000,       88.7500,        1.2500
     1053.0000,       89.0000,        1.0000
     1201.0000,       89.2500,        0.7500
     1353.0000,       89.5000,        0.5000
     1577.0000,       88.7500,        1.2500

~TOPS_PARAMETER 
#MNEM.UNIT                    VALUE                        DESCRIPTION
#--------------- ---         ------------                 -----------------

~TOPS_DEFINITION 
#MNEM.UNIT                 LOG CODE                  CURVE DESCRIPTION
#----------- ----         ------------              -----------------
DEPTH       .M                                      :     {F}
TOPS        .                                       : Formation Tops    {S24}

~TOPS_DATA | TOPS_DEFINITION
        5.6000,Doyles Creek Subgroup   
      427.1711,Horseshoe Creek Subgroup
      490.4921,Apple Tree Flat Subgroup
      737.0000,Watts Sandstone         
      746.0000,Denman Fm               
      867.1244,Mt Leonard Fm           
      996.0000,Althorpe Fm             
     1003.0000,Malabar Fm              
     1049.2716,Mt Ogilvie Fm           
     1098.2854,Milbrodale Fm           
     1154.9063,Mt Thorley Fm           
     1205.0000,Burnamwood Fm           
     1292.5000,Archerfield Sandstone   
     1322.5000,Mulbring Siltstone      
     1398.5875,Muree Sandstone         
     1506.0000,Branxton Fm             
     1546.0000,Greta Coal Measures     
     1569.7129,Dalwood Group           
     1583.5793,                        

~PARAMETER 
#MNEM.UNIT                    VALUE                        DESCRIPTION
#--------------- ---         ------------                 -----------------

~CURVE 
#MNEM.UNIT                 LOG CODE                  CURVE DESCRIPTION
#----------- ----         ------------              -----------------
DEPTH       .M                                      :     {F}
GR          .GAPI         310010                    : GR_1 (Cleared: Bottom)    {F}
LLD         .OHMM         220100                    :     {F}
NPHI        .V/V          890000                    :     {F}
RHOB        .K/M3         350020                    : Offset applied to log data.    {F}

~ASCII | CURVE 
# ...
     574.54190,       79.5581,        1.6127,   -999.250000,     -999.2500
     574.69430,       78.9232,        1.6140,   -999.250000,     -999.2500
     574.84670,       79.8016,        1.5861,   -999.250000,     -999.2500
     574.99910,       79.2888,        1.5626,   -999.250000,     -999.2500
     575.15150,       80.9879,        1.5448,   -999.250000,     -999.2500
     575.30390,       81.8674,        1.5035,   -999.250000,     -999.2500
     575.45630,       80.3741,        1.4705,   -999.250000,     -999.2500
     575.60870,       82.8192,        1.4728,   -999.250000,     -999.2500
     575.76110,       84.2865,        1.4833,   -999.250000,     -999.2500
     575.91350,       79.5582,        1.4755,   -999.250000,     -999.2500
     576.06590,       76.7001,        1.4456,   -999.250000,     -999.2500
     576.21830,       77.8307,        1.4358,   -999.250000,     -999.2500
     576.37070,       83.2408,        1.4383,   -999.250000,     -999.2500
     576.52310,       78.2618,        1.5061,   -999.250000,     -999.2500
     576.67550,       70.5022,        1.7743,   -999.250000,     -999.2500
     576.82790,       65.0591,        2.1824,   -999.250000,     -999.2500
     576.98030,       64.2277,        2.3396,   -999.250000,     -999.2500
     577.13270,       64.4449,        2.2959,   -999.250000,     -999.2500
     577.28510,       62.8881,        2.0273,   -999.250000,     -999.2500
     577.43750,       64.5173,        1.6218,   -999.250000,     -999.2500
     577.58990,       66.0586,        1.4374,   -999.250000,     -999.2500
     577.74230,       70.7312,        1.4546,   -999.250000,     -999.2500
     577.89470,       74.3900,        1.4380,   -999.250000,     -999.2500
     578.04710,       75.8882,        1.4490,   -999.250000,     -999.2500
     578.19950,       75.0154,        1.4373,   -999.250000,     -999.2500
     578.35190,       72.6480,        1.4351,   -999.250000,     -999.2500
     578.50430,       72.8255,        1.4351,   -999.250000,     -999.2500
     578.65670,       74.2056,        1.3936,   -999.250000,     -999.2500
     578.80910,       76.0528,        1.3863,   -999.250000,     -999.2500
     578.96150,       77.2745,        1.4035,   -999.250000,     -999.2500
     579.11390,       75.7113,        1.4266,   -999.250000,     -999.2500
     579.26630,       70.5061,        1.4475,   -999.250000,     -999.2500
     579.41870,       68.7932,        1.4374,   -999.250000,     -999.2500
     579.57110,       69.1984,        1.4077,   -999.250000,     -999.2500
     579.72350,       70.3377,        1.4189,   -999.250000,     -999.2500
     579.87590,       71.3630,        1.3722,   -999.250000,     -999.2500
     580.02830,       74.4396,        1.3303,   -999.250000,     -999.2500
     580.18070,       78.3175,        1.3366,   -999.250000,     -999.2500
     580.33310,       80.3528,        1.3409,   -999.250000,     -999.2500
     580.48550,       79.2811,        1.3357,   -999.250000,     -999.2500
     580.63790,       76.9522,        1.3484,   -999.250000,     -999.2500
     580.79030,       75.1601,        1.3609,   -999.250000,     -999.2500
     580.94270,       75.1462,        1.3679,   -999.250000,     -999.2500
     581.09510,       76.4511,        1.3663,   -999.250000,     -999.2500
     581.24750,       73.9208,        1.3956,   -999.250000,     -999.2500
     581.39990,       70.7974,        1.4083,   -999.250000,     -999.2500
     581.55230,       69.2828,        1.4078,   -999.250000,     -999.2500
     581.70470,       69.1412,        1.4289,   -999.250000,     -999.2500
     581.85710,       69.6881,        1.4574,   -999.250000,     -999.2500
     582.00950,       70.6455,        1.4933,   -999.250000,     -999.2500
     582.16190,       72.8546,        1.4783,   -999.250000,     -999.2500
     582.31430,       75.3377,        1.4917,   -999.250000,     -999.2500
     582.46670,       75.0947,        1.5162,   -999.250000,     -999.2500
     582.61910,       74.0871,        1.5354,   -999.250000,     -999.2500
     582.77150,       70.2041,        1.5340,   -999.250000,     -999.2500
     582.92390,       70.6918,        1.5180,   -999.250000,     -999.2500
     583.07630,       74.1034,        1.4847,   -999.250000,     -999.2500
     583.22870,       75.9358,        1.4576,   -999.250000,     -999.2500
     583.38110,       78.8618,        1.4388,   -999.250000,     -999.2500
     583.53350,       78.7932,        1.4450,   -999.250000,     -999.2500
     583.68590,       76.5136,        1.4270,   -999.250000,     -999.2500
     583.83830,       75.2416,        1.4232,   -999.250000,     -999.2500
     583.99070,       77.5624,        1.4277,   -999.250000,     -999.2500
     584.14310,       83.9250,        1.4127,   -999.250000,     -999.2500
     584.29550,       83.3493,        1.4282,   -999.250000,     -999.2500
     584.44790,       81.1793,        1.4359,   -999.250000,     -999.2500
     584.60030,       75.5514,        1.4684,   -999.250000,     -999.2500
     584.75270,       77.6192,        1.5162,   -999.250000,     -999.2500
     584.90510,       72.8410,        1.5024,   -999.250000,     -999.2500
     585.05750,       75.8467,        1.4962,   -999.250000,     -999.2500
     585.20990,       73.5431,        1.4766,   -999.250000,     -999.2500
     585.36230,       76.4971,        1.4432,   -999.250000,     -999.2500
     585.51470,       74.7546,        1.4424,   -999.250000,     -999.2500
     585.66710,       77.8457,        1.4125,   -999.250000,     -999.2500
     585.81950,       78.6150,        1.4285,   -999.250000,     -999.2500
     585.97190,       80.2291,        1.4565,   -999.250000,     -999.2500
     586.12430,       74.4799,        1.5092,   -999.250000,     -999.2500
     586.27670,       70.7756,        1.5075,   -999.250000,     -999.2500
     586.42910,       65.8265,        1.5372,   -999.250000,     -999.2500
     586.58150,       65.2961,        1.5890,   -999.250000,     -999.2500
     586.73390,       69.8905,        1.5358,   -999.250000,     -999.2500
     586.88630,       75.3505,        1.5664,   -999.250000,     -999.2500
     587.03870,       76.3416,        1.5773,   -999.250000,     -999.2500
     587.19110,       72.6756,        1.6139,   -999.250000,     -999.2500
     587.34350,       70.3291,        1.6121,   -999.250000,     -999.2500
     587.49590,       71.4892,        1.5729,   -999.250000,     -999.2500
     587.64830,       76.5360,        1.5749,   -999.250000,     -999.2500
     587.80070,       78.7741,        1.5104,   -999.250000,     -999.2500
     587.95310,       75.9545,        1.4263,   -999.250000,     -999.2500
     588.10550,       75.3046,        1.4738,   -999.250000,     -999.2500
     588.25790,       73.5948,        1.5021,   -999.250000,     -999.2500
     588.41030,       75.6678,        1.4487,   -999.250000,     -999.2500
     588.56270,       77.2979,        1.4555,   -999.250000,     -999.2500
     588.71510,       75.3635,        1.4672,   -999.250000,     -999.2500
     588.86750,       74.2746,        1.4950,   -999.250000,     -999.2500
     589.01990,       71.2914,        1.4789,   -999.250000,     -999.2500
     589.17230,       71.9846,        1.4746,   -999.250000,     -999.2500
     589.32470,       75.1103,        1.4862,   -999.250000,     -999.2500
     589.47710,       78.0398,        1.4631,   -999.250000,     -999.2500
     589.62950,       79.5805,        1.4560,   -999.250000,     -999.2500
     589.78190,       79.8578,        1.4669,   -999.250000,     -999.2500
     589.93430,       79.8314,        1.4651,   -999.250000,     -999.2500
     590.08670,       78.6981,        1.4672,   -999.250000,     -999.2500
     590.23910,       75.9456,        1.4724,   -999.250000,     -999.2500
     590.39150,       74.7015,        1.4854,   -999.250000,     -999.2500
     590.54390,       77.2462,        1.4737,   -999.250000,     -999.2500
     590.69630,       80.3656,        1.5233,   -999.250000,     -999.2500
