~Version
VERS  .             3.0                                 : CWLS LOG ASCII STANDARD - VERSION 3.0
WRAP  .             NO                                  : One line per depth step
DLM   .             COMMA                               : Delimiter character between data columns
#Delimiting character ( SPACE TAB OR COMMA ).

~Well
#MNEM.UNIT          DATA                                DESCRIPTION
#----- ----        -----------------                   -----------
STRT  .M                  3.80390                       : FIRST INDEX VALUE
STOP  .M               1582.21070                       : LAST INDEX VALUE
STEP  .M                  0.15240                       : STEP OF INDEX
NULL  .             -999.25                             : NULL VALUE
COMP  .                                                 : COMPANY
WELL  .             FURUD                               : WELL
FLD   .                                                 : FIELD
LOC   .                                                 : LOCATION
SRVC  .                                                 : SERVICE COMPANY
CTRY  .                                                 : COUNTRY
PROV  .                                                 : PROVINCE
UWI   .                                                 : UNIQUE WELL ID
LIC   .                                                 : LICENSE NUMBER
STAT  .                                                 : STATE
CNTY  .                                                 : COUNTY
API   .                                                 : API NUMBER
DATE  .                                                 : LOG DATE
X     .             653771.9542756                      : X OR EAST-WEST COORDINATE
Y     .             8157280.499579                      : Y OR NORTH-SOUTH COORDINATE
HZCS  .                                                 : HORIZONTAL CO-ORDINATE SYSTEM
LATI  .             -16.66194444444                     : LATITUDE
LONG  .             154.4419444444                      : LONGITUDE
GDAT  .                                                 : GEODETIC DATUM

~DEVIATION_PARAMETER 
#MNEM.UNIT                    VALUE                        DESCRIPTION
#--------------- ---         ------------                 -----------------

~DEVIATION_DEFINITION 
#MNEM.UNIT                 LOG CODE                  CURVE DESCRIPTION
#----------- ----         ------------              -----------------
DEPTH       .M                                      :     {F}
AZIMUTH     .DEG                                    :     {F}
DEVIATION   .DEG                                    : 90-DIP    {F}

~DEVIATION_DATA | DEVIATION_DEFINITION
      343.0000,       89.5000,        0.5000
      495.0000,       89.7500,        0.2500
      645.0000,       89.5000,        0.5000
      800.0000,       89.2500,        0.7500
      950.0000,       88.7500,        1.2500
     1053.0000,       89.0000,        1.0000
     1201.0000,       89.2500,        0.7500
     1353.0000,       89.5000,        0.5000
     1577.0000,       88.7500,        1.2500

~TOPS_PARAMETER 
#MNEM.UNIT                    VALUE                        DESCRIPTION
#--------------- ---         ------------                 -----------------

~TOPS_DEFINITION 
#MNEM.UNIT                 LOG CODE                  CURVE DESCRIPTION
#----------- ----         ------------              -----------------
DEPTH       .M                                      :     {F}
TOPS        .                                       : Formation Tops    {S24}

~TOPS_DATA | TOPS_DEFINITION
        5.6000,Doyles Creek Subgroup   
      427.1711,Horseshoe Creek Subgroup
      490.4921,Apple Tree Flat Subgroup
      737.0000,Watts Sandstone         
      746.0000,Denman Fm               
      867.1244,Mt Leonard Fm           
      996.0000,Althorpe Fm             
     1003.0000,Malabar Fm              
     1049.2716,Mt Ogilvie Fm           
     1098.2854,Milbrodale Fm           
     1154.9063,Mt Thorley Fm           
     1205.0000,Burnamwood Fm           
     1292.5000,Archerfield Sandstone   
     1322.5000,Mulbring Siltstone      
     1398.5875,Muree Sandstone         
     1506.0000,Branxton Fm             
     1546.0000,Greta Coal Measures     
     1569.7129,Dalwood Group           
     1583.5793,                        

~PARAMETER 
#MNEM.UNIT                    VALUE                        DESCRIPTION
#--------------- ---         ------------                 -----------------

~CURVE 
#MNEM.UNIT                 LOG CODE                  CURVE DESCRIPTION
#----------- ----         ------------              -----------------
DEPTH       .M                                      :     {F}
GR          .GAPI         310010                    : GR_1 (Cleared: Bottom)    {F}
LLD         .OHMM         220100                    :     {F}
NPHI        .V/V          890000                    :     {F}
RHOB        .K/M3         350020                    : Offset applied to log data.    {F}

~ASCII | CURVE 
# ...
    1112.66630,       71.1334,        9.7643,      0.242446,     2257.8240
    1112.81870,       69.6764,       11.5476,      0.227598,     2275.9240
    1112.97110,       71.0315,       11.7021,      0.231482,     2338.8230
    1113.12350,       61.7632,       11.7863,      0.234109,     2343.2230
    1113.27590,       58.5363,       10.5195,      0.248505,     2292.3230
    1113.42830,       56.5300,        9.2817,      0.246434,     2273.7240
    1113.58070,       52.9917,        9.3000,      0.236445,     2305.7240
    1113.73310,       50.2955,       10.5037,      0.212187,     2339.4240
    1113.88550,       49.9105,       12.9194,      0.198257,     2362.3240
    1114.03790,       55.2336,       13.4370,      0.199516,     2373.0240
    1114.19030,       55.4511,       13.3765,      0.218795,     2364.1240
    1114.34270,       56.2859,       11.6536,      0.221769,     2336.7230
    1114.49510,       58.8376,        9.5213,      0.227116,     2310.0230
    1114.64750,       59.3354,       10.4099,      0.199596,     2293.2240
    1114.79990,       59.8539,       13.4455,      0.192242,     2316.2240
    1114.95230,       59.8915,       14.6528,      0.183647,     2351.3230
    1115.10470,       62.8767,       16.2827,      0.219128,     2383.5240
    1115.25710,       60.7798,       13.9677,      0.242821,     2400.5240
    1115.40950,       57.0813,       10.6766,      0.255139,     2315.7240
    1115.56190,       53.2008,        9.7410,      0.249938,     2258.3230
    1115.71430,       50.7535,        9.3089,      0.244851,     2257.0230
    1115.86670,       49.3528,        9.3267,      0.238873,     2284.1240
    1116.01910,       50.7695,        9.8241,      0.232183,     2311.2240
    1116.17150,       55.5658,       10.5884,      0.228116,     2333.3240
    1116.32390,       62.8984,       12.2034,      0.220857,     2354.6240
    1116.47630,       65.1164,       12.6278,      0.212929,     2355.2240
    1116.62870,       61.0749,       11.5327,      0.205132,     2355.3230
    1116.78110,       52.5822,       10.9109,      0.213247,     2356.2240
    1116.93350,       49.0426,       10.0529,      0.225088,     2332.9240
    1117.08590,       48.5091,        9.4229,      0.232816,     2282.1240
    1117.23830,       48.1703,        9.4364,      0.228827,     2262.5240
    1117.39070,       48.4063,        9.4175,      0.220624,     2281.5240
    1117.54310,       50.9585,        9.3903,      0.238296,     2283.1240
    1117.69550,       55.4947,        9.1149,      0.257375,     2283.5230
    1117.84790,       56.4971,        8.6204,      0.279293,     2306.3230
    1118.00030,       61.7509,        8.3415,      0.270316,     2323.9240
    1118.15270,       70.0728,        8.1810,      0.279043,     2336.5230
    1118.30510,       80.9423,        7.6524,      0.240280,     2399.9240
    1118.45750,       85.7472,        7.5914,      0.202856,     2449.2240
    1118.60990,       81.7792,        8.4150,      0.148202,     2512.2240
    1118.76230,       74.2900,        8.4883,      0.171236,     2494.5240
    1118.91470,       73.1871,        8.1605,      0.216360,     2509.4240
    1119.06710,       79.7423,        8.0610,      0.251603,     2511.5240
    1119.21950,       85.8855,        7.2357,      0.267623,     2509.6240
    1119.37190,       89.9063,        6.2584,      0.277382,     2509.4240
    1119.52430,       93.2392,        5.3971,      0.287273,     2495.6240
    1119.67670,       95.8377,        4.9167,      0.288540,     2462.8230
    1119.82910,       96.1253,        4.5480,      0.277774,     2437.3230
    1119.98150,       94.8610,        4.8519,      0.270768,     2411.8240
    1120.13390,       89.6291,        5.5648,      0.286438,     2380.7240
    1120.28630,       88.1763,        5.6962,      0.303206,     2355.6240
    1120.43870,       91.8250,        5.8622,      0.302211,     2349.8240
    1120.59110,       96.5729,        5.2551,      0.307861,     2372.9240
    1120.74350,      105.9030,        4.6161,      0.309964,     2400.2240
    1120.89590,      108.8470,        4.2891,      0.288304,     2429.2230
    1121.04830,       99.9889,        4.4289,      0.281699,     2439.3230
    1121.20070,       87.5114,        4.8165,      0.282747,     2450.3230
    1121.35310,       80.2827,        5.3015,      0.311359,     2421.9240
    1121.50550,       89.0220,        5.5672,      0.301619,     2409.4240
    1121.65790,       91.6057,        5.3022,      0.298622,     2391.5230
    1121.81030,      100.7830,        4.8170,      0.282609,     2394.4240
    1121.96270,       95.8678,        4.4241,      0.302533,     2404.9240
    1122.11510,       98.1222,        4.2432,      0.307132,     2417.8230
    1122.26750,       94.2635,        4.1852,      0.313599,     2426.2240
    1122.41990,      102.1580,        4.2519,      0.301249,     2423.6240
    1122.57230,      106.1280,        4.3199,      0.299878,     2424.1240
    1122.72470,      110.0420,        4.3293,      0.298717,     2427.9240
    1122.87710,      105.4540,        4.5501,      0.294609,     2447.7240
    1123.02950,      105.6050,        4.6264,      0.292999,     2466.9240
    1123.18190,      108.3170,        4.6586,      0.299250,     2462.4240
    1123.33430,      108.3210,        4.6344,      0.309331,     2428.7230
    1123.48670,      105.2490,        4.6316,      0.312431,     2411.5230
    1123.63910,      105.0140,        4.5688,      0.318410,     2413.7240
    1123.79150,      102.6540,        4.6085,      0.321077,     2415.5230
    1123.94390,      101.3410,        4.8230,      0.328758,     2414.3230
    1124.09630,      100.7760,        5.2095,      0.325049,     2408.9240
    1124.24870,       96.3950,        5.7098,      0.307903,     2403.0240
    1124.40110,       96.3322,        6.2196,      0.292624,     2398.6240
    1124.55350,       90.3361,        6.6268,      0.279084,     2392.3240
    1124.70590,       83.6882,        7.0869,      0.258378,     2380.6240
    1124.85830,       78.7657,        6.9894,      0.257258,     2369.9240
    1125.01070,       68.5847,        6.6307,      0.241092,     2354.3230
    1125.16310,       64.8917,        6.3824,      0.239081,     2333.0230
    1125.31550,       60.5495,        6.1684,      0.224379,     2294.4240
    1125.46790,       61.8045,        6.0611,      0.221931,     2269.8230
    1125.62030,       66.4349,        6.3877,      0.232128,     2282.2240
    1125.77270,       71.9253,        6.9410,      0.248494,     2325.3230
    1125.92510,       77.5174,        6.7511,      0.267600,     2367.9240
    1126.07750,       80.8444,        6.6967,      0.269026,     2361.6240
    1126.22990,       84.0196,        6.6442,      0.269667,     2363.6240
    1126.38230,       90.2024,        6.7815,      0.280555,     2373.1240
    1126.53470,       96.7814,        7.2334,      0.311715,     2391.8230
    1126.68710,       99.4127,        7.4291,      0.316821,     2384.8230
    1126.83950,       96.7927,        7.4294,      0.305537,     2368.9240
    1126.99190,       96.8493,        7.2301,      0.289268,     2368.3230
    1127.14430,       98.0030,        6.9447,      0.280833,     2376.6240
    1127.29670,       96.9571,        6.9989,      0.283448,     2390.6240
    1127.44910,       98.6511,        6.8585,      0.299294,     2394.7240
    1127.60150,      101.5430,        6.9307,      0.298148,     2398.1240
    1127.75390,      105.3820,        7.1088,      0.317220,     2371.5230
    1127.90630,      108.0690,        6.9188,      0.306448,     2377.9240
    1128.05870,      106.6150,        6.8758,      0.293864,     2378.6240
    1128.21110,      100.7950,        6.9653,      0.288559,     2378.6240
    1128.36350,       90.0502,        6.7136,      0.287857,     2378.6240
    1128.51590,       92.9006,        6.6678,      0.304561,     2377.0240
    1128.66830,       99.6233,        6.7885,      0.296565,     2375.3230
    1128.82070,      107.7850,        6.6999,      0.307994,     2372.4240
