~Version
VERS  .             3.0                                 : CWLS LOG ASCII STANDARD - VERSION 3.0
WRAP  .             NO                                  : One line per depth step
DLM   .             COMMA                               : Delimiter character between data columns
#Delimiting character ( SPACE TAB OR COMMA ).

~Well
#MNEM.UNIT          DATA                                DESCRIPTION
#----- ----        -----------------                   -----------
STRT  .M                  3.80390                       : FIRST INDEX VALUE
STOP  .M               1582.21070                       : LAST INDEX VALUE
STEP  .M                  0.15240                       : STEP OF INDEX
NULL  .             -999.25                             : NULL VALUE
COMP  .                                                 : COMPANY
WELL  .             FURUD                               : WELL
FLD   .                                                 : FIELD
LOC   .                                                 : LOCATION
SRVC  .                                                 : SERVICE COMPANY
CTRY  .                                                 : COUNTRY
PROV  .                                                 : PROVINCE
UWI   .                                                 : UNIQUE WELL ID
LIC   .                                                 : LICENSE NUMBER
STAT  .                                                 : STATE
CNTY  .                                                 : COUNTY
API   .                                                 : API NUMBER
DATE  .                                                 : LOG DATE
X     .             653771.9542756                      : X OR EAST-WEST COORDINATE
Y     .             8157280.499579                      : Y OR NORTH-SOUTH COORDINATE
HZCS  .                                                 : HORIZONTAL CO-ORDINATE SYSTEM
LATI  .             -16.66194444444                     : LATITUDE
LONG  .             154.4419444444                      : LONGITUDE
GDAT  .                                                 : GEODETIC DATUM

~DEVIATION_PARAMETER 
#MNEM.UNIT                    VALUE                        DESCRIPTION
#--------------- ---         ------------                 -----------------

~DEVIATION_DEFINITION 
#MNEM.UNIT                 LOG CODE                  CURVE DESCRIPTION
#----------- ----         ------------              -----------------
DEPTH       .M                                      :     {F}
AZIMUTH     .DEG                                    :     {F}
DEVIATION   .DEG                                    : 90-DIP    {F}

~DEVIATION_DATA | DEVIATION_DEFINITION
      343.0000,       89.5000,        0.5000
      495.0000,       89.7500,        0.2500
      645.0000,       89.5000,        0.5000
      800.0000,       89.2500,        0.7500
      950.0000,       88.7500,        1.2500
     1053.0000,       89.0000,        1.0000
     1201.0000,       89.2500,        0.7500
     1353.0000,       89.5000,        0.5000
     1577.0000,       88.7500,        1.2500

~TOPS_PARAMETER 
#MNEM.UNIT                    VALUE                        DESCRIPTION
#--------------- ---         ------------                 -----------------

~TOPS_DEFINITION 
#MNEM.UNIT                 LOG CODE                  CURVE DESCRIPTION
#----------- ----         ------------              -----------------
DEPTH       .M                                      :     {F}
TOPS        .                                       : Formation Tops    {S24}

~TOPS_DATA | TOPS_DEFINITION
        5.6000,Doyles Creek Subgroup   
      427.1711,Horseshoe Creek Subgroup
      490.4921,Apple Tree Flat Subgroup
      737.0000,Watts Sandstone         
      746.0000,Denman Fm               
      867.1244,Mt Leonard Fm           
      996.0000,Althorpe Fm             
     1003.0000,Malabar Fm              
     1049.2716,Mt Ogilvie Fm           
     1098.2854,Milbrodale Fm           
     1154.9063,Mt Thorley Fm           
     1205.0000,Burnamwood Fm           
     1292.5000,Archerfield Sandstone   
     1322.5000,Mulbring Siltstone      
     1398.5875,Muree Sandstone         
     1506.0000,Branxton Fm             
     1546.0000,Greta Coal Measures     
     1569.7129,Dalwood Group           
     1583.5793,                        

~PARAMETER 
#MNEM.UNIT                    VALUE                        DESCRIPTION
#--------------- ---         ------------                 -----------------

~CURVE 
#MNEM.UNIT                 LOG CODE                  CURVE DESCRIPTION
#----------- ----         ------------              -----------------
DEPTH       .M                                      :     {F}
GR          .GAPI         310010                    : GR_1 (Cleared: Bottom)    {F}
LLD         .OHMM         220100                    :     {F}
NPHI        .V/V          890000                    :     {F}
RHOB        .K/M3         350020                    : Offset applied to log data.    {F}

~ASCII | CURVE 
# ...
     753.91670,       73.5152,        2.7376,   -999.250000,     -999.2500
     754.06910,       73.9793,        2.7734,   -999.250000,     -999.2500
     754.22150,       77.6626,        2.5023,   -999.250000,     -999.2500
     754.37390,       79.5038,        2.3862,   -999.250000,     -999.2500
     754.52630,       75.4096,        2.1872,   -999.250000,     -999.2500
     754.67870,       73.0654,        2.2154,   -999.250000,     -999.2500
     754.83110,       68.9005,        2.3295,   -999.250000,     -999.2500
     754.98350,       73.9000,        2.3168,   -999.250000,     -999.2500
     755.13590,       74.1577,        2.3165,   -999.250000,     -999.2500
     755.28830,       76.4570,        2.2522,   -999.250000,     -999.2500
     755.44070,       82.2007,        2.1236,   -999.250000,     -999.2500
     755.59310,       78.8112,        2.0831,   -999.250000,     -999.2500
     755.74550,       79.2486,        2.1346,   -999.250000,     -999.2500
     755.89790,       72.6633,        2.0890,   -999.250000,     -999.2500
     756.05030,       81.1346,        2.0598,   -999.250000,     -999.2500
     756.20270,       83.5400,        2.0373,   -999.250000,     -999.2500
     756.35510,       86.3134,        1.9866,   -999.250000,     -999.2500
     756.50750,       80.1719,        1.9506,   -999.250000,     -999.2500
     756.65990,       78.3895,        2.0016,   -999.250000,     -999.2500
     756.81230,       76.1785,        2.0831,   -999.250000,     -999.2500
     756.96470,       79.0047,        2.1452,   -999.250000,     -999.2500
     757.11710,       77.3142,        2.2790,   -999.250000,     -999.2500
     757.26950,       77.7227,        2.3338,   -999.250000,     -999.2500
     757.42190,       76.9891,        2.2822,   -999.250000,     -999.2500
     757.57430,       78.6410,        2.1497,   -999.250000,     -999.2500
     757.72670,       75.2197,        1.9905,   -999.250000,     -999.2500
     757.87910,       74.1908,        2.0245,   -999.250000,     -999.2500
     758.03150,       76.4232,        2.1953,   -999.250000,     -999.2500
     758.18390,       76.2512,        2.4721,   -999.250000,     -999.2500
     758.33630,       79.6151,        2.8046,   -999.250000,     -999.2500
     758.48870,       74.1406,        2.8969,   -999.250000,     -999.2500
     758.64110,       75.5023,        2.7178,   -999.250000,     -999.2500
     758.79350,       74.9369,        2.4915,   -999.250000,     -999.2500
     758.94590,       81.4397,        2.4017,   -999.250000,     -999.2500
     759.09830,       82.9743,        2.6011,   -999.250000,     -999.2500
     759.25070,       76.2116,        2.9214,   -999.250000,     -999.2500
     759.40310,       71.6615,        3.4083,   -999.250000,     -999.2500
     759.55550,       65.2690,        3.6695,   -999.250000,     -999.2500
     759.70790,       65.6135,        3.4802,   -999.250000,     -999.2500
     759.86030,       66.0326,        3.0016,   -999.250000,     -999.2500
     760.01270,       68.9321,        2.6249,   -999.250000,     -999.2500
     760.16510,       74.4212,        2.3007,   -999.250000,     -999.2500
     760.31750,       76.5776,        2.1998,   -999.250000,     -999.2500
     760.46990,       81.4375,        2.1416,   -999.250000,     -999.2500
     760.62230,       79.4153,        2.2199,   -999.250000,     -999.2500
     760.77470,       77.5959,        2.2975,   -999.250000,     -999.2500
     760.92710,       80.0695,        2.2377,   -999.250000,     -999.2500
     761.07950,       81.6729,        2.2085,   -999.250000,     -999.2500
     761.23190,       79.8729,        2.1863,   -999.250000,     -999.2500
     761.38430,       76.0651,        2.1717,   -999.250000,     -999.2500
     761.53670,       76.5063,        2.2836,   -999.250000,     -999.2500
     761.68910,       78.0032,        2.2046,   -999.250000,     -999.2500
     761.84150,       77.2717,        2.1620,   -999.250000,     -999.2500
     761.99390,       77.1046,        2.0855,   -999.250000,     -999.2500
     762.14630,       79.4269,        2.0709,   -999.250000,     -999.2500
     762.29870,       79.5924,        2.0181,   -999.250000,     -999.2500
     762.45110,       81.6259,        1.9835,   -999.250000,     -999.2500
     762.60350,       81.8404,        1.9725,   -999.250000,     -999.2500
     762.75590,       79.9383,        1.9759,   -999.250000,     -999.2500
     762.90830,       76.1602,        2.0171,   -999.250000,     -999.2500
     763.06070,       74.7320,        2.0097,   -999.250000,     -999.2500
     763.21310,       71.0194,        1.9803,   -999.250000,     -999.2500
     763.36550,       72.6196,        1.9805,   -999.250000,     -999.2500
     763.51790,       71.8847,        1.9631,   -999.250000,     -999.2500
     763.67030,       74.7173,        1.9363,   -999.250000,     -999.2500
     763.82270,       70.5860,        2.0257,   -999.250000,     -999.2500
     763.97510,       67.4128,        2.0847,   -999.250000,     -999.2500
     764.12750,       63.7376,        2.2149,   -999.250000,     -999.2500
     764.27990,       65.4274,        2.3408,   -999.250000,     -999.2500
     764.43230,       64.6582,        2.3803,   -999.250000,     -999.2500
     764.58470,       72.7469,        2.3976,   -999.250000,     -999.2500
     764.73710,       69.3515,        2.4707,   -999.250000,     -999.2500
     764.88950,       72.1520,        2.5865,   -999.250000,     -999.2500
     765.04190,       68.1132,        2.5521,   -999.250000,     -999.2500
     765.19430,       74.6383,        2.4956,   -999.250000,     -999.2500
     765.34670,       77.2263,        2.3266,   -999.250000,     -999.2500
     765.49910,       76.6525,        2.1235,   -999.250000,     -999.2500
     765.65150,       77.0269,        2.0098,   -999.250000,     -999.2500
     765.80390,       75.6637,        1.9920,   -999.250000,     -999.2500
     765.95630,       79.1272,        2.0014,   -999.250000,     -999.2500
     766.10870,       74.6947,        2.0384,   -999.250000,     -999.2500
     766.26110,       77.6482,        2.0267,   -999.250000,     -999.2500
     766.41350,       77.5729,        1.9506,   -999.250000,     -999.2500
     766.56590,       81.7059,        1.9194,   -999.250000,     -999.2500
     766.71830,       79.4994,        1.8947,   -999.250000,     -999.2500
     766.87070,       78.6841,        1.8304,   -999.250000,     -999.2500
     767.02310,       80.9196,        1.8367,   -999.250000,     -999.2500
     767.17550,       84.3476,        1.8351,   -999.250000,     -999.2500
     767.32790,       85.4333,        1.7946,   -999.250000,     -999.2500
     767.48030,       83.2110,        1.7966,   -999.250000,     -999.2500
     767.63270,       80.1362,        1.8259,   -999.250000,     -999.2500
     767.78510,       78.7293,        1.8331,   -999.250000,     -999.2500
     767.93750,       78.7361,        1.8211,   -999.250000,     -999.2500
     768.08990,       81.8889,        1.8266,   -999.250000,     -999.2500
     768.24230,       85.1136,        1.8135,   -999.250000,     -999.2500
     768.39470,       82.8529,        1.7742,   -999.250000,     -999.2500
     768.54710,       80.5346,        1.7722,   -999.250000,     -999.2500
     768.69950,       74.3780,        1.7930,   -999.250000,     -999.2500
     768.85190,       77.9554,        1.9208,   -999.250000,     -999.2500
     769.00430,       78.8794,        2.1431,   -999.250000,     -999.2500
     769.15670,       80.6465,        2.2127,   -999.250000,     -999.2500
     769.30910,       73.8396,        2.2225,   -999.250000,     -999.2500
     769.46150,       73.3845,        2.1691,   -999.250000,     -999.2500
     769.61390,       77.4104,        1.9875,   -999.250000,     -999.2500
     769.76630,       80.0024,        1.9964,   -999.250000,     -999.2500
     769.91870,       85.0848,        2.0198,   -999.250000,     -999.2500
     770.07110,       84.9031,        2.0719,   -999.250000,     -999.2500
