~Version
VERS  .             3.0                                 : CWLS LOG ASCII STANDARD - VERSION 3.0
WRAP  .             NO                                  : One line per depth step
DLM   .             COMMA                               : Delimiter character between data columns
#Delimiting character ( SPACE TAB OR COMMA ).

~Well
#MNEM.UNIT          DATA                                DESCRIPTION
#----- ----        -----------------                   -----------
STRT  .M                  3.80390                       : FIRST INDEX VALUE
STOP  .M               1582.21070                       : LAST INDEX VALUE
STEP  .M                  0.15240                       : STEP OF INDEX
NULL  .             -999.25                             : NULL VALUE
COMP  .                                                 : COMPANY
WELL  .             FURUD                               : WELL
FLD   .                                                 : FIELD
LOC   .                                                 : LOCATION
SRVC  .                                                 : SERVICE COMPANY
CTRY  .                                                 : COUNTRY
PROV  .                                                 : PROVINCE
UWI   .                                                 : UNIQUE WELL ID
LIC   .                                                 : LICENSE NUMBER
STAT  .                                                 : STATE
CNTY  .                                                 : COUNTY
API   .                                                 : API NUMBER
DATE  .                                                 : LOG DATE
X     .             653771.9542756                      : X OR EAST-WEST COORDINATE
Y     .             8157280.499579                      : Y OR NORTH-SOUTH COORDINATE
HZCS  .                                                 : HORIZONTAL CO-ORDINATE SYSTEM
LATI  .             -16.66194444444                     : LATITUDE
LONG  .             154.4419444444                      : LONGITUDE
GDAT  .                                                 : GEODETIC DATUM

~DEVIATION_PARAMETER 
#MNEM.UNIT                    VALUE                        DESCRIPTION
#--------------- ---         ------------                 -----------------

~DEVIATION_DEFINITION 
#MNEM.UNIT                 LOG CODE                  CURVE DESCRIPTION
#----------- ----         ------------              -----------------
DEPTH       .M                                      :     {F}
AZIMUTH     .DEG                                    :     {F}
DEVIATION   .DEG                                    : 90-DIP    {F}

~DEVIATION_DATA | DEVIATION_DEFINITION
      343.0000,       89.5000,        0.5000
      495.0000,       89.7500,        0.2500
      645.0000,       89.5000,        0.5000
      800.0000,       89.2500,        0.7500
      950.0000,       88.7500,        1.2500
     1053.0000,       89.0000,        1.0000
     1201.0000,       89.2500,        0.7500
     1353.0000,       89.5000,        0.5000
     1577.0000,       88.7500,        1.2500

~TOPS_PARAMETER 
#MNEM.UNIT                    VALUE                        DESCRIPTION
#--------------- ---         ------------                 -----------------

~TOPS_DEFINITION 
#MNEM.UNIT                 LOG CODE                  CURVE DESCRIPTION
#----------- ----         ------------              -----------------
DEPTH       .M                                      :     {F}
TOPS        .                                       : Formation Tops    {S24}

~TOPS_DATA | TOPS_DEFINITION
        5.6000,Doyles Creek Subgroup   
      427.1711,Horseshoe Creek Subgroup
      490.4921,Apple Tree Flat Subgroup
      737.0000,Watts Sandstone         
      746.0000,Denman Fm               
      867.1244,Mt Leonard Fm           
      996.0000,Althorpe Fm             
     1003.0000,Malabar Fm              
     1049.2716,Mt Ogilvie Fm           
     1098.2854,Milbrodale Fm           
     1154.9063,Mt Thorley Fm           
     1205.0000,Burnamwood Fm           
     1292.5000,Archerfield Sandstone   
     1322.5000,Mulbring Siltstone      
     1398.5875,Muree Sandstone         
     1506.0000,Branxton Fm             
     1546.0000,Greta Coal Measures     
     1569.7129,Dalwood Group           
     1583.5793,                        

~PARAMETER 
#MNEM.UNIT                    VALUE                        DESCRIPTION
#--------------- ---         ------------                 -----------------

~CURVE 
#MNEM.UNIT                 LOG CODE                  CURVE DESCRIPTION
#----------- ----         ------------              -----------------
DEPTH       .M                                      :     {F}
GR          .GAPI         310010                    : GR_1 (Cleared: Bottom)    {F}
LLD         .OHMM         220100                    :     {F}
NPHI        .V/V          890000                    :     {F}
RHOB        .K/M3         350020                    : Offset applied to log data.    {F}

~ASCII | CURVE 
# ...
     395.16710,       65.4576,        1.8876,   -999.250000,     -999.2500
     395.31950,       66.8289,        1.8361,   -999.250000,     -999.2500
     395.47190,       69.7942,        1.7594,   -999.250000,     -999.2500
     395.62430,       69.5424,        1.7255,   -999.250000,     -999.2500
     395.77670,       68.0910,        1.7478,   -999.250000,     -999.2500
     395.92910,       66.1202,        1.7654,   -999.250000,     -999.2500
     396.08150,       59.4650,        1.8354,   -999.250000,     -999.2500
     396.23390,       61.9570,        1.8807,   -999.250000,     -999.2500
     396.38630,       63.5309,        1.8804,   -999.250000,     -999.2500
     396.53870,       62.8069,        1.8643,   -999.250000,     -999.2500
     396.69110,       65.1124,        1.8296,   -999.250000,     -999.2500
     396.84350,       66.2868,        1.8762,   -999.250000,     -999.2500
     396.99590,       71.7366,        1.9138,   -999.250000,     -999.2500
     397.14830,       77.6225,        1.9446,   -999.250000,     -999.2500
     397.30070,       75.4476,        2.0535,   -999.250000,     -999.2500
     397.45310,       72.4752,        2.1130,   -999.250000,     -999.2500
     397.60550,       73.6604,        2.2058,   -999.250000,     -999.2500
     397.75790,       72.2149,        2.2238,   -999.250000,     -999.2500
     397.91030,       69.2370,        2.2174,   -999.250000,     -999.2500
     398.06270,       63.5249,        2.1485,   -999.250000,     -999.2500
     398.21510,       65.2094,        2.1122,   -999.250000,     -999.2500
     398.36750,       64.9697,        2.0914,   -999.250000,     -999.2500
     398.51990,       69.6937,        2.0760,   -999.250000,     -999.2500
     398.67230,       73.0188,        2.0843,   -999.250000,     -999.2500
     398.82470,       72.0967,        2.0840,   -999.250000,     -999.2500
     398.97710,       67.0935,        2.0923,   -999.250000,     -999.2500
     399.12950,       61.6484,        2.0368,   -999.250000,     -999.2500
     399.28190,       64.3940,        2.0217,   -999.250000,     -999.2500
     399.43430,       67.1334,        2.0206,   -999.250000,     -999.2500
     399.58670,       75.3539,        2.0107,   -999.250000,     -999.2500
     399.73910,       72.0390,        1.9941,   -999.250000,     -999.2500
     399.89150,       70.6762,        2.0258,   -999.250000,     -999.2500
     400.04390,       66.4669,        2.0098,   -999.250000,     -999.2500
     400.19630,       67.0446,        2.0017,   -999.250000,     -999.2500
     400.34870,       68.3033,        2.0159,   -999.250000,     -999.2500
     400.50110,       67.6317,        1.9977,   -999.250000,     -999.2500
     400.65350,       65.8477,        2.0116,   -999.250000,     -999.2500
     400.80590,       66.4710,        2.0061,   -999.250000,     -999.2500
     400.95830,       66.8810,        1.9789,   -999.250000,     -999.2500
     401.11070,       68.3002,        2.0169,   -999.250000,     -999.2500
     401.26310,       64.2392,        2.0342,   -999.250000,     -999.2500
     401.41550,       62.5106,        2.0601,   -999.250000,     -999.2500
     401.56790,       66.1001,        2.1343,   -999.250000,     -999.2500
     401.72030,       68.0879,        2.1881,   -999.250000,     -999.2500
     401.87270,       67.4926,        2.2014,   -999.250000,     -999.2500
     402.02510,       65.0082,        2.2545,   -999.250000,     -999.2500
     402.17750,       65.7199,        2.4176,   -999.250000,     -999.2500
     402.32990,       70.2453,        2.4573,   -999.250000,     -999.2500
     402.48230,       75.8699,        2.3654,   -999.250000,     -999.2500
     402.63470,       72.9952,        2.3291,   -999.250000,     -999.2500
     402.78710,       70.6934,        2.1643,   -999.250000,     -999.2500
     402.93950,       64.5550,        2.2151,   -999.250000,     -999.2500
     403.09190,       60.9125,        2.9302,   -999.250000,     -999.2500
     403.24430,       54.9879,        4.4328,   -999.250000,     -999.2500
     403.39670,       52.0379,        7.6407,   -999.250000,     -999.2500
     403.54910,       53.8740,        9.3236,   -999.250000,     -999.2500
     403.70150,       57.9164,        5.8727,   -999.250000,     -999.2500
     403.85390,       62.8737,        3.4567,   -999.250000,     -999.2500
     404.00630,       63.9074,        2.4794,   -999.250000,     -999.2500
     404.15870,       60.6615,        2.1616,   -999.250000,     -999.2500
     404.31110,       54.9279,        2.3038,   -999.250000,     -999.2500
     404.46350,       56.4302,        2.4057,   -999.250000,     -999.2500
     404.61590,       57.6569,        2.4467,   -999.250000,     -999.2500
     404.76830,       63.0361,        2.4227,   -999.250000,     -999.2500
     404.92070,       66.2261,        2.3630,   -999.250000,     -999.2500
     405.07310,       69.8112,        2.3240,   -999.250000,     -999.2500
     405.22550,       68.7509,        2.3378,   -999.250000,     -999.2500
     405.37790,       65.1451,        2.3504,   -999.250000,     -999.2500
     405.53030,       66.9877,        2.3770,   -999.250000,     -999.2500
     405.68270,       68.5119,        2.3091,   -999.250000,     -999.2500
     405.83510,       65.9167,        2.2854,   -999.250000,     -999.2500
     405.98750,       60.4075,        2.1805,   -999.250000,     -999.2500
     406.13990,       59.4204,        2.1221,   -999.250000,     -999.2500
     406.29230,       61.9282,        2.1663,   -999.250000,     -999.2500
     406.44470,       67.0683,        2.1951,   -999.250000,     -999.2500
     406.59710,       63.6909,        2.2307,   -999.250000,     -999.2500
     406.74950,       64.2797,        2.1558,   -999.250000,     -999.2500
     406.90190,       64.6851,        2.0586,   -999.250000,     -999.2500
     407.05430,       69.4278,        1.9906,   -999.250000,     -999.2500
     407.20670,       71.7358,        1.9964,   -999.250000,     -999.2500
     407.35910,       69.6096,        1.9903,   -999.250000,     -999.2500
     407.51150,       69.4339,        2.0087,   -999.250000,     -999.2500
     407.66390,       65.3166,        1.8966,   -999.250000,     -999.2500
     407.81630,       68.2203,        1.8334,   -999.250000,     -999.2500
     407.96870,       68.3331,        1.8424,   -999.250000,     -999.2500
     408.12110,       73.1646,        1.9075,   -999.250000,     -999.2500
     408.27350,       71.2829,        1.9693,   -999.250000,     -999.2500
     408.42590,       70.7040,        1.9882,   -999.250000,     -999.2500
     408.57830,       74.0296,        1.9436,   -999.250000,     -999.2500
     408.73070,       74.6458,        1.8956,   -999.250000,     -999.2500
     408.88310,       77.1755,        1.8856,   -999.250000,     -999.2500
     409.03550,       72.6933,        1.9110,   -999.250000,     -999.2500
     409.18790,       70.4302,        1.8788,   -999.250000,     -999.2500
     409.34030,       67.6867,        1.8526,   -999.250000,     -999.2500
     409.49270,       71.0537,        1.8360,   -999.250000,     -999.2500
     409.64510,       77.3642,        1.8066,   -999.250000,     -999.2500
     409.79750,       83.7766,        1.8621,   -999.250000,     -999.2500
     409.94990,       81.0585,        1.9314,   -999.250000,     -999.2500
     410.10230,       75.4045,        2.0522,   -999.250000,     -999.2500
     410.25470,       68.1994,        2.1094,   -999.250000,     -999.2500
     410.40710,       70.6815,        2.1626,   -999.250000,     -999.2500
     410.55950,       71.2838,        2.1636,   -999.250000,     -999.2500
     410.71190,       70.8426,        2.1909,   -999.250000,     -999.2500
     410.86430,       63.7095,        2.3035,   -999.250000,     -999.2500
     411.01670,       60.5293,        2.5016,   -999.250000,     -999.2500
     411.16910,       59.4170,        2.6973,   -999.250000,     -999.2500
     411.32150,       59.0964,        2.7137,   -999.250000,     -999.2500
