~Version
VERS  .             3.0                                 : CWLS LOG ASCII STANDARD - VERSION 3.0
WRAP  .             NO                                  : One line per depth step
DLM   .             COMMA                               : Delimiter character between data columns
#Delimiting character ( SPACE TAB OR COMMA ).

~Well
#MNEM.UNIT          DATA                                DESCRIPTION
#----- ----        -----------------                   -----------
STRT  .M                  3.80390                       : FIRST INDEX VALUE
STOP  .M               1582.21070                       : LAST INDEX VALUE
STEP  .M                  0.15240                       : STEP OF INDEX
NULL  .             -999.25                             : NULL VALUE
COMP  .                                                 : COMPANY
WELL  .             FURUD                               : WELL
FLD   .                                                 : FIELD
LOC   .                                                 : LOCATION
SRVC  .                                                 : SERVICE COMPANY
CTRY  .                                                 : COUNTRY
PROV  .                                                 : PROVINCE
UWI   .                                                 : UNIQUE WELL ID
LIC   .                                                 : LICENSE NUMBER
STAT  .                                                 : STATE
CNTY  .                                                 : COUNTY
API   .                                                 : API NUMBER
DATE  .                                                 : LOG DATE
X     .             653771.9542756                      : X OR EAST-WEST COORDINATE
Y     .             8157280.499579                      : Y OR NORTH-SOUTH COORDINATE
HZCS  .                                                 : HORIZONTAL CO-ORDINATE SYSTEM
LATI  .             -16.66194444444                     : LATITUDE
LONG  .             154.4419444444                      : LONGITUDE
GDAT  .                                                 : GEODETIC DATUM

~DEVIATION_PARAMETER 
#MNEM.UNIT                    VALUE                        DESCRIPTION
#--------------- ---         ------------                 -----------------

~DEVIATION_DEFINITION 
#MNEM.UNIT                 LOG CODE                  CURVE DESCRIPTION
#----------- ----         ------------              -----------------
DEPTH       .M                                      :     {F}
AZIMUTH     .DEG                                    :     {F}
DEVIATION   .DEG                                    : 90-DIP    {F}

~DEVIATION_DATA | DEVIATION_DEFINITION
      343.0000,       89.5000,        0.5000
      495.0000,       89.7500,        0.2500
      645.0000,       89.5000,        0.5000
      800.0000,       89.2500,        0.7500
      950.0000,       88.7500,        1.2500
     1053.0000,       89.0000,        1.0000
     1201.0000,       89.2500,        0.7500
     1353.0000,       89.5000,        0.5000
     1577.0000,       88.7500,        1.2500

~TOPS_PARAMETER 
#MNEM.UNIT                    VALUE                        DESCRIPTION
#--------------- ---         ------------                 -----------------

~TOPS_DEFINITION 
#MNEM.UNIT                 LOG CODE                  CURVE DESCRIPTION
#----------- ----         ------------              -----------------
DEPTH       .M                                      :     {F}
TOPS        .                                       : Formation Tops    {S24}

~TOPS_DATA | TOPS_DEFINITION
        5.6000,Doyles Creek Subgroup   
      427.1711,Horseshoe Creek Subgroup
      490.4921,Apple Tree Flat Subgroup
      737.0000,Watts Sandstone         
      746.0000,Denman Fm               
      867.1244,Mt Leonard Fm           
      996.0000,Althorpe Fm             
     1003.0000,Malabar Fm              
     1049.2716,Mt Ogilvie Fm           
     1098.2854,Milbrodale Fm           
     1154.9063,Mt Thorley Fm           
     1205.0000,Burnamwood Fm           
     1292.5000,Archerfield Sandstone   
     1322.5000,Mulbring Siltstone      
     1398.5875,Muree Sandstone         
     1506.0000,Branxton Fm             
     1546.0000,Greta Coal Measures     
     1569.7129,Dalwood Group           
     1583.5793,                        

~PARAMETER 
#MNEM.UNIT                    VALUE                        DESCRIPTION
#--------------- ---         ------------                 -----------------

~CURVE 
#MNEM.UNIT                 LOG CODE                  CURVE DESCRIPTION
#----------- ----         ------------              -----------------
DEPTH       .M                                      :     {F}
GR          .GAPI         310010                    : GR_1 (Cleared: Bottom)    {F}
LLD         .OHMM         220100                    :     {F}
NPHI        .V/V          890000                    :     {F}
RHOB        .K/M3         350020                    : Offset applied to log data.    {F}

~ASCII | CURVE 
# ...
    1389.88190,       85.3773,       19.8639,      0.197778,     2424.7240
    1390.03430,       92.5631,       17.6410,      0.198403,     2442.0240
    1390.18670,       87.9628,       16.9642,      0.194896,     2451.2240
    1390.33910,       85.8041,       17.5160,      0.192651,     2453.4240
    1390.49150,       87.2701,       18.1589,      0.196513,     2452.3240
    1390.64390,       93.4000,       18.8051,      0.198263,     2437.8230
    1390.79630,       94.1885,       20.1117,      0.195233,     2427.6240
    1390.94870,       88.7469,       22.1220,      0.192682,     2422.7230
    1391.10110,       86.5246,       21.6836,      0.193992,     2416.7240
    1391.25350,       88.3267,       22.8272,      0.197560,     2405.2240
    1391.40590,       90.2837,       25.6701,      0.189217,     2399.3240
    1391.55830,       90.5606,       25.0998,      0.178616,     2406.0240
    1391.71070,       89.5212,       24.3597,      0.172312,     2403.7240
    1391.86310,       84.1727,       24.8498,      0.168738,     2381.8230
    1392.01550,       78.7560,       23.5537,      0.171706,     2364.0240
    1392.16790,       72.4035,       23.2425,      0.176078,     2370.4240
    1392.32030,       66.2848,       23.0584,      0.172106,     2368.6240
    1392.47270,       63.1188,       21.2614,      0.178907,     2327.3240
    1392.62510,       58.3220,       21.1925,      0.171725,     2270.3240
    1392.77750,       55.7654,       23.3498,      0.170367,     2260.3240
    1392.92990,       57.1902,       25.6293,      0.167644,     2273.7240
    1393.08230,       59.2651,       30.8477,      0.175927,     2285.3230
    1393.23470,       57.7992,       36.8075,      0.181972,     2290.7230
    1393.38710,       51.9717,       36.2695,      0.179666,     2301.4240
    1393.53950,       41.8582,       36.7701,      0.171625,     2299.3230
    1393.69190,       37.6938,       38.1034,      0.161139,     2259.5240
    1393.84430,       38.5131,       41.1052,      0.155589,     2226.7240
    1393.99670,       48.2725,       47.2546,      0.158098,     2255.3230
    1394.14910,       48.6987,       48.7436,      0.161461,     2311.6240
    1394.30150,       47.1734,       43.4219,      0.161735,     2354.3230
    1394.45390,       39.6015,       29.7153,      0.152952,     2388.6240
    1394.60630,       40.1125,       21.2131,      0.138682,     2428.4240
    1394.75870,       40.2996,       19.2212,      0.131391,     2470.9240
    1394.91110,       51.9825,       19.2009,      0.133038,     2462.6240
    1395.06350,       74.1695,       22.0429,      0.151946,     2426.0240
    1395.21590,       93.6292,       29.3255,      0.161582,     2395.5230
    1395.36830,      104.2000,       32.9362,      0.176120,     2389.2240
    1395.52070,      107.5540,       28.0829,      0.181664,     2391.8230
    1395.67310,      104.1850,       25.5676,      0.189116,     2395.1240
    1395.82550,       97.0035,       24.6052,      0.183686,     2399.1240
    1395.97790,       91.1152,       24.0027,      0.177711,     2407.1240
    1396.13030,       92.8703,       24.3307,      0.177838,     2412.7230
    1396.28270,       98.8302,       24.8319,      0.182267,     2409.6240
    1396.43510,       98.7766,       25.2685,      0.176845,     2403.7240
    1396.58750,      103.2370,       25.1630,      0.177723,     2402.1240
    1396.73990,      100.8980,       24.6377,      0.188518,     2402.3240
    1396.89230,      102.0350,       26.2569,      0.191511,     2410.9240
    1397.04470,       96.4959,       26.4992,      0.192857,     2413.6240
    1397.19710,       98.2061,       26.0106,      0.189481,     2395.7240
    1397.34950,       93.7758,       26.7691,      0.193113,     2365.9240
    1397.50190,       92.8387,       27.6346,      0.194569,     2327.3240
    1397.65430,       88.4106,       28.9714,      0.192139,     2313.5230
    1397.80670,       92.6001,       27.9608,      0.188906,     2309.5230
    1397.95910,       96.8660,       25.7090,      0.188558,     2327.1240
    1398.11150,       97.1748,       24.3740,      0.189578,     2335.0240
    1398.26390,       88.7896,       23.2221,      0.190838,     2338.8230
    1398.41630,       80.5456,       22.9663,      0.187361,     2333.2240
    1398.56870,       74.8591,       25.3260,      0.186182,     2327.0240
    1398.72110,       76.8839,       28.6771,      0.181262,     2327.9240
    1398.87350,       76.6831,       28.3439,      0.180497,     2347.7240
    1399.02590,       75.3183,       27.7517,      0.181843,     2364.6240
    1399.17830,       67.5834,       27.5976,      0.177696,     2371.8230
    1399.33070,       68.4824,       27.5820,      0.170909,     2362.8240
    1399.48310,       71.3785,       28.0005,      0.170911,     2361.1240
    1399.63550,       72.5700,       28.7842,      0.172759,     2357.6240
    1399.78790,       68.4759,       29.2895,      0.170842,     2346.9240
    1399.94030,       65.8700,       28.9710,      0.162833,     2340.2230
    1400.09270,       65.9584,       28.2874,      0.160235,     2334.4240
    1400.24510,       67.9353,       27.3462,      0.160206,     2333.9240
    1400.39750,       69.9897,       26.3224,      0.163435,     2339.0230
    1400.54990,       71.4789,       25.1624,      0.161841,     2338.1240
    1400.70230,       70.6069,       23.5126,      0.172017,     2353.6240
    1400.85470,       70.3690,       22.7245,      0.172899,     2340.9240
    1401.00710,       65.5333,       23.3954,      0.177149,     2346.6240
    1401.15950,       68.2316,       24.2565,      0.180627,     2329.4240
    1401.31190,       68.5062,       23.4922,      0.186025,     2348.4240
    1401.46430,       73.1708,       21.9400,      0.197349,     2360.8230
    1401.61670,       71.0476,       20.1498,      0.196775,     2375.8240
    1401.76910,       70.6192,       20.2246,      0.194312,     2353.8230
    1401.92150,       73.2929,       23.1194,      0.187272,     2334.2240
    1402.07390,       80.5790,       25.4825,      0.187967,     2326.2240
    1402.22630,       88.2865,       25.9309,      0.195634,     2333.6240
    1402.37870,       85.9580,       24.7156,      0.194048,     2329.8240
    1402.53110,       78.7389,       21.7607,      0.184737,     2323.7230
    1402.68350,       71.3329,       20.3786,      0.173098,     2300.3240
    1402.83590,       70.0709,       22.3297,      0.168369,     2288.7240
    1402.98830,       67.6596,       23.4645,      0.176190,     2283.5230
    1403.14070,       62.4882,       23.7308,      0.183565,     2299.5230
    1403.29310,       61.6365,       24.6572,      0.187246,     2319.0230
    1403.44550,       56.6084,       25.1199,      0.175636,     2336.4240
    1403.59790,       59.6534,       25.6534,      0.162502,     2347.6240
    1403.75030,       61.9866,       25.7323,      0.156349,     2348.8230
    1403.90270,       67.8903,       26.1919,      0.162712,     2339.5230
    1404.05510,       67.3923,       27.4206,      0.169113,     2312.6240
    1404.20750,       69.9427,       28.8282,      0.164048,     2293.3240
    1404.35990,       70.4409,       30.5377,      0.162206,     2278.5240
    1404.51230,       63.8186,       32.0878,      0.167304,     2273.8240
    1404.66470,       51.3008,       31.0932,      0.167445,     2279.1240
    1404.81710,       43.8506,       29.9148,      0.165027,     2280.9240
    1404.96950,       42.2629,       29.9449,      0.159420,     2295.5240
    1405.12190,       43.1035,       29.9100,      0.164365,     2305.0240
    1405.27430,       42.7465,       30.4427,      0.161789,     2338.6240
    1405.42670,       53.1630,       31.1936,      0.167901,     2372.0230
    1405.57910,       65.3524,       29.3650,      0.173614,     2391.6240
    1405.73150,       97.4585,       27.6090,      0.168419,     2398.2240
    1405.88390,      150.5860,       26.3974,      0.158500,     2398.2240
    1406.03630,      184.9390,       25.3774,      0.164159,     2396.8230
