~Version
VERS  .             3.0                                 : CWLS LOG ASCII STANDARD - VERSION 3.0
WRAP  .             NO                                  : One line per depth step
DLM   .             COMMA                               : Delimiter character between data columns
#Delimiting character ( SPACE TAB OR COMMA ).

~Well
#MNEM.UNIT          DATA                                DESCRIPTION
#----- ----        -----------------                   -----------
STRT  .M                  3.80390                       : FIRST INDEX VALUE
STOP  .M               1582.21070                       : LAST INDEX VALUE
STEP  .M                  0.15240                       : STEP OF INDEX
NULL  .             -999.25                             : NULL VALUE
COMP  .                                                 : COMPANY
WELL  .             FURUD                               : WELL
FLD   .                                                 : FIELD
LOC   .                                                 : LOCATION
SRVC  .                                                 : SERVICE COMPANY
CTRY  .                                                 : COUNTRY
PROV  .                                                 : PROVINCE
UWI   .                                                 : UNIQUE WELL ID
LIC   .                                                 : LICENSE NUMBER
STAT  .                                                 : STATE
CNTY  .                                                 : COUNTY
API   .                                                 : API NUMBER
DATE  .                                                 : LOG DATE
X     .             653771.9542756                      : X OR EAST-WEST COORDINATE
Y     .             8157280.499579                      : Y OR NORTH-SOUTH COORDINATE
HZCS  .                                                 : HORIZONTAL CO-ORDINATE SYSTEM
LATI  .             -16.66194444444                     : LATITUDE
LONG  .             154.4419444444                      : LONGITUDE
GDAT  .                                                 : GEODETIC DATUM

~DEVIATION_PARAMETER 
#MNEM.UNIT                    VALUE                        DESCRIPTION
#--------------- ---         ------------                 -----------------

~DEVIATION_DEFINITION 
#MNEM.UNIT                 LOG CODE                  CURVE DESCRIPTION
#----------- ----         ------------              -----------------
DEPTH       .M                                      :     {F}
AZIMUTH     .DEG                                    :     {F}
DEVIATION   .DEG                                    : 90-DIP    {F}

~DEVIATION_DATA | DEVIATION_DEFINITION
      343.0000,       89.5000,        0.5000
      495.0000,       89.7500,        0.2500
      645.0000,       89.5000,        0.5000
      800.0000,       89.2500,        0.7500
      950.0000,       88.7500,        1.2500
     1053.0000,       89.0000,        1.0000
     1201.0000,       89.2500,        0.7500
     1353.0000,       89.5000,        0.5000
     1577.0000,       88.7500,        1.2500

~TOPS_PARAMETER 
#MNEM.UNIT                    VALUE                        DESCRIPTION
#--------------- ---         ------------                 -----------------

~TOPS_DEFINITION 
#MNEM.UNIT                 LOG CODE                  CURVE DESCRIPTION
#----------- ----         ------------              -----------------
DEPTH       .M                                      :     {F}
TOPS        .                                       : Formation Tops    {S24}

~TOPS_DATA | TOPS_DEFINITION
        5.6000,Doyles Creek Subgroup   
      427.1711,Horseshoe Creek Subgroup
      490.4921,Apple Tree Flat Subgroup
      737.0000,Watts Sandstone         
      746.0000,Denman Fm               
      867.1244,Mt Leonard Fm           
      996.0000,Althorpe Fm             
     1003.0000,Malabar Fm              
     1049.2716,Mt Ogilvie Fm           
     1098.2854,Milbrodale Fm           
     1154.9063,Mt Thorley Fm           
     1205.0000,Burnamwood Fm           
     1292.5000,Archerfield Sandstone   
     1322.5000,Mulbring Siltstone      
     1398.5875,Muree Sandstone         
     1506.0000,Branxton Fm             
     1546.0000,Greta Coal Measures     
     1569.7129,Dalwood Group           
     1583.5793,                        

~PARAMETER 
#MNEM.UNIT                    VALUE                        DESCRIPTION
#--------------- ---         ------------                 -----------------

~CURVE 
#MNEM.UNIT                 LOG CODE                  CURVE DESCRIPTION
#----------- ----         ------------              -----------------
DEPTH       .M                                      :     {F}
GR          .GAPI         310010                    : GR_1 (Cleared: Bottom)    {F}
LLD         .OHMM         220100                    :     {F}
NPHI        .V/V          890000                    :     {F}
RHOB        .K/M3         350020                    : Offset applied to log data.    {F}

~ASCII | CURVE 
# ...
    1292.04110,      122.8810,       25.4931,      0.204710,     2522.6240
    1292.19350,      126.5790,       28.6979,      0.214856,     2461.5230
    1292.34590,      126.8370,       25.5824,      0.220527,     2395.6240
    1292.49830,      112.8140,       18.7530,      0.212880,     2356.3240
    1292.65070,       96.2719,       17.6427,      0.205199,     2349.7240
    1292.80310,       75.2323,       17.0418,      0.204830,     2360.9240
    1292.95550,       73.1296,       16.9062,      0.220150,     2370.5240
    1293.10790,       77.9189,       18.7990,      0.238728,     2365.0230
    1293.26030,       88.0070,       20.5316,      0.233737,     2355.5230
    1293.41270,       93.5657,       18.7844,      0.214176,     2351.4240
    1293.56510,       93.5153,       18.1718,      0.194495,     2343.7230
    1293.71750,       93.2009,       18.8838,      0.192870,     2337.8230
    1293.86990,       90.6251,       18.8831,      0.190552,     2332.0230
    1294.02230,       86.0565,       18.6015,      0.192325,     2334.4240
    1294.17470,       86.8314,       18.3678,      0.193700,     2379.7230
    1294.32710,       79.9194,       18.0775,      0.188084,     2403.7240
    1294.47950,       80.7794,       18.8472,      0.176308,     2418.8240
    1294.63190,       76.6042,       19.8319,      0.170797,     2387.4240
    1294.78430,       78.1655,       20.3819,      0.167446,     2380.5240
    1294.93670,       85.5481,       20.2466,      0.171606,     2361.7240
    1295.08910,       87.1349,       20.4707,      0.174102,     2364.7240
    1295.24150,       85.3582,       20.1758,      0.183184,     2351.8230
    1295.39390,       81.0744,       19.5226,      0.184807,     2358.9240
    1295.54630,       81.0723,       19.5742,      0.184494,     2353.8230
    1295.69870,       79.9331,       19.3066,      0.179435,     2376.0230
    1295.85110,       77.1655,       19.8528,      0.173338,     2371.2240
    1296.00350,       73.4005,       20.6613,      0.168857,     2378.5230
    1296.15590,       79.7121,       20.5936,      0.162547,     2380.7240
    1296.30830,       83.6371,       21.1791,      0.160330,     2384.3230
    1296.46070,       85.4241,       20.8652,      0.164534,     2372.9240
    1296.61310,       84.0212,       20.0106,      0.169168,     2355.7240
    1296.76550,       78.4511,       20.6229,      0.169710,     2353.2230
    1296.91790,       77.9538,       20.2954,      0.165299,     2345.5230
    1297.07030,       70.8970,       19.7982,      0.162940,     2332.1240
    1297.22270,       73.5963,       20.4442,      0.168430,     2328.2240
    1297.37510,       72.9761,       21.4092,      0.174153,     2337.7240
    1297.52750,       79.9026,       21.8505,      0.175015,     2356.8240
    1297.67990,       80.4112,       22.0954,      0.172028,     2368.8230
    1297.83230,       79.0458,       22.4421,      0.169870,     2380.5240
    1297.98470,       73.2405,       22.0604,      0.174726,     2392.0230
    1298.13710,       69.3976,       22.2493,      0.176428,     2386.5240
    1298.28950,       75.2060,       22.0854,      0.176275,     2375.1240
    1298.44190,       75.2359,       21.2799,      0.170960,     2374.9240
    1298.59430,       81.3881,       21.2069,      0.175833,     2382.6240
    1298.74670,       80.1222,       20.9341,      0.182243,     2397.7240
    1298.89910,       91.6951,       20.9828,      0.184383,     2390.3230
    1299.05150,       93.2398,       21.6624,      0.172358,     2367.4240
    1299.20390,       94.8975,       22.2371,      0.175426,     2351.6240
    1299.35630,       80.1642,       21.7406,      0.169315,     2340.0240
    1299.50870,       79.5860,       21.7512,      0.177745,     2339.7240
    1299.66110,       74.4236,       21.3286,      0.176016,     2343.5240
    1299.81350,       70.2244,       20.5691,      0.181027,     2349.3240
    1299.96590,       67.7056,       20.8526,      0.172049,     2351.2240
    1300.11830,       78.9876,       20.8648,      0.168873,     2347.7240
    1300.27070,       88.9522,       20.9440,      0.164168,     2355.1240
    1300.42310,       92.9113,       20.9899,      0.166095,     2361.4240
    1300.57550,       89.0187,       20.4980,      0.169570,     2387.4240
    1300.72790,       87.9315,       20.5855,      0.172517,     2369.4240
    1300.88030,       87.2484,       19.4961,      0.175155,     2361.3230
    1301.03270,       89.0854,       19.0202,      0.170415,     2359.4240
    1301.18510,       93.1903,       18.8231,      0.166236,     2372.6240
    1301.33750,       96.9670,       18.5741,      0.163968,     2382.3240
    1301.48990,       98.6318,       18.5749,      0.162825,     2379.0230
    1301.64230,       98.0880,       19.5607,      0.164710,     2390.3230
    1301.79470,       94.8639,       20.8866,      0.163387,     2401.7240
    1301.94710,       91.9885,       21.9924,      0.163090,     2394.1240
    1302.09950,       93.0539,       20.2384,      0.163378,     2365.9240
    1302.25190,       95.1549,       18.9914,      0.162707,     2369.1240
    1302.40430,       94.0625,       18.7696,      0.162581,     2387.4240
    1302.55670,       95.1044,       17.9847,      0.174556,     2423.8230
    1302.70910,      100.6420,       20.7192,      0.183329,     2432.6240
    1302.86150,      108.9490,       23.3579,      0.187940,     2430.4240
    1303.01390,      113.2650,       22.9659,      0.185439,     2425.4240
    1303.16630,      114.1090,       22.8999,      0.188859,     2418.6240
    1303.31870,      107.2720,       21.6110,      0.197453,     2412.4240
    1303.47110,      102.2700,       18.8708,      0.199687,     2408.0230
    1303.62350,       99.7239,       18.1491,      0.197109,     2408.9240
    1303.77590,       98.1540,       18.7876,      0.195350,     2420.6240
    1303.92830,       98.7365,       17.5649,      0.186574,     2435.5240
    1304.08070,       96.5673,       18.1554,      0.179382,     2441.5230
    1304.23310,      104.0770,       19.6543,      0.178679,     2446.2240
    1304.38550,       99.4090,       19.5090,      0.189814,     2444.2240
    1304.53790,      100.3090,       20.8881,      0.191972,     2449.0240
    1304.69030,       97.5520,       22.3100,      0.194634,     2448.2240
    1304.84270,      104.2730,       20.2116,      0.192020,     2435.4240
    1304.99510,      104.7230,       20.8904,      0.199612,     2429.6240
    1305.14750,      102.9730,       20.6636,      0.193972,     2433.5240
    1305.29990,      104.9290,       18.6123,      0.184150,     2447.0240
    1305.45230,      106.3730,       20.3528,      0.183741,     2453.0240
    1305.60470,      104.7440,       20.7616,      0.191871,     2462.6240
    1305.75710,      103.6950,       19.0318,      0.190997,     2464.6240
    1305.90950,      107.2500,       19.9921,      0.183362,     2464.7240
    1306.06190,      110.5460,       19.3084,      0.185221,     2466.4240
    1306.21430,      109.7690,       16.6559,      0.190918,     2458.8240
    1306.36670,      105.5160,       16.8168,      0.197319,     2457.0230
    1306.51910,      106.6970,       17.1977,      0.190320,     2466.9240
    1306.67150,      115.9260,       17.1663,      0.189569,     2497.8240
    1306.82390,      124.9630,       20.0872,      0.200869,     2522.7240
    1306.97630,      132.1830,       20.4158,      0.217076,     2511.4240
    1307.12870,      128.4520,       19.6140,      0.222512,     2496.1240
    1307.28110,      122.2560,       19.5311,      0.218895,     2493.9240
    1307.43350,      121.1620,       19.4547,      0.222105,     2491.9240
    1307.58590,      123.9770,       19.5248,      0.218283,     2487.9240
    1307.73830,      129.2940,       19.6025,      0.219696,     2472.6240
    1307.89070,      126.8630,       18.4653,      0.222024,     2468.7230
    1308.04310,      128.8670,       18.6304,      0.210391,     2472.7240
    1308.19550,      121.0280,       18.8958,      0.193661,     2495.6240
