~Version
VERS  .             3.0                                 : CWLS LOG ASCII STANDARD - VERSION 3.0
WRAP  .             NO                                  : One line per depth step
DLM   .             COMMA                               : Delimiter character between data columns
#Delimiting character ( SPACE TAB OR COMMA ).

~Well
#MNEM.UNIT          DATA                                DESCRIPTION
#----- ----        -----------------                   -----------
STRT  .M                  3.80390                       : FIRST INDEX VALUE
STOP  .M               1582.21070                       : LAST INDEX VALUE
STEP  .M                  0.15240                       : STEP OF INDEX
NULL  .             -999.25                             : NULL VALUE
COMP  .                                                 : COMPANY
WELL  .             FURUD                               : WELL
FLD   .                                                 : FIELD
LOC   .                                                 : LOCATION
SRVC  .                                                 : SERVICE COMPANY
CTRY  .                                                 : COUNTRY
PROV  .                                                 : PROVINCE
UWI   .                                                 : UNIQUE WELL ID
LIC   .                                                 : LICENSE NUMBER
STAT  .                                                 : STATE
CNTY  .                                                 : COUNTY
API   .                                                 : API NUMBER
DATE  .                                                 : LOG DATE
X     .             653771.9542756                      : X OR EAST-WEST COORDINATE
Y     .             8157280.499579                      : Y OR NORTH-SOUTH COORDINATE
HZCS  .                                                 : HORIZONTAL CO-ORDINATE SYSTEM
LATI  .             -16.66194444444                     : LATITUDE
LONG  .             154.4419444444                      : LONGITUDE
GDAT  .                                                 : GEODETIC DATUM

~DEVIATION_PARAMETER 
#MNEM.UNIT                    VALUE                        DESCRIPTION
#--------------- ---         ------------                 -----------------

~DEVIATION_DEFINITION 
#MNEM.UNIT                 LOG CODE                  CURVE DESCRIPTION
#----------- ----         ------------              -----------------
DEPTH       .M                                      :     {F}
AZIMUTH     .DEG                                    :     {F}
DEVIATION   .DEG                                    : 90-DIP    {F}

~DEVIATION_DATA | DEVIATION_DEFINITION
      343.0000,       89.5000,        0.5000
      495.0000,       89.7500,        0.2500
      645.0000,       89.5000,        0.5000
      800.0000,       89.2500,        0.7500
      950.0000,       88.7500,        1.2500
     1053.0000,       89.0000,        1.0000
     1201.0000,       89.2500,        0.7500
     1353.0000,       89.5000,        0.5000
     1577.0000,       88.7500,        1.2500

~TOPS_PARAMETER 
#MNEM.UNIT                    VALUE                        DESCRIPTION
#--------------- ---         ------------                 -----------------

~TOPS_DEFINITION 
#MNEM.UNIT                 LOG CODE                  CURVE DESCRIPTION
#----------- ----         ------------              -----------------
DEPTH       .M                                      :     {F}
TOPS        .                                       : Formation Tops    {S24}

~TOPS_DATA | TOPS_DEFINITION
        5.6000,Doyles Creek Subgroup   
      427.1711,Horseshoe Creek Subgroup
      490.4921,Apple Tree Flat Subgroup
      737.0000,Watts Sandstone         
      746.0000,Denman Fm               
      867.1244,Mt Leonard Fm           
      996.0000,Althorpe Fm             
     1003.0000,Malabar Fm              
     1049.2716,Mt Ogilvie Fm           
     1098.2854,Milbrodale Fm           
     1154.9063,Mt Thorley Fm           
     1205.0000,Burnamwood Fm           
     1292.5000,Archerfield Sandstone   
     1322.5000,Mulbring Siltstone      
     1398.5875,Muree Sandstone         
     1506.0000,Branxton Fm             
     1546.0000,Greta Coal Measures     
     1569.7129,Dalwood Group           
     1583.5793,                        

~PARAMETER 
#MNEM.UNIT                    VALUE                        DESCRIPTION
#--------------- ---         ------------                 -----------------

~CURVE 
#MNEM.UNIT                 LOG CODE                  CURVE DESCRIPTION
#----------- ----         ------------              -----------------
DEPTH       .M                                      :     {F}
GR          .GAPI         310010                    : GR_1 (Cleared: Bottom)    {F}
LLD         .OHMM         220100                    :     {F}
NPHI        .V/V          890000                    :     {F}
RHOB        .K/M3         350020                    : Offset applied to log data.    {F}

~ASCII | CURVE 
# ...
     313.63310,       68.9584,        2.0492,   -999.250000,     -999.2500
     313.78550,       65.8486,        2.0017,   -999.250000,     -999.2500
     313.93790,       63.4733,        1.9891,   -999.250000,     -999.2500
     314.09030,       64.6979,        1.9696,   -999.250000,     -999.2500
     314.24270,       65.9723,        1.9149,   -999.250000,     -999.2500
     314.39510,       70.3152,        1.8101,   -999.250000,     -999.2500
     314.54750,       71.3880,        1.7471,   -999.250000,     -999.2500
     314.69990,       70.2523,        1.7656,   -999.250000,     -999.2500
     314.85230,       71.8490,        1.8198,   -999.250000,     -999.2500
     315.00470,       69.6795,        1.9019,   -999.250000,     -999.2500
     315.15710,       68.5512,        2.1081,   -999.250000,     -999.2500
     315.30950,       65.7736,        2.1851,   -999.250000,     -999.2500
     315.46190,       65.5397,        2.2064,   -999.250000,     -999.2500
     315.61430,       63.8302,        2.2790,   -999.250000,     -999.2500
     315.76670,       61.5237,        2.5190,   -999.250000,     -999.2500
     315.91910,       60.4588,        2.6451,   -999.250000,     -999.2500
     316.07150,       63.5623,        2.5917,   -999.250000,     -999.2500
     316.22390,       62.1347,        2.6440,   -999.250000,     -999.2500
     316.37630,       61.5073,        2.8235,   -999.250000,     -999.2500
     316.52870,       55.1086,        2.8435,   -999.250000,     -999.2500
     316.68110,       54.8011,        2.8457,   -999.250000,     -999.2500
     316.83350,       54.0342,        2.7257,   -999.250000,     -999.2500
     316.98590,       62.3275,        2.3114,   -999.250000,     -999.2500
     317.13830,       70.2886,        2.0599,   -999.250000,     -999.2500
     317.29070,       80.3582,        2.0043,   -999.250000,     -999.2500
     317.44310,       83.5800,        2.0802,   -999.250000,     -999.2500
     317.59550,       82.7529,        2.0940,   -999.250000,     -999.2500
     317.74790,       81.1054,        2.0740,   -999.250000,     -999.2500
     317.90030,       80.5153,        2.1028,   -999.250000,     -999.2500
     318.05270,       80.3228,        2.1010,   -999.250000,     -999.2500
     318.20510,       76.7943,        2.1454,   -999.250000,     -999.2500
     318.35750,       76.3068,        2.1999,   -999.250000,     -999.2500
     318.50990,       75.2105,        2.2349,   -999.250000,     -999.2500
     318.66230,       74.4052,        2.3647,   -999.250000,     -999.2500
     318.81470,       70.8974,        2.5569,   -999.250000,     -999.2500
     318.96710,       69.1593,        2.5426,   -999.250000,     -999.2500
     319.11950,       68.0116,        2.4907,   -999.250000,     -999.2500
     319.27190,       66.5219,        2.3244,   -999.250000,     -999.2500
     319.42430,       64.9381,        2.1112,   -999.250000,     -999.2500
     319.57670,       62.0154,        2.1041,   -999.250000,     -999.2500
     319.72910,       66.8350,        2.1432,   -999.250000,     -999.2500
     319.88150,       70.4543,        2.1667,   -999.250000,     -999.2500
     320.03390,       78.2281,        2.1511,   -999.250000,     -999.2500
     320.18630,       73.0005,        2.1419,   -999.250000,     -999.2500
     320.33870,       69.6844,        2.1411,   -999.250000,     -999.2500
     320.49110,       63.3322,        2.1093,   -999.250000,     -999.2500
     320.64350,       65.4699,        2.1135,   -999.250000,     -999.2500
     320.79590,       64.4443,        2.1293,   -999.250000,     -999.2500
     320.94830,       62.6613,        2.1344,   -999.250000,     -999.2500
     321.10070,       61.4807,        2.1776,   -999.250000,     -999.2500
     321.25310,       65.7074,        2.2135,   -999.250000,     -999.2500
     321.40550,       67.7477,        2.2240,   -999.250000,     -999.2500
     321.55790,       67.5685,        2.2330,   -999.250000,     -999.2500
     321.71030,       67.4625,        2.1886,   -999.250000,     -999.2500
     321.86270,       67.9138,        2.1258,   -999.250000,     -999.2500
     322.01510,       68.8249,        2.0609,   -999.250000,     -999.2500
     322.16750,       70.2039,        2.0670,   -999.250000,     -999.2500
     322.31990,       70.3051,        2.5300,   -999.250000,     -999.2500
     322.47230,       67.9321,        3.4352,   -999.250000,     -999.2500
     322.62470,       63.2883,        4.5453,   -999.250000,     -999.2500
     322.77710,       54.7764,        5.0764,   -999.250000,     -999.2500
     322.92950,       54.2797,        3.9795,   -999.250000,     -999.2500
     323.08190,       57.3155,        2.7349,   -999.250000,     -999.2500
     323.23430,       62.0827,        2.2283,   -999.250000,     -999.2500
     323.38670,       64.8394,        2.0220,   -999.250000,     -999.2500
     323.53910,       67.9969,        2.0732,   -999.250000,     -999.2500
     323.69150,       67.8804,        2.1565,   -999.250000,     -999.2500
     323.84390,       65.0693,        2.1814,   -999.250000,     -999.2500
     323.99630,       65.4914,        2.1714,   -999.250000,     -999.2500
     324.14870,       70.8479,        2.2116,   -999.250000,     -999.2500
     324.30110,       72.1037,        2.2178,   -999.250000,     -999.2500
     324.45350,       69.1577,        2.2843,   -999.250000,     -999.2500
     324.60590,       69.0340,        2.4034,   -999.250000,     -999.2500
     324.75830,       67.2039,        2.7142,   -999.250000,     -999.2500
     324.91070,       64.3884,        3.2510,   -999.250000,     -999.2500
     325.06310,       52.0386,        3.8267,   -999.250000,     -999.2500
     325.21550,       45.3561,        3.8575,   -999.250000,     -999.2500
     325.36790,       43.3200,        3.4452,   -999.250000,     -999.2500
     325.52030,       51.6488,        2.8567,   -999.250000,     -999.2500
     325.67270,       58.3447,        2.5396,   -999.250000,     -999.2500
     325.82510,       61.5586,        2.5236,   -999.250000,     -999.2500
     325.97750,       59.5651,        2.8453,   -999.250000,     -999.2500
     326.12990,       53.5682,        3.5401,   -999.250000,     -999.2500
     326.28230,       45.8805,        4.5045,   -999.250000,     -999.2500
     326.43470,       36.9656,        5.5526,   -999.250000,     -999.2500
     326.58710,       32.9800,        6.1655,   -999.250000,     -999.2500
     326.73950,       33.9681,        5.7277,   -999.250000,     -999.2500
     326.89190,       36.1743,        5.1047,   -999.250000,     -999.2500
     327.04430,       39.7723,        4.1000,   -999.250000,     -999.2500
     327.19670,       46.3165,        3.2277,   -999.250000,     -999.2500
     327.34910,       53.6726,        2.6018,   -999.250000,     -999.2500
     327.50150,       61.2485,        2.4203,   -999.250000,     -999.2500
     327.65390,       64.3242,        2.5826,   -999.250000,     -999.2500
     327.80630,       62.8879,        3.0448,   -999.250000,     -999.2500
     327.95870,       53.2400,        3.9394,   -999.250000,     -999.2500
     328.11110,       43.2555,        4.8715,   -999.250000,     -999.2500
     328.26350,       40.8927,        4.5179,   -999.250000,     -999.2500
     328.41590,       48.0887,        3.8234,   -999.250000,     -999.2500
     328.56830,       57.8217,        3.1394,   -999.250000,     -999.2500
     328.72070,       65.3608,        2.6898,   -999.250000,     -999.2500
     328.87310,       71.2602,        2.4637,   -999.250000,     -999.2500
     329.02550,       74.4508,        2.3803,   -999.250000,     -999.2500
     329.17790,       76.8004,        2.4172,   -999.250000,     -999.2500
     329.33030,       73.8308,        2.5331,   -999.250000,     -999.2500
     329.48270,       69.9272,        2.4476,   -999.250000,     -999.2500
     329.63510,       68.4119,        2.4064,   -999.250000,     -999.2500
     329.78750,       67.2337,        2.3810,   -999.250000,     -999.2500
