~Version
VERS  .             3.0                                 : CWLS LOG ASCII STANDARD - VERSION 3.0
WRAP  .             NO                                  : One line per depth step
DLM   .             COMMA                               : Delimiter character between data columns
#Delimiting character ( SPACE TAB OR COMMA ).

~Well
#MNEM.UNIT          DATA                                DESCRIPTION
#----- ----        -----------------                   -----------
STRT  .M                  3.80390                       : FIRST INDEX VALUE
STOP  .M               1582.21070                       : LAST INDEX VALUE
STEP  .M                  0.15240                       : STEP OF INDEX
NULL  .             -999.25                             : NULL VALUE
COMP  .                                                 : COMPANY
WELL  .             FURUD                               : WELL
FLD   .                                                 : FIELD
LOC   .                                                 : LOCATION
SRVC  .                                                 : SERVICE COMPANY
CTRY  .                                                 : COUNTRY
PROV  .                                                 : PROVINCE
UWI   .                                                 : UNIQUE WELL ID
LIC   .                                                 : LICENSE NUMBER
STAT  .                                                 : STATE
CNTY  .                                                 : COUNTY
API   .                                                 : API NUMBER
DATE  .                                                 : LOG DATE
X     .             653771.9542756                      : X OR EAST-WEST COORDINATE
Y     .             8157280.499579                      : Y OR NORTH-SOUTH COORDINATE
HZCS  .                                                 : HORIZONTAL CO-ORDINATE SYSTEM
LATI  .             -16.66194444444                     : LATITUDE
LONG  .             154.4419444444                      : LONGITUDE
GDAT  .                                                 : GEODETIC DATUM

~DEVIATION_PARAMETER 
#MNEM.UNIT                    VALUE                        DESCRIPTION
#--------------- ---         ------------                 -----------------

~DEVIATION_DEFINITION 
#MNEM.UNIT                 LOG CODE                  CURVE DESCRIPTION
#----------- ----         ------------              -----------------
DEPTH       .M                                      :     {F}
AZIMUTH     .DEG                                    :     {F}
DEVIATION   .DEG                                    : 90-DIP    {F}

~DEVIATION_DATA | DEVIATION_DEFINITION
      343.0000,       89.5000,        0.5000
      495.0000,       89.7500,        0.2500
      645.0000,       89.5000,        0.5000
      800.0000,       89.2500,        0.7500
      950.0000,       88.7500,        1.2500
     1053.0000,       89.0000,        1.0000
     1201.0000,       89.2500,        0.7500
     1353.0000,       89.5000,        0.5000
     1577.0000,       88.7500,        1.2500

~TOPS_PARAMETER 
#MNEM.UNIT                    VALUE                        DESCRIPTION
#--------------- ---         ------------                 -----------------

~TOPS_DEFINITION 
#MNEM.UNIT                 LOG CODE                  CURVE DESCRIPTION
#----------- ----         ------------              -----------------
DEPTH       .M                                      :     {F}
TOPS        .                                       : Formation Tops    {S24}

~TOPS_DATA | TOPS_DEFINITION
        5.6000,Doyles Creek Subgroup   
      427.1711,Horseshoe Creek Subgroup
      490.4921,Apple Tree Flat Subgroup
      737.0000,Watts Sandstone         
      746.0000,Denman Fm               
      867.1244,Mt Leonard Fm           
      996.0000,Althorpe Fm             
     1003.0000,Malabar Fm              
     1049.2716,Mt Ogilvie Fm           
     1098.2854,Milbrodale Fm           
     1154.9063,Mt Thorley Fm           
     1205.0000,Burnamwood Fm           
     1292.5000,Archerfield Sandstone   
     1322.5000,Mulbring Siltstone      
     1398.5875,Muree Sandstone         
     1506.0000,Branxton Fm             
     1546.0000,Greta Coal Measures     
     1569.7129,Dalwood Group           
     1583.5793,                        

~PARAMETER 
#MNEM.UNIT                    VALUE                        DESCRIPTION
#--------------- ---         ------------                 -----------------

~CURVE 
#MNEM.UNIT                 LOG CODE                  CURVE DESCRIPTION
#----------- ----         ------------              -----------------
DEPTH       .M                                      :     {F}
GR          .GAPI         310010                    : GR_1 (Cleared: Bottom)    {F}
LLD         .OHMM         220100                    :     {F}
NPHI        .V/V          890000                    :     {F}
RHOB        .K/M3         350020                    : Offset applied to log data.    {F}

~ASCII | CURVE 
# ...
     851.75750,       98.4781,        1.7219,   -999.250000,     -999.2500
     851.90990,       98.8049,        1.6716,   -999.250000,     -999.2500
     852.06230,       95.1468,        1.6401,   -999.250000,     -999.2500
     852.21470,       90.5465,        1.6279,   -999.250000,     -999.2500
     852.36710,       91.2298,        1.5634,   -999.250000,     -999.2500
     852.51950,       92.3347,        1.5559,   -999.250000,     -999.2500
     852.67190,       93.7284,        1.5514,   -999.250000,     -999.2500
     852.82430,       91.7332,        1.5756,   -999.250000,     -999.2500
     852.97670,       92.7746,        1.6418,   -999.250000,     -999.2500
     853.12910,       91.8929,        1.6510,   -999.250000,     -999.2500
     853.28150,       86.5919,        1.5939,   -999.250000,     -999.2500
     853.43390,       82.7317,        1.6073,   -999.250000,     -999.2500
     853.58630,       83.6737,        1.7492,   -999.250000,     -999.2500
     853.73870,       91.0105,        1.7685,   -999.250000,     -999.2500
     853.89110,       92.3133,        1.7773,   -999.250000,     -999.2500
     854.04350,      100.7800,        1.8105,   -999.250000,     -999.2500
     854.19590,      100.7340,        1.7682,   -999.250000,     -999.2500
     854.34830,      104.6580,        1.6883,   -999.250000,     -999.2500
     854.50070,       95.7814,        1.6530,   -999.250000,     -999.2500
     854.65310,       96.4794,        1.6255,   -999.250000,     -999.2500
     854.80550,       92.4970,        1.6515,   -999.250000,     -999.2500
     854.95790,       92.4191,        1.6147,   -999.250000,     -999.2500
     855.11030,       91.9069,        1.5945,   -999.250000,     -999.2500
     855.26270,       92.0107,        1.5694,   -999.250000,     -999.2500
     855.41510,       93.0736,        1.5558,   -999.250000,     -999.2500
     855.56750,       89.8345,        1.5582,   -999.250000,     -999.2500
     855.71990,       95.5359,        1.5860,   -999.250000,     -999.2500
     855.87230,       97.8896,        1.5662,   -999.250000,     -999.2500
     856.02470,      101.2000,        1.6579,   -999.250000,     -999.2500
     856.17710,       88.9035,        1.9203,   -999.250000,     -999.2500
     856.32950,       83.6603,        1.9542,   -999.250000,     -999.2500
     856.48190,       80.0283,        2.0595,   -999.250000,     -999.2500
     856.63430,       87.3540,        2.1519,   -999.250000,     -999.2500
     856.78670,       87.4635,        1.9038,   -999.250000,     -999.2500
     856.93910,       84.6358,        1.8583,   -999.250000,     -999.2500
     857.09150,       85.5854,        1.8770,   -999.250000,     -999.2500
     857.24390,       85.9516,        1.8066,   -999.250000,     -999.2500
     857.39630,       91.5565,        1.8052,   -999.250000,     -999.2500
     857.54870,       96.8394,        1.8613,   -999.250000,     -999.2500
     857.70110,       98.6755,        1.8740,   -999.250000,     -999.2500
     857.85350,       97.7855,        1.8710,   -999.250000,     -999.2500
     858.00590,       97.9353,        1.8058,   -999.250000,     -999.2500
     858.15830,       98.2032,        1.7569,   -999.250000,     -999.2500
     858.31070,       99.6722,        1.7139,   -999.250000,     -999.2500
     858.46310,       97.7621,        1.6520,   -999.250000,     -999.2500
     858.61550,      102.6330,        1.6086,   -999.250000,     -999.2500
     858.76790,      104.2360,        1.5648,   -999.250000,     -999.2500
     858.92030,      109.7390,        1.5247,   -999.250000,     -999.2500
     859.07270,      106.3650,        1.5056,   -999.250000,     -999.2500
     859.22510,      104.1610,        1.5276,   -999.250000,     -999.2500
     859.37750,       99.3773,        1.4954,   -999.250000,     -999.2500
     859.52990,      100.8040,        1.5292,   -999.250000,     -999.2500
     859.68230,      102.2430,        1.6099,   -999.250000,     -999.2500
     859.83470,       95.7452,        1.6999,   -999.250000,     -999.2500
     859.98710,       95.6666,        1.7929,   -999.250000,     -999.2500
     860.13950,       94.3687,        1.9371,   -999.250000,     -999.2500
     860.29190,       92.6301,        2.0533,   -999.250000,     -999.2500
     860.44430,       91.2886,        1.9796,   -999.250000,     -999.2500
     860.59670,       88.6104,        1.8797,   -999.250000,     -999.2500
     860.74910,       89.4944,        1.8361,   -999.250000,     -999.2500
     860.90150,       85.8471,        1.8024,   -999.250000,     -999.2500
     861.05390,       85.7886,        1.7695,   -999.250000,     -999.2500
     861.20630,       92.2934,        1.7876,   -999.250000,     -999.2500
     861.35870,       98.3136,        1.8406,   -999.250000,     -999.2500
     861.51110,       96.8445,        1.7522,   -999.250000,     -999.2500
     861.66350,       94.3329,        1.7645,   -999.250000,     -999.2500
     861.81590,       91.1571,        1.8657,   -999.250000,     -999.2500
     861.96830,      100.6240,        1.9267,   -999.250000,     -999.2500
     862.12070,      101.8270,        1.9298,   -999.250000,     -999.2500
     862.27310,      102.7650,        1.9410,   -999.250000,     -999.2500
     862.42550,       99.8337,        1.9021,   -999.250000,     -999.2500
     862.57790,       97.4959,        1.9038,   -999.250000,     -999.2500
     862.73030,       97.2461,        1.9768,   -999.250000,     -999.2500
     862.88270,       95.2541,        2.0234,   -999.250000,     -999.2500
     863.03510,       97.4893,        2.0224,   -999.250000,     -999.2500
     863.18750,       99.3375,        1.9994,   -999.250000,     -999.2500
     863.33990,      101.1130,        1.9281,   -999.250000,     -999.2500
     863.49230,      100.9130,        1.9243,   -999.250000,     -999.2500
     863.64470,       95.5545,        1.9124,   -999.250000,     -999.2500
     863.79710,       92.9149,        1.9158,   -999.250000,     -999.2500
     863.94950,       93.4379,        1.8662,   -999.250000,     -999.2500
     864.10190,      102.5820,        1.8633,   -999.250000,     -999.2500
     864.25430,      104.8190,        1.8784,   -999.250000,     -999.2500
     864.40670,      103.0040,        1.9842,   -999.250000,     -999.2500
     864.55910,      101.2370,        1.9374,   -999.250000,     -999.2500
     864.71150,       99.1944,        1.9452,   -999.250000,     -999.2500
     864.86390,      101.2120,        1.9632,   -999.250000,     -999.2500
     865.01630,       97.7640,        1.9751,   -999.250000,     -999.2500
     865.16870,       99.1999,        2.0336,   -999.250000,     -999.2500
     865.32110,       93.4464,        2.0641,   -999.250000,     -999.2500
     865.47350,       95.3370,        2.1064,   -999.250000,     -999.2500
     865.62590,       99.6499,        2.1082,   -999.250000,     -999.2500
     865.77830,       98.7935,        2.0903,   -999.250000,     -999.2500
     865.93070,      101.8910,        2.0918,   -999.250000,     -999.2500
     866.08310,       93.3910,        2.2164,   -999.250000,     -999.2500
     866.23550,       94.4917,        2.3668,   -999.250000,     -999.2500
     866.38790,       83.3481,        2.4506,   -999.250000,     -999.2500
     866.54030,       81.5946,        2.5479,   -999.250000,     -999.2500
     866.69270,       80.0030,        2.6495,   -999.250000,     -999.2500
     866.84510,       87.0377,        2.4951,   -999.250000,     -999.2500
     866.99750,       91.9826,        2.4687,   -999.250000,     -999.2500
     867.14990,       93.4057,        2.4721,   -999.250000,     -999.2500
     867.30230,       87.4743,        2.4892,   -999.250000,     -999.2500
     867.45470,       86.7676,        2.5259,   -999.250000,     -999.2500
     867.60710,       82.7814,        2.5052,   -999.250000,     -999.2500
     867.75950,       84.0304,        2.4475,   -999.250000,     -999.2500
     867.91190,       83.1861,        2.4084,   -999.250000,     -999.2500
