~Version
VERS  .             3.0                                 : CWLS LOG ASCII STANDARD - VERSION 3.0
WRAP  .             NO                                  : One line per depth step
DLM   .             COMMA                               : Delimiter character between data columns
#Delimiting character ( SPACE TAB OR COMMA ).

~Well
#MNEM.UNIT          DATA                                DESCRIPTION
#----- ----        -----------------                   -----------
STRT  .M                  3.80390                       : FIRST INDEX VALUE
STOP  .M               1582.21070                       : LAST INDEX VALUE
STEP  .M                  0.15240                       : STEP OF INDEX
NULL  .             -999.25                             : NULL VALUE
COMP  .                                                 : COMPANY
WELL  .             FURUD                               : WELL
FLD   .                                                 : FIELD
LOC   .                                                 : LOCATION
SRVC  .                                                 : SERVICE COMPANY
CTRY  .                                                 : COUNTRY
PROV  .                                                 : PROVINCE
UWI   .                                                 : UNIQUE WELL ID
LIC   .                                                 : LICENSE NUMBER
STAT  .                                                 : STATE
CNTY  .                                                 : COUNTY
API   .                                                 : API NUMBER
DATE  .                                                 : LOG DATE
X     .             653771.9542756                      : X OR EAST-WEST COORDINATE
Y     .             8157280.499579                      : Y OR NORTH-SOUTH COORDINATE
HZCS  .                                                 : HORIZONTAL CO-ORDINATE SYSTEM
LATI  .             -16.66194444444                     : LATITUDE
LONG  .             154.4419444444                      : LONGITUDE
GDAT  .                                                 : GEODETIC DATUM

~DEVIATION_PARAMETER 
#MNEM.UNIT                    VALUE                        DESCRIPTION
#--------------- ---         ------------                 -----------------

~DEVIATION_DEFINITION 
#MNEM.UNIT                 LOG CODE                  CURVE DESCRIPTION
#----------- ----         ------------              -----------------
DEPTH       .M                                      :     {F}
AZIMUTH     .DEG                                    :     {F}
DEVIATION   .DEG                                    : 90-DIP    {F}

~DEVIATION_DATA | DEVIATION_DEFINITION
      343.0000,       89.5000,        0.5000
      495.0000,       89.7500,        0.2500
      645.0000,       89.5000,        0.5000
      800.0000,       89.2500,        0.7500
      950.0000,       88.7500,        1.2500
     1053.0000,       89.0000,        1.0000
     1201.0000,       89.2500,        0.7500
     1353.0000,       89.5000,        0.5000
     1577.0000,       88.7500,        1.2500

~TOPS_PARAMETER 
#MNEM.UNIT                    VALUE                        DESCRIPTION
#--------------- ---         ------------                 -----------------

~TOPS_DEFINITION 
#MNEM.UNIT                 LOG CODE                  CURVE DESCRIPTION
#----------- ----         ------------              -----------------
DEPTH       .M                                      :     {F}
TOPS        .                                       : Formation Tops    {S24}

~TOPS_DATA | TOPS_DEFINITION
        5.6000,Doyles Creek Subgroup   
      427.1711,Horseshoe Creek Subgroup
      490.4921,Apple Tree Flat Subgroup
      737.0000,Watts Sandstone         
      746.0000,Denman Fm               
      867.1244,Mt Leonard Fm           
      996.0000,Althorpe Fm             
     1003.0000,Malabar Fm              
     1049.2716,Mt Ogilvie Fm           
     1098.2854,Milbrodale Fm           
     1154.9063,Mt Thorley Fm           
     1205.0000,Burnamwood Fm           
     1292.5000,Archerfield Sandstone   
     1322.5000,Mulbring Siltstone      
     1398.5875,Muree Sandstone         
     1506.0000,Branxton Fm             
     1546.0000,Greta Coal Measures     
     1569.7129,Dalwood Group           
     1583.5793,                        

~PARAMETER 
#MNEM.UNIT                    VALUE                        DESCRIPTION
#--------------- ---         ------------                 -----------------

~CURVE 
#MNEM.UNIT                 LOG CODE                  CURVE DESCRIPTION
#----------- ----         ------------              -----------------
DEPTH       .M                                      :     {F}
GR          .GAPI         310010                    : GR_1 (Cleared: Bottom)    {F}
LLD         .OHMM         220100                    :     {F}
NPHI        .V/V          890000                    :     {F}
RHOB        .K/M3         350020                    : Offset applied to log data.    {F}

~ASCII | CURVE 
# ...
     493.00790,       63.9025,        3.9750,   -999.250000,     -999.2500
     493.16030,       66.0988,        3.8596,   -999.250000,     -999.2500
     493.31270,       71.6740,        3.7868,   -999.250000,     -999.2500
     493.46510,       72.2149,        3.7276,   -999.250000,     -999.2500
     493.61750,       74.6273,        3.6515,   -999.250000,     -999.2500
     493.76990,       70.6609,        3.6619,   -999.250000,     -999.2500
     493.92230,       68.1021,        3.5804,   -999.250000,     -999.2500
     494.07470,       70.9202,        3.4586,   -999.250000,     -999.2500
     494.22710,       71.2838,        3.3762,   -999.250000,     -999.2500
     494.37950,       77.6098,        3.2726,   -999.250000,     -999.2500
     494.53190,       69.4066,        3.2684,   -999.250000,     -999.2500
     494.68430,       72.0030,        3.4179,   -999.250000,     -999.2500
     494.83670,       70.8794,        3.5421,   -999.250000,     -999.2500
     494.98910,       73.8566,        3.5261,   -999.250000,     -999.2500
     495.14150,       72.6539,        3.4426,   -999.250000,     -999.2500
     495.29390,       74.0682,        3.2140,   -999.250000,     -999.2500
     495.44630,       75.2209,        3.2666,   -999.250000,     -999.2500
     495.59870,       74.0016,        3.2850,   -999.250000,     -999.2500
     495.75110,       74.0391,        3.2850,   -999.250000,     -999.2500
     495.90350,       74.0391,        3.2906,   -999.250000,     -999.2500
     496.05590,       74.0832,        3.0289,   -999.250000,     -999.2500
     496.20830,       76.8820,        3.0178,   -999.250000,     -999.2500
     496.36070,       77.4445,        3.2887,   -999.250000,     -999.2500
     496.51310,       73.3126,        3.6140,   -999.250000,     -999.2500
     496.66550,       68.8112,        3.6719,   -999.250000,     -999.2500
     496.81790,       68.5483,        3.3311,   -999.250000,     -999.2500
     496.97030,       68.8669,        2.9993,   -999.250000,     -999.2500
     497.12270,       71.7617,        2.6589,   -999.250000,     -999.2500
     497.27510,       72.4305,        2.5132,   -999.250000,     -999.2500
     497.42750,       75.4246,        2.6483,   -999.250000,     -999.2500
     497.57990,       78.0637,        2.7312,   -999.250000,     -999.2500
     497.73230,       78.1307,        2.6612,   -999.250000,     -999.2500
     497.88470,       78.4064,        2.6229,   -999.250000,     -999.2500
     498.03710,       76.7480,        2.5763,   -999.250000,     -999.2500
     498.18950,       76.5443,        2.4513,   -999.250000,     -999.2500
     498.34190,       73.7558,        2.3870,   -999.250000,     -999.2500
     498.49430,       74.6909,        2.2705,   -999.250000,     -999.2500
     498.64670,       75.6822,        2.1623,   -999.250000,     -999.2500
     498.79910,       73.8878,        2.2119,   -999.250000,     -999.2500
     498.95150,       75.0848,        2.1755,   -999.250000,     -999.2500
     499.10390,       72.3519,        2.1644,   -999.250000,     -999.2500
     499.25630,       75.7035,        2.1874,   -999.250000,     -999.2500
     499.40870,       75.5268,        2.1314,   -999.250000,     -999.2500
     499.56110,       78.4757,        2.1146,   -999.250000,     -999.2500
     499.71350,       83.7377,        2.2056,   -999.250000,     -999.2500
     499.86590,       84.2454,        2.2594,   -999.250000,     -999.2500
     500.01830,       83.4124,        2.1926,   -999.250000,     -999.2500
     500.17070,       83.4060,        2.1512,   -999.250000,     -999.2500
     500.32310,       79.6911,        2.1732,   -999.250000,     -999.2500
     500.47550,       83.8879,        2.0805,   -999.250000,     -999.2500
     500.62790,       88.8686,        2.2209,   -999.250000,     -999.2500
     500.78030,       86.8687,        2.3625,   -999.250000,     -999.2500
     500.93270,       79.6754,        2.3993,   -999.250000,     -999.2500
     501.08510,       71.4730,        2.2476,   -999.250000,     -999.2500
     501.23750,       69.4817,        2.0048,   -999.250000,     -999.2500
     501.38990,       75.0847,        1.9001,   -999.250000,     -999.2500
     501.54230,       81.0715,        1.8633,   -999.250000,     -999.2500
     501.69470,       82.2202,        1.9872,   -999.250000,     -999.2500
     501.84710,       79.8663,        2.3053,   -999.250000,     -999.2500
     501.99950,       75.6190,        2.4705,   -999.250000,     -999.2500
     502.15190,       72.0664,        2.3817,   -999.250000,     -999.2500
     502.30430,       74.3531,        2.3005,   -999.250000,     -999.2500
     502.45670,       74.5161,        2.1978,   -999.250000,     -999.2500
     502.60910,       78.7458,        2.0693,   -999.250000,     -999.2500
     502.76150,       82.8130,        2.1119,   -999.250000,     -999.2500
     502.91390,       83.3261,        2.1683,   -999.250000,     -999.2500
     503.06630,       78.5872,        2.2454,   -999.250000,     -999.2500
     503.21870,       74.8269,        2.3625,   -999.250000,     -999.2500
     503.37110,       74.1378,        2.4367,   -999.250000,     -999.2500
     503.52350,       74.3935,        2.4046,   -999.250000,     -999.2500
     503.67590,       75.5863,        2.3475,   -999.250000,     -999.2500
     503.82830,       77.2124,        2.2780,   -999.250000,     -999.2500
     503.98070,       77.1040,        2.1666,   -999.250000,     -999.2500
     504.13310,       78.0682,        2.0555,   -999.250000,     -999.2500
     504.28550,       74.7362,        2.1016,   -999.250000,     -999.2500
     504.43790,       75.4197,        2.1554,   -999.250000,     -999.2500
     504.59030,       76.0277,        2.1684,   -999.250000,     -999.2500
     504.74270,       76.2835,        2.2158,   -999.250000,     -999.2500
     504.89510,       77.4079,        2.1113,   -999.250000,     -999.2500
     505.04750,       78.9829,        1.9912,   -999.250000,     -999.2500
     505.19990,       80.1748,        1.9766,   -999.250000,     -999.2500
     505.35230,       79.2333,        1.9599,   -999.250000,     -999.2500
     505.50470,       72.2826,        2.0127,   -999.250000,     -999.2500
     505.65710,       74.2567,        2.0986,   -999.250000,     -999.2500
     505.80950,       70.9511,        2.1779,   -999.250000,     -999.2500
     505.96190,       75.2157,        2.2311,   -999.250000,     -999.2500
     506.11430,       75.9752,        2.2985,   -999.250000,     -999.2500
     506.26670,       79.4496,        2.3909,   -999.250000,     -999.2500
     506.41910,       78.1988,        2.3351,   -999.250000,     -999.2500
     506.57150,       76.4948,        2.2196,   -999.250000,     -999.2500
     506.72390,       75.8029,        2.2776,   -999.250000,     -999.2500
     506.87630,       74.3771,        2.5448,   -999.250000,     -999.2500
     507.02870,       69.4136,        2.6692,   -999.250000,     -999.2500
     507.18110,       66.2084,        2.8598,   -999.250000,     -999.2500
     507.33350,       68.4177,        3.0612,   -999.250000,     -999.2500
     507.48590,       67.9965,        2.5380,   -999.250000,     -999.2500
     507.63830,       69.7602,        2.3613,   -999.250000,     -999.2500
     507.79070,       66.6038,        2.3821,   -999.250000,     -999.2500
     507.94310,       68.2519,        2.3418,   -999.250000,     -999.2500
     508.09550,       70.8404,        2.1894,   -999.250000,     -999.2500
     508.24790,       70.6406,        2.0985,   -999.250000,     -999.2500
     508.40030,       67.4820,        2.1906,   -999.250000,     -999.2500
     508.55270,       65.2266,        2.2676,   -999.250000,     -999.2500
     508.70510,       68.7734,        2.3780,   -999.250000,     -999.2500
     508.85750,       70.4171,        2.4576,   -999.250000,     -999.2500
     509.00990,       72.8512,        2.3869,   -999.250000,     -999.2500
     509.16230,       70.9974,        2.2604,   -999.250000,     -999.2500
