~Version
VERS  .             3.0                                 : CWLS LOG ASCII STANDARD - VERSION 3.0
WRAP  .             NO                                  : One line per depth step
DLM   .             COMMA                               : Delimiter character between data columns
#Delimiting character ( SPACE TAB OR COMMA ).

~Well
#MNEM.UNIT          DATA                                DESCRIPTION
#----- ----        -----------------                   -----------
STRT  .M                  3.80390                       : FIRST INDEX VALUE
STOP  .M               1582.21070                       : LAST INDEX VALUE
STEP  .M                  0.15240                       : STEP OF INDEX
NULL  .             -999.25                             : NULL VALUE
COMP  .                                                 : COMPANY
WELL  .             FURUD                               : WELL
FLD   .                                                 : FIELD
LOC   .                                                 : LOCATION
SRVC  .                                                 : SERVICE COMPANY
CTRY  .                                                 : COUNTRY
PROV  .                                                 : PROVINCE
UWI   .                                                 : UNIQUE WELL ID
LIC   .                                                 : LICENSE NUMBER
STAT  .                                                 : STATE
CNTY  .                                                 : COUNTY
API   .                                                 : API NUMBER
DATE  .                                                 : LOG DATE
X     .             653771.9542756                      : X OR EAST-WEST COORDINATE
Y     .             8157280.499579                      : Y OR NORTH-SOUTH COORDINATE
HZCS  .                                                 : HORIZONTAL CO-ORDINATE SYSTEM
LATI  .             -16.66194444444                     : LATITUDE
LONG  .             154.4419444444                      : LONGITUDE
GDAT  .                                                 : GEODETIC DATUM

~DEVIATION_PARAMETER 
#MNEM.UNIT                    VALUE                        DESCRIPTION
#--------------- ---         ------------                 -----------------

~DEVIATION_DEFINITION 
#MNEM.UNIT                 LOG CODE                  CURVE DESCRIPTION
#----------- ----         ------------              -----------------
DEPTH       .M                                      :     {F}
AZIMUTH     .DEG                                    :     {F}
DEVIATION   .DEG                                    : 90-DIP    {F}

~DEVIATION_DATA | DEVIATION_DEFINITION
      343.0000,       89.5000,        0.5000
      495.0000,       89.7500,        0.2500
      645.0000,       89.5000,        0.5000
      800.0000,       89.2500,        0.7500
      950.0000,       88.7500,        1.2500
     1053.0000,       89.0000,        1.0000
     1201.0000,       89.2500,        0.7500
     1353.0000,       89.5000,        0.5000
     1577.0000,       88.7500,        1.2500

~TOPS_PARAMETER 
#MNEM.UNIT                    VALUE                        DESCRIPTION
#--------------- ---         ------------                 -----------------

~TOPS_DEFINITION 
#MNEM.UNIT                 LOG CODE                  CURVE DESCRIPTION
#----------- ----         ------------              -----------------
DEPTH       .M                                      :     {F}
TOPS        .                                       : Formation Tops    {S24}

~TOPS_DATA | TOPS_DEFINITION
        5.6000,Doyles Creek Subgroup   
      427.1711,Horseshoe Creek Subgroup
      490.4921,Apple Tree Flat Subgroup
      737.0000,Watts Sandstone         
      746.0000,Denman Fm               
      867.1244,Mt Leonard Fm           
      996.0000,Althorpe Fm             
     1003.0000,Malabar Fm              
     1049.2716,Mt Ogilvie Fm           
     1098.2854,Milbrodale Fm           
     1154.9063,Mt Thorley Fm           
     1205.0000,Burnamwood Fm           
     1292.5000,Archerfield Sandstone   
     1322.5000,Mulbring Siltstone      
     1398.5875,Muree Sandstone         
     1506.0000,Branxton Fm             
     1546.0000,Greta Coal Measures     
     1569.7129,Dalwood Group           
     1583.5793,                        

~PARAMETER 
#MNEM.UNIT                    VALUE                        DESCRIPTION
#--------------- ---         ------------                 -----------------

~CURVE 
#MNEM.UNIT                 LOG CODE                  CURVE DESCRIPTION
#----------- ----         ------------              -----------------
DEPTH       .M                                      :     {F}
GR          .GAPI         310010                    : GR_1 (Cleared: Bottom)    {F}
LLD         .OHMM         220100                    :     {F}
NPHI        .V/V          890000                    :     {F}
RHOB        .K/M3         350020                    : Offset applied to log data.    {F}

~ASCII | CURVE 
# ...
     215.79230,       66.8279,        1.6918,   -999.250000,     -999.2500
     215.94470,       67.0735,        1.7270,   -999.250000,     -999.2500
     216.09710,       69.3400,        1.7128,   -999.250000,     -999.2500
     216.24950,       68.9951,        1.6966,   -999.250000,     -999.2500
     216.40190,       68.9634,        1.7279,   -999.250000,     -999.2500
     216.55430,       71.0152,        1.7364,   -999.250000,     -999.2500
     216.70670,       72.4345,        1.7386,   -999.250000,     -999.2500
     216.85910,       78.7267,        1.7308,   -999.250000,     -999.2500
     217.01150,       74.9858,        1.6966,   -999.250000,     -999.2500
     217.16390,       73.3074,        1.7042,   -999.250000,     -999.2500
     217.31630,       69.6654,        1.7443,   -999.250000,     -999.2500
     217.46870,       71.5343,        1.7580,   -999.250000,     -999.2500
     217.62110,       66.9468,        1.7274,   -999.250000,     -999.2500
     217.77350,       67.6650,        1.6301,   -999.250000,     -999.2500
     217.92590,       64.8500,        1.5599,   -999.250000,     -999.2500
     218.07830,       71.2383,        1.4758,   -999.250000,     -999.2500
     218.23070,       72.1959,        1.5221,   -999.250000,     -999.2500
     218.38310,       70.7133,        1.5480,   -999.250000,     -999.2500
     218.53550,       68.1804,        1.5507,   -999.250000,     -999.2500
     218.68790,       68.4380,        1.5568,   -999.250000,     -999.2500
     218.84030,       69.4426,        1.4796,   -999.250000,     -999.2500
     218.99270,       65.1373,        1.4730,   -999.250000,     -999.2500
     219.14510,       64.1397,        1.5350,   -999.250000,     -999.2500
     219.29750,       62.6775,        1.5691,   -999.250000,     -999.2500
     219.44990,       65.1375,        1.6094,   -999.250000,     -999.2500
     219.60230,       66.5263,        1.5780,   -999.250000,     -999.2500
     219.75470,       72.1124,        1.6035,   -999.250000,     -999.2500
     219.90710,       70.9094,        1.5685,   -999.250000,     -999.2500
     220.05950,       67.8451,        1.5596,   -999.250000,     -999.2500
     220.21190,       63.2646,        1.5785,   -999.250000,     -999.2500
     220.36430,       61.7020,        1.5455,   -999.250000,     -999.2500
     220.51670,       59.7759,        1.4711,   -999.250000,     -999.2500
     220.66910,       60.1925,        1.4246,   -999.250000,     -999.2500
     220.82150,       62.4574,        1.4319,   -999.250000,     -999.2500
     220.97390,       64.6443,        1.4161,   -999.250000,     -999.2500
     221.12630,       66.2310,        1.4713,   -999.250000,     -999.2500
     221.27870,       67.0202,        1.4828,   -999.250000,     -999.2500
     221.43110,       63.5279,        1.5690,   -999.250000,     -999.2500
     221.58350,       58.3236,        1.4784,   -999.250000,     -999.2500
     221.73590,       57.1053,        1.4480,   -999.250000,     -999.2500
     221.88830,       59.6990,        1.4440,   -999.250000,     -999.2500
     222.04070,       64.2157,        1.4568,   -999.250000,     -999.2500
     222.19310,       66.0947,        1.4973,   -999.250000,     -999.2500
     222.34550,       67.3868,        1.5889,   -999.250000,     -999.2500
     222.49790,       62.3382,        1.6786,   -999.250000,     -999.2500
     222.65030,       62.6305,        1.7680,   -999.250000,     -999.2500
     222.80270,       56.9966,        1.8594,   -999.250000,     -999.2500
     222.95510,       59.6765,        1.8844,   -999.250000,     -999.2500
     223.10750,       57.3179,        1.8429,   -999.250000,     -999.2500
     223.25990,       61.6933,        1.7868,   -999.250000,     -999.2500
     223.41230,       65.8982,        1.7413,   -999.250000,     -999.2500
     223.56470,       67.7678,        1.7402,   -999.250000,     -999.2500
     223.71710,       69.1329,        1.6875,   -999.250000,     -999.2500
     223.86950,       64.9810,        1.6541,   -999.250000,     -999.2500
     224.02190,       67.6371,        1.5881,   -999.250000,     -999.2500
     224.17430,       69.3519,        1.5609,   -999.250000,     -999.2500
     224.32670,       68.3070,        1.6249,   -999.250000,     -999.2500
     224.47910,       65.3911,        1.6920,   -999.250000,     -999.2500
     224.63150,       62.2498,        1.7897,   -999.250000,     -999.2500
     224.78390,       68.2022,        1.7908,   -999.250000,     -999.2500
     224.93630,       67.1090,        1.7299,   -999.250000,     -999.2500
     225.08870,       71.1939,        1.7283,   -999.250000,     -999.2500
     225.24110,       66.6210,        1.6611,   -999.250000,     -999.2500
     225.39350,       66.9266,        1.7119,   -999.250000,     -999.2500
     225.54590,       67.2206,        1.6801,   -999.250000,     -999.2500
     225.69830,       66.8129,        1.6925,   -999.250000,     -999.2500
     225.85070,       67.7640,        1.7593,   -999.250000,     -999.2500
     226.00310,       60.3130,        1.7204,   -999.250000,     -999.2500
     226.15550,       64.9320,        1.7262,   -999.250000,     -999.2500
     226.30790,       61.7515,        1.6976,   -999.250000,     -999.2500
     226.46030,       63.7860,        1.7287,   -999.250000,     -999.2500
     226.61270,       63.1533,        1.6910,   -999.250000,     -999.2500
     226.76510,       66.2132,        1.7763,   -999.250000,     -999.2500
     226.91750,       64.7590,        1.7468,   -999.250000,     -999.2500
     227.06990,       61.6811,        1.7232,   -999.250000,     -999.2500
     227.22230,       61.0735,        1.7039,   -999.250000,     -999.2500
     227.37470,       62.5359,        1.6670,   -999.250000,     -999.2500
     227.52710,       64.1022,        1.6872,   -999.250000,     -999.2500
     227.67950,       66.5136,        1.6715,   -999.250000,     -999.2500
     227.83190,       66.8960,        1.7006,   -999.250000,     -999.2500
     227.98430,       67.2645,        1.8145,   -999.250000,     -999.2500
     228.13670,       67.9979,        1.9226,   -999.250000,     -999.2500
     228.28910,       67.6311,        1.9069,   -999.250000,     -999.2500
     228.44150,       67.7336,        1.9445,   -999.250000,     -999.2500
     228.59390,       64.2425,        1.7336,   -999.250000,     -999.2500
     228.74630,       61.0145,        1.4897,   -999.250000,     -999.2500
     228.89870,       58.3530,        1.4898,   -999.250000,     -999.2500
     229.05110,       60.7198,        1.4629,   -999.250000,     -999.2500
     229.20350,       63.5999,        1.4903,   -999.250000,     -999.2500
     229.35590,       65.8639,        1.6922,   -999.250000,     -999.2500
     229.50830,       67.9485,        1.7074,   -999.250000,     -999.2500
     229.66070,       70.9145,        1.7246,   -999.250000,     -999.2500
     229.81310,       72.1257,        1.7165,   -999.250000,     -999.2500
     229.96550,       71.6706,        1.6924,   -999.250000,     -999.2500
     230.11790,       70.3886,        1.7014,   -999.250000,     -999.2500
     230.27030,       70.4027,        1.7326,   -999.250000,     -999.2500
     230.42270,       69.7438,        1.7915,   -999.250000,     -999.2500
     230.57510,       66.7717,        1.8184,   -999.250000,     -999.2500
     230.72750,       66.6182,        1.8329,   -999.250000,     -999.2500
     230.87990,       69.5444,        1.7755,   -999.250000,     -999.2500
     231.03230,       73.7459,        1.7998,   -999.250000,     -999.2500
     231.18470,       75.0096,        1.8791,   -999.250000,     -999.2500
     231.33710,       70.8315,        1.8885,   -999.250000,     -999.2500
     231.48950,       66.0713,        1.7736,   -999.250000,     -999.2500
     231.64190,       64.4466,        1.7118,   -999.250000,     -999.2500
     231.79430,       66.2219,        1.6369,   -999.250000,     -999.2500
     231.94670,       72.5718,        1.6463,   -999.250000,     -999.2500
