~Version
VERS  .             3.0                                 : CWLS LOG ASCII STANDARD - VERSION 3.0
WRAP  .             NO                                  : One line per depth step
DLM   .             COMMA                               : Delimiter character between data columns
#Delimiting character ( SPACE TAB OR COMMA ).

~Well
#MNEM.UNIT          DATA                                DESCRIPTION
#----- ----        -----------------                   -----------
STRT  .M                  0.00000                       : FIRST INDEX VALUE
STOP  .M               1564.94520                       : LAST INDEX VALUE
STEP  .M                  0.05080                       : STEP OF INDEX
NULL  .             -999.25                             : NULL VALUE
COMP  .                                                 : COMPANY
WELL  .             GOMEISA                             : WELL
FLD   .                                                 : FIELD
LOC   .                                                 : LOCATION
SRVC  .                                                 : SERVICE COMPANY
CTRY  .                                                 : COUNTRY
PROV  .                                                 : PROVINCE
UWI   .                                                 : UNIQUE WELL ID
LIC   .                                                 : LICENSE NUMBER
STAT  .                                                 : STATE
CNTY  .                                                 : COUNTY
API   .                                                 : API NUMBER
DATE  .                                                 : LOG DATE
X     .             652801.2926295                      : X OR EAST-WEST COORDINATE
Y     .             8158686.05792                       : Y OR NORTH-SOUTH COORDINATE
HZCS  .                                                 : HORIZONTAL CO-ORDINATE SYSTEM
LATI  .             -16.64930555556                     : LATITUDE
LONG  .             154.43275                           : LONGITUDE
GDAT  .                                                 : GEODETIC DATUM

~DEVIATION_PARAMETER 
#MNEM.UNIT                    VALUE                        DESCRIPTION
#--------------- ---         ------------                 -----------------

~DEVIATION_DEFINITION 
#MNEM.UNIT                 LOG CODE                  CURVE DESCRIPTION
#----------- ----         ------------              -----------------
DEPTH       .M                                      :     {F}
AZIMUTH     .DEG                                    :     {F}
DEVIATION   .DEG                                    : 90-DIP    {F}

~DEVIATION_DATA | DEVIATION_DEFINITION
       34.0000,       89.5000,        0.5000
      107.0000,       89.7500,        0.2500
      202.0000,       90.0000,        0.0000
      393.0000,       89.2500,        0.7500
      622.0000,       89.7500,        0.2500
      799.0000,       84.2500,        5.7500
     1006.0000,       85.0000,        5.0000
     1137.0000,       86.0000,        4.0000
     1318.0000,       89.7500,        0.2500
     1390.0000,       89.5000,        0.5000
     1550.0000,       89.5000,        0.5000

~TOPS_PARAMETER 
#MNEM.UNIT                    VALUE                        DESCRIPTION
#--------------- ---         ------------                 -----------------

~TOPS_DEFINITION 
#MNEM.UNIT                 LOG CODE                  CURVE DESCRIPTION
#----------- ----         ------------              -----------------
DEPTH       .M                                      :     {F}
TOPS        .                                       : Formation Tops    {S24}

~TOPS_DATA | TOPS_DEFINITION
        4.8000,Doyles Creek Subgroup   
      444.0926,Horseshoe Creek Subgroup
      519.0943,Apple Tree Flat Subgroup
      739.8466,Watts Sandstone         
      755.0000,Denman Fm               
      898.7954,Mt Leonard Fm           
     1014.2954,Althorpe Fm             
     1021.2757,Malabar Fm              
     1062.5915,Mt Ogilvie Fm           
     1097.3011,Milbrodale Fm           
     1175.8202,Mt Thorley Fm           
     1217.5000,Burnamwood Fm           
     1303.5000,Archerfield Sandstone   
     1334.0000,Mulbring Siltstone      
     1401.8210,Muree Sandstone         
     1514.0000,Branxton Fm             
     1538.5000,Greta Coal Measures     
     1553.7695,Dalwood Group           
     1561.5707,                        

~PARAMETER 
#MNEM.UNIT                    VALUE                        DESCRIPTION
#--------------- ---         ------------                 -----------------

~CURVE 
#MNEM.UNIT                 LOG CODE                  CURVE DESCRIPTION
#----------- ----         ------------              -----------------
DEPTH       .M                                      :     {F}
GR          .GAPI         60310010                  : GR_1 (Cleared: 1 Segment)    {F}
LLD         .OHMM         99220100                  :     {F}
NPHI        .V/V          15890000                  :     {F}
RHOB        .K/M3         15350020                  : Offset applied to log data.    {F}

~ASCII | CURVE 
# ...
    1288.23753,      115.6880,        9.8019,      0.228745,     2299.7240
    1288.28833,      117.4360,       10.2186,      0.230409,     2305.5240
    1288.33913,      119.1860,       10.6356,      0.232075,     2311.4240
    1288.38993,      120.9380,       11.0529,      0.233742,     2317.3240
    1288.44073,      121.7080,       11.3476,      0.238852,     2331.9240
    1288.49153,      122.4790,       11.6426,      0.243967,     2346.6240
    1288.54233,      123.2500,       11.9377,      0.249084,     2361.3230
    1288.59313,      126.0400,       12.0890,      0.259362,     2370.6240
    1288.64393,      128.8310,       12.2404,      0.269646,     2380.0240
    1288.69473,      131.6250,       12.3919,      0.279938,     2389.3240
    1288.74553,      133.7900,       12.1048,      0.285714,     2391.5230
    1288.79633,      135.9570,       11.8175,      0.291494,     2393.6240
    1288.84713,      138.1250,       11.5300,      0.297277,     2395.7240
    1288.89793,      137.8340,       11.4053,      0.295326,     2395.6240
    1288.94873,      137.5420,       11.2805,      0.293374,     2395.5230
    1288.99953,      137.2500,       11.1556,      0.291420,     2395.4240
    1289.05033,      135.9180,       11.1059,      0.286406,     2396.3240
    1289.10113,      134.5840,       11.0562,      0.281388,     2397.3230
    1289.15193,      133.2500,       11.0064,      0.276367,     2398.2240
    1289.20273,      130.4390,       11.3058,      0.270436,     2402.5240
    1289.25353,      127.6270,       11.6053,      0.264500,     2406.7240
    1289.30433,      124.8120,       11.9051,      0.258560,     2411.0230
    1289.35513,      124.8750,       12.0388,      0.251241,     2412.0230
    1289.40593,      124.9370,       12.1726,      0.243917,     2412.9240
    1289.45673,      125.0000,       12.3064,      0.236588,     2413.9240
    1289.50753,      124.9580,       12.2582,      0.234387,     2409.3240
    1289.55833,      124.9170,       12.2099,      0.232184,     2404.7240
    1289.60913,      124.8750,       12.1616,      0.229980,     2400.2240
    1289.65993,      128.8720,       12.1077,      0.233226,     2398.5230
    1289.71073,      132.8720,       12.0537,      0.236473,     2396.9240
    1289.76153,      136.8750,       11.9997,      0.239723,     2395.2240
    1289.81233,      137.3750,       11.9832,      0.244890,     2391.1240
    1289.86313,      137.8750,       11.9667,      0.250060,     2386.9240
    1289.91393,      138.3750,       11.9502,      0.255234,     2382.8240
    1289.96473,      136.4180,       11.7189,      0.255537,     2378.7240
    1290.01553,      134.4600,       11.4874,      0.255841,     2374.6240
    1290.06633,      132.5000,       11.2557,      0.256145,     2370.5240
    1290.11713,      128.1490,       11.2994,      0.255993,     2368.4240
    1290.16793,      123.7950,       11.3431,      0.255840,     2366.3240
    1290.21873,      119.4380,       11.3868,      0.255687,     2364.1240
    1290.26953,      117.2100,       11.4862,      0.252298,     2369.1240
    1290.32033,      114.9810,       11.5856,      0.248907,     2374.1240
    1290.37113,      112.7500,       11.6850,      0.245514,     2379.0230
    1290.42193,      111.1890,       11.7829,      0.245669,     2384.7240
    1290.47273,      109.6260,       11.8809,      0.245824,     2390.4240
    1290.52353,      108.0620,       11.9789,      0.245979,     2396.1240
    1290.57433,      107.5840,       11.8912,      0.244879,     2395.9240
    1290.62513,      107.1040,       11.8035,      0.243778,     2395.6240
    1290.67593,      106.6250,       11.7157,      0.242676,     2395.4240
    1290.72673,      106.1250,       11.3585,      0.247357,     2395.1240
    1290.77753,      105.6250,       11.0011,      0.252041,     2394.9240
    1290.82833,      105.1250,       10.6434,      0.256729,     2394.7240
    1290.87913,      107.0400,       10.5825,      0.260244,     2390.4240
    1290.92993,      108.9570,       10.5216,      0.263761,     2386.2230
    1290.98073,      110.8750,       10.4607,      0.267281,     2381.9240
    1291.03153,      111.5410,       10.3778,      0.268974,     2387.3230
    1291.08233,      112.2080,       10.2949,      0.270668,     2392.8240
    1291.13313,      112.8750,       10.2120,      0.272364,     2398.2240
    1291.18393,      116.2890,       10.1419,      0.272136,     2396.9240
    1291.23473,      119.7060,       10.0719,      0.271907,     2395.6240
    1291.28553,      123.1250,       10.0017,      0.271679,     2394.3230
    1291.33633,      120.8970,       10.3986,      0.269988,     2394.3230
    1291.38713,      118.6680,       10.7958,      0.268295,     2394.3230
    1291.43793,      116.4380,       11.1933,      0.266602,     2394.3230
    1291.48873,      115.5840,       11.6813,      0.261994,     2394.3230
    1291.53953,      114.7300,       12.1698,      0.257383,     2394.3230
    1291.59033,      113.8750,       12.6585,      0.252769,     2394.3230
    1291.64113,      112.5430,       12.8083,      0.251685,     2395.0230
    1291.69193,      111.2090,       12.9581,      0.250599,     2395.6240
    1291.74273,      109.8750,       13.1081,      0.249513,     2396.3240
    1291.79353,      111.3950,       13.2918,      0.249024,     2399.5240
    1291.84433,      112.9160,       13.4757,      0.248536,     2402.8240
    1291.89513,      114.4380,       13.6598,      0.248047,     2406.0240
    1291.94593,      114.2080,       14.2904,      0.251818,     2411.9240
    1291.99673,      113.9790,       14.9214,      0.255592,     2417.8230
    1292.04753,      113.7500,       15.5528,      0.259369,     2423.6240
    1292.09833,      112.9590,       15.2949,      0.256706,     2420.4240
    1292.14913,      112.1670,       15.0367,      0.254040,     2417.1240
    1292.19993,      111.3750,       14.7784,      0.251373,     2413.9240
    1292.25073,      111.9370,       14.7065,      0.247076,     2413.9240
    1292.30153,      112.5000,       14.6346,      0.242775,     2413.9240
    1292.35233,      113.0620,       14.5626,      0.238472,     2413.9240
    1292.40313,      113.7910,       14.8226,      0.233560,     2406.7240
    1292.45393,      114.5200,       15.0828,      0.228644,     2399.5240
    1292.50473,      115.2500,       15.3432,      0.223724,     2392.4240
    1292.55553,      112.7930,       14.8652,      0.215399,     2393.0240
    1292.60633,      110.3350,       14.3870,      0.207068,     2393.7240
    1292.65713,      107.8750,       13.9084,      0.198730,     2394.3230
    1292.70793,      105.2730,       14.2155,      0.192550,     2393.0240
    1292.75873,      102.6680,       14.5228,      0.186365,     2391.7240
    1292.80953,      100.0620,       14.8303,      0.180176,     2390.4240
    1292.86033,       98.0430,       15.5307,      0.174483,     2393.7240
    1292.91113,       96.0222,       16.2315,      0.168786,     2396.9240
    1292.96193,       94.0000,       16.9328,      0.163086,     2400.2240
    1293.01273,       94.7911,       16.6595,      0.160646,     2403.4240
    1293.06353,       95.5828,       16.3860,      0.158205,     2406.7240
    1293.11433,       96.3750,       16.1123,      0.155762,     2409.9240
    1293.16513,       96.9371,       15.9340,      0.163244,     2404.1240
    1293.21593,       97.4996,       15.7557,      0.170731,     2398.2240
    1293.26673,       98.0625,       15.5772,      0.178223,     2392.4240
    1293.31753,       97.7086,       15.2428,      0.187331,     2379.4240
    1293.36833,       97.3544,       14.9082,      0.196446,     2366.3240
    1293.41913,       97.0000,       14.5734,      0.205566,     2353.3240
    1293.46993,       97.0208,       13.8544,      0.211747,     2346.2240
    1293.52073,       97.0417,       13.1350,      0.217932,     2339.0230
    1293.57153,       97.0625,       12.4151,      0.224121,     2331.8230
    1293.62233,       97.9369,       12.3524,      0.226236,     2333.8240
