~Version
VERS  .             3.0                                 : CWLS LOG ASCII STANDARD - VERSION 3.0
WRAP  .             NO                                  : One line per depth step
DLM   .             COMMA                               : Delimiter character between data columns
#Delimiting character ( SPACE TAB OR COMMA ).

~Well
#MNEM.UNIT          DATA                                DESCRIPTION
#----- ----        -----------------                   -----------
STRT  .M                  0.00000                       : FIRST INDEX VALUE
STOP  .M               1564.94520                       : LAST INDEX VALUE
STEP  .M                  0.05080                       : STEP OF INDEX
NULL  .             -999.25                             : NULL VALUE
COMP  .                                                 : COMPANY
WELL  .             GOMEISA                             : WELL
FLD   .                                                 : FIELD
LOC   .                                                 : LOCATION
SRVC  .                                                 : SERVICE COMPANY
CTRY  .                                                 : COUNTRY
PROV  .                                                 : PROVINCE
UWI   .                                                 : UNIQUE WELL ID
LIC   .                                                 : LICENSE NUMBER
STAT  .                                                 : STATE
CNTY  .                                                 : COUNTY
API   .                                                 : API NUMBER
DATE  .                                                 : LOG DATE
X     .             652801.2926295                      : X OR EAST-WEST COORDINATE
Y     .             8158686.05792                       : Y OR NORTH-SOUTH COORDINATE
HZCS  .                                                 : HORIZONTAL CO-ORDINATE SYSTEM
LATI  .             -16.64930555556                     : LATITUDE
LONG  .             154.43275                           : LONGITUDE
GDAT  .                                                 : GEODETIC DATUM

~DEVIATION_PARAMETER 
#MNEM.UNIT                    VALUE                        DESCRIPTION
#--------------- ---         ------------                 -----------------

~DEVIATION_DEFINITION 
#MNEM.UNIT                 LOG CODE                  CURVE DESCRIPTION
#----------- ----         ------------              -----------------
DEPTH       .M                                      :     {F}
AZIMUTH     .DEG                                    :     {F}
DEVIATION   .DEG                                    : 90-DIP    {F}

~DEVIATION_DATA | DEVIATION_DEFINITION
       34.0000,       89.5000,        0.5000
      107.0000,       89.7500,        0.2500
      202.0000,       90.0000,        0.0000
      393.0000,       89.2500,        0.7500
      622.0000,       89.7500,        0.2500
      799.0000,       84.2500,        5.7500
     1006.0000,       85.0000,        5.0000
     1137.0000,       86.0000,        4.0000
     1318.0000,       89.7500,        0.2500
     1390.0000,       89.5000,        0.5000
     1550.0000,       89.5000,        0.5000

~TOPS_PARAMETER 
#MNEM.UNIT                    VALUE                        DESCRIPTION
#--------------- ---         ------------                 -----------------

~TOPS_DEFINITION 
#MNEM.UNIT                 LOG CODE                  CURVE DESCRIPTION
#----------- ----         ------------              -----------------
DEPTH       .M                                      :     {F}
TOPS        .                                       : Formation Tops    {S24}

~TOPS_DATA | TOPS_DEFINITION
        4.8000,Doyles Creek Subgroup   
      444.0926,Horseshoe Creek Subgroup
      519.0943,Apple Tree Flat Subgroup
      739.8466,Watts Sandstone         
      755.0000,Denman Fm               
      898.7954,Mt Leonard Fm           
     1014.2954,Althorpe Fm             
     1021.2757,Malabar Fm              
     1062.5915,Mt Ogilvie Fm           
     1097.3011,Milbrodale Fm           
     1175.8202,Mt Thorley Fm           
     1217.5000,Burnamwood Fm           
     1303.5000,Archerfield Sandstone   
     1334.0000,Mulbring Siltstone      
     1401.8210,Muree Sandstone         
     1514.0000,Branxton Fm             
     1538.5000,Greta Coal Measures     
     1553.7695,Dalwood Group           
     1561.5707,                        

~PARAMETER 
#MNEM.UNIT                    VALUE                        DESCRIPTION
#--------------- ---         ------------                 -----------------

~CURVE 
#MNEM.UNIT                 LOG CODE                  CURVE DESCRIPTION
#----------- ----         ------------              -----------------
DEPTH       .M                                      :     {F}
GR          .GAPI         60310010                  : GR_1 (Cleared: 1 Segment)    {F}
LLD         .OHMM         99220100                  :     {F}
NPHI        .V/V          15890000                  :     {F}
RHOB        .K/M3         15350020                  : Offset applied to log data.    {F}

~ASCII | CURVE 
# ...
    1380.64275,       79.0643,       10.8524,      0.226407,     2414.5230
    1380.69355,       76.5018,       11.7675,      0.216479,     2424.9240
    1380.74435,       73.9375,       12.6833,      0.206543,     2435.3240
    1380.79515,       70.7939,       13.8408,      0.198411,     2450.3230
    1380.84595,       67.6481,       14.9992,      0.190273,     2465.3240
    1380.89675,       64.5000,       16.1584,      0.182129,     2480.3230
    1380.94755,       63.5007,       18.4218,      0.177087,     2492.6240
    1380.99835,       62.5007,       20.6869,      0.172042,     2505.0240
    1381.04915,       61.5000,       22.9536,      0.166992,     2517.4240
    1381.09995,       61.3647,       25.6720,      0.166179,     2523.2240
    1381.15075,       61.2293,       28.3923,      0.165365,     2529.1240
    1381.20155,       61.0938,       31.1145,      0.164551,     2534.9240
    1381.25235,       61.1458,       30.9580,      0.163738,     2533.0230
    1381.30315,       61.1979,       30.8013,      0.162924,     2531.0240
    1381.35395,       61.2500,       30.6446,      0.162109,     2529.1240
    1381.40475,       61.8017,       29.0650,      0.164061,     2521.9240
    1381.45555,       62.3538,       27.4842,      0.166014,     2514.8240
    1381.50635,       62.9062,       25.9024,      0.167969,     2507.6240
    1381.55715,       63.9368,       23.5015,      0.169758,     2499.8230
    1381.60795,       64.9680,       21.0990,      0.171548,     2492.0240
    1381.65875,       66.0000,       18.6947,      0.173340,     2484.2240
    1381.70955,       65.7085,       17.6759,      0.176375,     2476.4240
    1381.76035,       65.4169,       16.6563,      0.179413,     2468.5240
    1381.81115,       65.1250,       15.6361,      0.182453,     2460.7240
    1381.86195,       67.8314,       15.0407,      0.183538,     2456.8230
    1381.91275,       70.5397,       14.4449,      0.184623,     2452.9240
    1381.96355,       73.2500,       13.8487,      0.185709,     2449.0240
    1382.01435,       74.4575,       13.3754,      0.187281,     2443.2240
    1382.06515,       75.6658,       12.9019,      0.188855,     2437.3230
    1382.11595,       76.8750,       12.4280,      0.190430,     2431.4240
    1382.16675,       79.9353,       12.1130,      0.193032,     2424.9240
    1382.21755,       82.9978,       11.7979,      0.195636,     2418.4240
    1382.26835,       86.0625,       11.4825,      0.198242,     2411.9240
    1382.31915,       86.0625,       11.3618,      0.204422,     2406.0240
    1382.36995,       86.0625,       11.2409,      0.210607,     2400.2240
    1382.42075,       86.0625,       11.1201,      0.216797,     2394.3230
    1382.47155,       85.2298,       10.9757,      0.221025,     2390.4240
    1382.52235,       84.3964,       10.8312,      0.225257,     2386.5240
    1382.57315,       83.5625,       10.6867,      0.229492,     2382.6240
    1382.62395,       82.5632,       10.4814,      0.231932,     2382.6240
    1382.67475,       81.5632,       10.2760,      0.234373,     2382.6240
    1382.72555,       80.5625,       10.0704,      0.236816,     2382.6240
    1382.77635,       80.9997,       10.0435,      0.236654,     2384.6240
    1382.82715,       81.4372,       10.0166,      0.236491,     2386.5240
    1382.87795,       81.8750,        9.9896,      0.236328,     2388.5230
    1382.92875,       83.0616,        9.9056,      0.232100,     2394.3230
    1382.97955,       84.2491,        9.8216,      0.227868,     2400.2240
    1383.03035,       85.4375,        9.7374,      0.223633,     2406.0240
    1383.08115,       89.7261,        9.2343,      0.224283,     2410.6240
    1383.13195,       94.0178,        8.7308,      0.224934,     2415.1240
    1383.18275,       98.3125,        8.2270,      0.225586,     2419.7240
    1383.23355,      102.4760,        7.7454,      0.226562,     2423.0240
    1383.28435,      106.6430,        7.2635,      0.227538,     2426.2240
    1383.33515,      110.8120,        6.7812,      0.228516,     2429.5240
    1383.38595,      114.3930,        6.3384,      0.235509,     2428.2240
    1383.43675,      117.9770,        5.8953,      0.242508,     2426.9240
    1383.48755,      121.5620,        5.4519,      0.249512,     2425.6240
    1383.53835,      120.7300,        5.0537,      0.254716,     2426.9240
    1383.58915,      119.8960,        4.6553,      0.259924,     2428.2240
    1383.63995,      119.0620,        4.2565,      0.265137,     2429.5240
    1383.69075,      117.1060,        4.1477,      0.270829,     2426.9240
    1383.74155,      115.1470,        4.0387,      0.276526,     2424.3230
    1383.79235,      113.1880,        3.9296,      0.282227,     2421.7240
    1383.84315,      113.2920,        3.9741,      0.279462,     2421.0230
    1383.89395,      113.3960,        4.0187,      0.276695,     2420.4240
    1383.94475,      113.5000,        4.0633,      0.273926,     2419.7240
    1383.99555,      111.6890,        4.2678,      0.272299,     2418.4240
    1384.04635,      109.8760,        4.4724,      0.270672,     2417.1240
    1384.09715,      108.0620,        4.6773,      0.269043,     2415.8240
    1384.14795,      107.2300,        5.0794,      0.261074,     2412.5240
    1384.19875,      106.3960,        5.4818,      0.253099,     2409.3240
    1384.24955,      105.5620,        5.8845,      0.245117,     2406.0240
    1384.30035,      102.6270,        6.2523,      0.243653,     2402.1240
    1384.35115,       99.6896,        6.6205,      0.242189,     2398.2240
    1384.40195,       96.7500,        6.9888,      0.240723,     2394.3230
    1384.45275,      100.0810,        7.2214,      0.238771,     2395.0230
    1384.50355,      103.4140,        7.4541,      0.236818,     2395.6240
    1384.55435,      106.7500,        7.6870,      0.234863,     2396.3240
    1384.60515,      108.5820,        7.5771,      0.237953,     2402.1240
    1384.65595,      110.4150,        7.4672,      0.241046,     2408.0230
    1384.70675,      112.2500,        7.3572,      0.244141,     2413.9240
    1384.75755,      116.1640,        7.0168,      0.247231,     2419.1240
    1384.80835,      120.0810,        6.6762,      0.250323,     2424.3230
    1384.85915,      124.0000,        6.3354,      0.253418,     2429.5240
    1384.90995,      121.5850,        6.1312,      0.256508,     2432.1240
    1384.96075,      119.1680,        5.9269,      0.259600,     2434.7240
    1385.01155,      116.7500,        5.7225,      0.262695,     2437.3230
    1385.06235,      115.2510,        5.5735,      0.267249,     2436.6240
    1385.11315,      113.7510,        5.4244,      0.271806,     2436.0240
    1385.16395,      112.2500,        5.2752,      0.276367,     2435.3240
    1385.21475,      111.2090,        5.1821,      0.277506,     2434.7240
    1385.26555,      110.1670,        5.0889,      0.278645,     2434.0230
    1385.31635,      109.1250,        4.9956,      0.279785,     2433.4240
    1385.36715,      111.9980,        5.0142,      0.277183,     2434.7240
    1385.41795,      114.8730,        5.0327,      0.274579,     2436.0240
    1385.46875,      117.7500,        5.0513,      0.271973,     2437.3230
    1385.51955,      119.6440,        5.1155,      0.267907,     2436.6240
    1385.57035,      121.5400,        5.1797,      0.263838,     2436.0240
    1385.62115,      123.4380,        5.2440,      0.259766,     2435.3240
    1385.67195,      122.2720,        5.3298,      0.261717,     2434.0230
    1385.72275,      121.1050,        5.4156,      0.263670,     2432.7240
    1385.77355,      119.9380,        5.5015,      0.265625,     2431.4240
    1385.82435,      118.2720,        5.6560,      0.268616,     2427.5230
    1385.87515,      116.6050,        5.8105,      0.271609,     2423.6240
    1385.92595,      114.9380,        5.9652,      0.274605,     2419.7240
    1385.97675,      113.6050,        6.0194,      0.276427,     2422.3240
    1386.02755,      112.2720,        6.0737,      0.278250,     2424.9240
