~Version
VERS  .             3.0                                 : CWLS LOG ASCII STANDARD - VERSION 3.0
WRAP  .             NO                                  : One line per depth step
DLM   .             COMMA                               : Delimiter character between data columns
#Delimiting character ( SPACE TAB OR COMMA ).

~Well
#MNEM.UNIT          DATA                                DESCRIPTION
#----- ----        -----------------                   -----------
STRT  .M                  0.00000                       : FIRST INDEX VALUE
STOP  .M               1564.94520                       : LAST INDEX VALUE
STEP  .M                  0.05080                       : STEP OF INDEX
NULL  .             -999.25                             : NULL VALUE
COMP  .                                                 : COMPANY
WELL  .             GOMEISA                             : WELL
FLD   .                                                 : FIELD
LOC   .                                                 : LOCATION
SRVC  .                                                 : SERVICE COMPANY
CTRY  .                                                 : COUNTRY
PROV  .                                                 : PROVINCE
UWI   .                                                 : UNIQUE WELL ID
LIC   .                                                 : LICENSE NUMBER
STAT  .                                                 : STATE
CNTY  .                                                 : COUNTY
API   .                                                 : API NUMBER
DATE  .                                                 : LOG DATE
X     .             652801.2926295                      : X OR EAST-WEST COORDINATE
Y     .             8158686.05792                       : Y OR NORTH-SOUTH COORDINATE
HZCS  .                                                 : HORIZONTAL CO-ORDINATE SYSTEM
LATI  .             -16.64930555556                     : LATITUDE
LONG  .             154.43275                           : LONGITUDE
GDAT  .                                                 : GEODETIC DATUM

~DEVIATION_PARAMETER 
#MNEM.UNIT                    VALUE                        DESCRIPTION
#--------------- ---         ------------                 -----------------

~DEVIATION_DEFINITION 
#MNEM.UNIT                 LOG CODE                  CURVE DESCRIPTION
#----------- ----         ------------              -----------------
DEPTH       .M                                      :     {F}
AZIMUTH     .DEG                                    :     {F}
DEVIATION   .DEG                                    : 90-DIP    {F}

~DEVIATION_DATA | DEVIATION_DEFINITION
       34.0000,       89.5000,        0.5000
      107.0000,       89.7500,        0.2500
      202.0000,       90.0000,        0.0000
      393.0000,       89.2500,        0.7500
      622.0000,       89.7500,        0.2500
      799.0000,       84.2500,        5.7500
     1006.0000,       85.0000,        5.0000
     1137.0000,       86.0000,        4.0000
     1318.0000,       89.7500,        0.2500
     1390.0000,       89.5000,        0.5000
     1550.0000,       89.5000,        0.5000

~TOPS_PARAMETER 
#MNEM.UNIT                    VALUE                        DESCRIPTION
#--------------- ---         ------------                 -----------------

~TOPS_DEFINITION 
#MNEM.UNIT                 LOG CODE                  CURVE DESCRIPTION
#----------- ----         ------------              -----------------
DEPTH       .M                                      :     {F}
TOPS        .                                       : Formation Tops    {S24}

~TOPS_DATA | TOPS_DEFINITION
        4.8000,Doyles Creek Subgroup   
      444.0926,Horseshoe Creek Subgroup
      519.0943,Apple Tree Flat Subgroup
      739.8466,Watts Sandstone         
      755.0000,Denman Fm               
      898.7954,Mt Leonard Fm           
     1014.2954,Althorpe Fm             
     1021.2757,Malabar Fm              
     1062.5915,Mt Ogilvie Fm           
     1097.3011,Milbrodale Fm           
     1175.8202,Mt Thorley Fm           
     1217.5000,Burnamwood Fm           
     1303.5000,Archerfield Sandstone   
     1334.0000,Mulbring Siltstone      
     1401.8210,Muree Sandstone         
     1514.0000,Branxton Fm             
     1538.5000,Greta Coal Measures     
     1553.7695,Dalwood Group           
     1561.5707,                        

~PARAMETER 
#MNEM.UNIT                    VALUE                        DESCRIPTION
#--------------- ---         ------------                 -----------------

~CURVE 
#MNEM.UNIT                 LOG CODE                  CURVE DESCRIPTION
#----------- ----         ------------              -----------------
DEPTH       .M                                      :     {F}
GR          .GAPI         60310010                  : GR_1 (Cleared: 1 Segment)    {F}
LLD         .OHMM         99220100                  :     {F}
NPHI        .V/V          15890000                  :     {F}
RHOB        .K/M3         15350020                  : Offset applied to log data.    {F}

~ASCII | CURVE 
# ...
    1016.45746,       76.2083,        2.1209,      0.314389,     2335.1240
    1016.50826,       76.3125,        2.0711,      0.311231,     2333.8240
    1016.55906,       74.8966,        2.0416,      0.311491,     2332.5230
    1016.60986,       73.4799,        2.0120,      0.311751,     2331.2240
    1016.66066,       72.0625,        1.9825,      0.312012,     2329.9240
    1016.71146,       73.5617,        2.0172,      0.319170,     2330.5240
    1016.76226,       75.0617,        2.0520,      0.326331,     2331.2240
    1016.81306,       76.5625,        2.0868,      0.333496,     2331.8230
    1016.86386,       77.2705,        2.0809,      0.331056,     2330.5240
    1016.91466,       77.9788,        2.0750,      0.328614,     2329.2240
    1016.96546,       78.6875,        2.0690,      0.326172,     2327.9240
    1017.01626,       80.1451,        2.0466,      0.319924,     2327.4240
    1017.06706,       81.6034,        2.0242,      0.313673,     2326.9240
    1017.11786,       83.0625,        2.0018,      0.307419,     2326.3240
    1017.16866,       80.8345,        2.0757,      0.306346,     2329.0230
    1017.21946,       78.6053,        2.1496,      0.305273,     2331.6240
    1017.27026,       76.3750,        2.2235,      0.304199,     2334.2240
    1017.32106,       74.8758,        2.2765,      0.303093,     2339.1240
    1017.37186,       73.3758,        2.3295,      0.301987,     2344.0240
    1017.42266,       71.8750,        2.3826,      0.300880,     2349.0230
    1017.47346,       71.0837,        2.3832,      0.299025,     2354.3230
    1017.52426,       70.2921,        2.3839,      0.297170,     2359.7230
    1017.57506,       69.5000,        2.3846,      0.295313,     2365.0230
    1017.62586,       69.2710,        2.5174,      0.296484,     2367.6240
    1017.67666,       69.0418,        2.6502,      0.297656,     2370.2240
    1017.72746,       68.8125,        2.7831,      0.298828,     2372.8240
    1017.77826,       66.6262,        2.9719,      0.294405,     2373.4240
    1017.82906,       64.4387,        3.1608,      0.289980,     2373.9240
    1017.87986,       62.2500,        3.3498,      0.285553,     2374.4240
    1017.93066,       60.3448,        3.2235,      0.282101,     2374.5240
    1017.98146,       58.4385,        3.0971,      0.278647,     2374.7240
    1018.03226,       56.5312,        2.9706,      0.275192,     2374.8230
    1018.08306,       56.2814,        3.1708,      0.271029,     2376.3240
    1018.13386,       56.0314,        3.3711,      0.266863,     2377.9240
    1018.18466,       55.7812,        3.5715,      0.262695,     2379.5240
    1018.23546,       54.9588,        3.9506,      0.256935,     2382.3240
    1018.28626,       54.1359,        4.3298,      0.251173,     2385.2240
    1018.33706,       53.3125,        4.7093,      0.245407,     2388.1240
    1018.38786,       52.3443,        4.7969,      0.237990,     2390.2240
    1018.43866,       51.3755,        4.8846,      0.230569,     2392.2240
    1018.48946,       50.4062,        4.9723,      0.223145,     2394.3230
    1018.54026,       50.3125,        5.5015,      0.213221,     2397.6240
    1018.59106,       50.2188,        6.0309,      0.203292,     2400.8230
    1018.64186,       50.1250,        6.5606,      0.193359,     2404.1240
    1018.69266,       50.4998,        7.3504,      0.200080,     2401.5230
    1018.74346,       50.8748,        8.1406,      0.206804,     2398.9240
    1018.79426,       51.2500,        8.9313,      0.213531,     2396.3240
    1018.84506,       52.3640,        8.1919,      0.219825,     2395.0230
    1018.89586,       53.4786,        7.4522,      0.226122,     2393.7240
    1018.94666,       54.5938,        6.7120,      0.232422,     2392.4240
    1018.99746,       54.3543,        6.1344,      0.237496,     2383.3230
    1019.04826,       54.1147,        5.5566,      0.242572,     2374.1240
    1019.09906,       53.8750,        4.9784,      0.247650,     2365.0230
    1019.14986,       55.9156,        4.5278,      0.251753,     2358.5230
    1019.20066,       57.9573,        4.0769,      0.255857,     2352.0230
    1019.25146,       60.0000,        3.6258,      0.259964,     2345.5230
    1019.30226,       61.5200,        3.4046,      0.263607,     2342.2240
    1019.35306,       63.0409,        3.1833,      0.267251,     2339.0230
    1019.40386,       64.5625,        2.9619,      0.270897,     2335.7240
    1019.45466,       65.2288,        2.7971,      0.274152,     2335.7240
    1019.50546,       65.8955,        2.6321,      0.277408,     2335.7240
    1019.55626,       66.5625,        2.4671,      0.280666,     2335.7240
    1019.60706,       67.1039,        2.3771,      0.283138,     2340.3240
    1019.65786,       67.6455,        2.2871,      0.285612,     2344.8230
    1019.70866,       68.1875,        2.1970,      0.288086,     2349.4240
    1019.75946,       68.2500,        2.1807,      0.289606,     2347.4240
    1019.81026,       68.3125,        2.1644,      0.291127,     2345.5230
    1019.86106,       68.3750,        2.1481,      0.292648,     2343.5240
    1019.91186,       69.6660,        2.1258,      0.294382,     2340.5240
    1019.96266,       70.9576,        2.1035,      0.296116,     2337.5240
    1020.01346,       72.2500,        2.0811,      0.297852,     2334.4240
    1020.06426,       72.9163,        2.1428,      0.295899,     2333.6240
    1020.11506,       73.5830,        2.2045,      0.293946,     2332.7240
    1020.16586,       74.2500,        2.2663,      0.291992,     2331.8230
    1020.21666,       72.3552,        2.3953,      0.301265,     2325.3230
    1020.26746,       70.4593,        2.5244,      0.310543,     2318.8230
    1020.31826,       68.5625,        2.6536,      0.319824,     2312.3230
    1020.36906,       64.5854,        2.8357,      0.325681,     2298.0240
    1020.41986,       60.6063,        3.0179,      0.331540,     2283.7240
    1020.47066,       56.6250,        3.2002,      0.337402,     2269.3230
    1020.52146,       53.1685,        3.4320,      0.345862,     2249.8230
    1020.57226,       49.7102,        3.6640,      0.354326,     2230.3230
    1020.62306,       46.2500,        3.8961,      0.362793,     2210.7240
    1020.67386,       45.1881,        4.1911,      0.352218,     2225.0240
    1020.72466,       44.1256,        4.4863,      0.341639,     2239.4240
    1020.77546,       43.0625,        4.7817,      0.331055,     2253.7240
    1020.82626,       43.0833,        4.9870,      0.324547,     2278.4240
    1020.87706,       43.1042,        5.1925,      0.318037,     2303.2240
    1020.92786,       43.1250,        5.3980,      0.311523,     2327.9240
    1020.97866,       43.9475,        5.6464,      0.301274,     2362.4240
    1021.02946,       44.7704,        5.8949,      0.291020,     2396.9240
    1021.08026,       45.5938,        6.1435,      0.280762,     2431.4240
    1021.13106,       45.4272,        6.8951,      0.281575,     2423.6240
    1021.18186,       45.2605,        7.6471,      0.282389,     2415.8240
    1021.23266,       45.0938,        8.3995,      0.283203,     2408.0230
    1021.28346,       46.0412,        8.9921,      0.283040,     2405.4240
    1021.33426,       46.9891,        9.5849,      0.282878,     2402.8240
    1021.38506,       47.9375,       10.1781,      0.282715,     2400.2240
    1021.43586,       46.9484,       10.4591,      0.285643,     2400.2240
    1021.48666,       45.9589,       10.7402,      0.288573,     2400.2240
    1021.53746,       44.9688,       11.0215,      0.291504,     2400.2240
    1021.58826,       46.0619,       11.5935,      0.284508,     2403.4240
    1021.63906,       47.1557,       12.1659,      0.277510,     2406.7240
    1021.68986,       48.2500,       12.7385,      0.270508,     2409.9240
    1021.74066,       48.9163,       13.0200,      0.263675,     2410.6240
    1021.79146,       49.5830,       13.3016,      0.256839,     2411.3230
    1021.84226,       50.2500,       13.5834,      0.250000,     2411.9240
