~Version
VERS  .             3.0                                 : CWLS LOG ASCII STANDARD - VERSION 3.0
WRAP  .             NO                                  : One line per depth step
DLM   .             COMMA                               : Delimiter character between data columns
#Delimiting character ( SPACE TAB OR COMMA ).

~Well
#MNEM.UNIT          DATA                                DESCRIPTION
#----- ----        -----------------                   -----------
STRT  .M                  0.00000                       : FIRST INDEX VALUE
STOP  .M               1564.94520                       : LAST INDEX VALUE
STEP  .M                  0.05080                       : STEP OF INDEX
NULL  .             -999.25                             : NULL VALUE
COMP  .                                                 : COMPANY
WELL  .             GOMEISA                             : WELL
FLD   .                                                 : FIELD
LOC   .                                                 : LOCATION
SRVC  .                                                 : SERVICE COMPANY
CTRY  .                                                 : COUNTRY
PROV  .                                                 : PROVINCE
UWI   .                                                 : UNIQUE WELL ID
LIC   .                                                 : LICENSE NUMBER
STAT  .                                                 : STATE
CNTY  .                                                 : COUNTY
API   .                                                 : API NUMBER
DATE  .                                                 : LOG DATE
X     .             652801.2926295                      : X OR EAST-WEST COORDINATE
Y     .             8158686.05792                       : Y OR NORTH-SOUTH COORDINATE
HZCS  .                                                 : HORIZONTAL CO-ORDINATE SYSTEM
LATI  .             -16.64930555556                     : LATITUDE
LONG  .             154.43275                           : LONGITUDE
GDAT  .                                                 : GEODETIC DATUM

~DEVIATION_PARAMETER 
#MNEM.UNIT                    VALUE                        DESCRIPTION
#--------------- ---         ------------                 -----------------

~DEVIATION_DEFINITION 
#MNEM.UNIT                 LOG CODE                  CURVE DESCRIPTION
#----------- ----         ------------              -----------------
DEPTH       .M                                      :     {F}
AZIMUTH     .DEG                                    :     {F}
DEVIATION   .DEG                                    : 90-DIP    {F}

~DEVIATION_DATA | DEVIATION_DEFINITION
       34.0000,       89.5000,        0.5000
      107.0000,       89.7500,        0.2500
      202.0000,       90.0000,        0.0000
      393.0000,       89.2500,        0.7500
      622.0000,       89.7500,        0.2500
      799.0000,       84.2500,        5.7500
     1006.0000,       85.0000,        5.0000
     1137.0000,       86.0000,        4.0000
     1318.0000,       89.7500,        0.2500
     1390.0000,       89.5000,        0.5000
     1550.0000,       89.5000,        0.5000

~TOPS_PARAMETER 
#MNEM.UNIT                    VALUE                        DESCRIPTION
#--------------- ---         ------------                 -----------------

~TOPS_DEFINITION 
#MNEM.UNIT                 LOG CODE                  CURVE DESCRIPTION
#----------- ----         ------------              -----------------
DEPTH       .M                                      :     {F}
TOPS        .                                       : Formation Tops    {S24}

~TOPS_DATA | TOPS_DEFINITION
        4.8000,Doyles Creek Subgroup   
      444.0926,Horseshoe Creek Subgroup
      519.0943,Apple Tree Flat Subgroup
      739.8466,Watts Sandstone         
      755.0000,Denman Fm               
      898.7954,Mt Leonard Fm           
     1014.2954,Althorpe Fm             
     1021.2757,Malabar Fm              
     1062.5915,Mt Ogilvie Fm           
     1097.3011,Milbrodale Fm           
     1175.8202,Mt Thorley Fm           
     1217.5000,Burnamwood Fm           
     1303.5000,Archerfield Sandstone   
     1334.0000,Mulbring Siltstone      
     1401.8210,Muree Sandstone         
     1514.0000,Branxton Fm             
     1538.5000,Greta Coal Measures     
     1553.7695,Dalwood Group           
     1561.5707,                        

~PARAMETER 
#MNEM.UNIT                    VALUE                        DESCRIPTION
#--------------- ---         ------------                 -----------------

~CURVE 
#MNEM.UNIT                 LOG CODE                  CURVE DESCRIPTION
#----------- ----         ------------              -----------------
DEPTH       .M                                      :     {F}
GR          .GAPI         60310010                  : GR_1 (Cleared: 1 Segment)    {F}
LLD         .OHMM         99220100                  :     {F}
NPHI        .V/V          15890000                  :     {F}
RHOB        .K/M3         15350020                  : Offset applied to log data.    {F}

~ASCII | CURVE 
# ...
    1195.83231,       52.5311,        9.3280,      0.282141,     2173.6240
    1195.88311,       52.7188,        9.5856,      0.284435,     2171.7240
    1195.93391,       53.6765,        9.9691,      0.284308,     2177.5230
    1195.98471,       54.6348,       10.3528,      0.284180,     2183.4240
    1196.03551,       55.5938,       10.7368,      0.284052,     2189.2230
    1196.08631,       56.3329,       11.0356,      0.280422,     2195.7230
    1196.13711,       57.0725,       11.3347,      0.276790,     2202.3240
    1196.18791,       57.8125,       11.6339,      0.273155,     2208.8240
    1196.23871,       57.6355,       12.0758,      0.267500,     2214.6240
    1196.28951,       57.4584,       12.5179,      0.261842,     2220.5230
    1196.34031,       57.2812,       12.9603,      0.256180,     2226.4240
    1196.39111,       55.1784,       12.7083,      0.252763,     2225.0240
    1196.44191,       53.0742,       12.4561,      0.249343,     2223.8230
    1196.49271,       50.9688,       12.2038,      0.245922,     2222.4240
    1196.54351,       50.3129,       11.0778,      0.243546,     2217.2240
    1196.59431,       49.6567,        9.9511,      0.241168,     2212.0240
    1196.64511,       49.0000,        8.8237,      0.238789,     2206.8230
    1196.69591,       47.4281,        8.3249,      0.242996,     2197.1240
    1196.74671,       45.8551,        7.8259,      0.247206,     2187.3230
    1196.79751,       44.2812,        7.3265,      0.251419,     2177.5230
    1196.84831,       45.4056,        7.3528,      0.260193,     2163.2240
    1196.89911,       46.5306,        7.3791,      0.268971,     2148.9240
    1196.94991,       47.6562,        7.4055,      0.277756,     2134.6240
    1197.00071,       47.7812,        7.4971,      0.285899,     2124.8230
    1197.05151,       47.9062,        7.5888,      0.294047,     2115.0230
    1197.10231,       48.0312,        7.6806,      0.302200,     2105.3230
    1197.15311,       47.2401,        7.9480,      0.297575,     2104.0240
    1197.20391,       46.4484,        8.2156,      0.292946,     2102.7240
    1197.25471,       45.6562,        8.4833,      0.288315,     2101.4240
    1197.30551,       43.9386,        8.9317,      0.275388,     2112.4240
    1197.35631,       42.2198,        9.3805,      0.262454,     2123.5240
    1197.40711,       40.5000,        9.8295,      0.249512,     2134.6240
    1197.45791,       40.5208,        9.7466,      0.240799,     2141.8230
    1197.50871,       40.5417,        9.6636,      0.232081,     2149.1240
    1197.55951,       40.5625,        9.5807,      0.223358,     2156.4240
    1197.61031,       41.8742,        9.3712,      0.222051,     2165.3240
    1197.66111,       43.1867,        9.1615,      0.220742,     2174.1240
    1197.71191,       44.5000,        8.9517,      0.219433,     2183.0240
    1197.76271,       46.1032,        9.0468,      0.220344,     2190.5240
    1197.81351,       47.7073,        9.1419,      0.221256,     2198.1240
    1197.86431,       49.3125,        9.2370,      0.222168,     2205.7240
    1197.91511,       49.6352,        9.4726,      0.223079,     2211.9240
    1197.96591,       49.9581,        9.7084,      0.223991,     2218.2230
    1198.01671,       50.2812,        9.9443,      0.224903,     2224.4240
    1198.06751,       50.6664,       10.6892,      0.226595,     2232.2240
    1198.11831,       51.0518,       11.4346,      0.228287,     2240.0230
    1198.16911,       51.4375,       12.1804,      0.229980,     2247.8240
    1198.21991,       51.7498,       12.4530,      0.228029,     2249.8230
    1198.27071,       52.0623,       12.7257,      0.226075,     2251.7230
    1198.32151,       52.3750,       12.9987,      0.224121,     2253.7240
    1198.37231,       52.6769,       12.7769,      0.223340,     2255.7240
    1198.42311,       52.9790,       12.5550,      0.222559,     2257.6240
    1198.47391,       53.2812,       12.3329,      0.221777,     2259.6240
    1198.52471,       54.0308,       12.4537,      0.220802,     2260.9240
    1198.57551,       54.7808,       12.5746,      0.219826,     2262.2240
    1198.62631,       55.5312,       12.6955,      0.218849,     2263.5230
    1198.67711,       55.0107,       12.8082,      0.217156,     2266.7240
    1198.72791,       54.4899,       12.9208,      0.215463,     2270.0230
    1198.77871,       53.9688,       13.0336,      0.213768,     2273.2240
    1198.82951,       55.1763,       12.9763,      0.211686,     2273.2240
    1198.88031,       56.3847,       12.9189,      0.209604,     2273.2240
    1198.93111,       57.5938,       12.8615,      0.207520,     2273.2240
    1198.98191,       56.8234,       12.6762,      0.208495,     2275.8230
    1199.03271,       56.0526,       12.4909,      0.209472,     2278.4240
    1199.08351,       55.2812,       12.3054,      0.210449,     2281.0240
    1199.13431,       56.4992,       12.2623,      0.210124,     2282.3230
    1199.18511,       57.7180,       12.2192,      0.209798,     2283.6240
    1199.23591,       58.9375,       12.1760,      0.209473,     2284.9240
    1199.28671,       58.9791,       12.3050,      0.209310,     2285.6240
    1199.33751,       59.0208,       12.4340,      0.209147,     2286.3230
    1199.38831,       59.0625,       12.5631,      0.208984,     2286.9240
    1199.43911,       59.2811,       12.8154,      0.207520,     2283.0230
    1199.48991,       59.4999,       13.0678,      0.206056,     2279.1240
    1199.54071,       59.7188,       13.3204,      0.204590,     2275.2240
    1199.59151,       58.5944,       13.5290,      0.206542,     2280.0230
    1199.64231,       57.4694,       13.7377,      0.208495,     2284.7240
    1199.69311,       56.3438,       13.9466,      0.210449,     2289.5230
    1199.74391,       56.4687,       14.2084,      0.214516,     2298.4240
    1199.79471,       56.5937,       14.4703,      0.218585,     2307.3240
    1199.84551,       56.7188,       14.7324,      0.222656,     2316.2240
    1199.89631,       56.8020,       15.1015,      0.224283,     2316.2240
    1199.94711,       56.8854,       15.4709,      0.225910,     2316.2240
    1199.99791,       56.9688,       15.8405,      0.227539,     2316.2240
    1200.04871,       57.0520,       15.9048,      0.224611,     2316.8240
    1200.09951,       57.1354,       15.9691,      0.221681,     2317.5240
    1200.15031,       57.2188,       16.0335,      0.218750,     2318.2240
    1200.20111,       54.8244,       15.5972,      0.220191,     2314.2230
    1200.25191,       52.4286,       15.1607,      0.221633,     2310.3240
    1200.30271,       50.0312,       14.7239,      0.223076,     2306.4240
    1200.35351,       47.9596,       14.5310,      0.224842,     2296.0230
    1200.40431,       45.8867,       14.3380,      0.226610,     2285.6240
    1200.45511,       43.8125,       14.1448,      0.228378,     2275.2240
    1200.50591,       43.3545,       13.7818,      0.229934,     2262.2240
    1200.55671,       42.8961,       13.4185,      0.231490,     2249.1240
    1200.60751,       42.4375,       13.0550,      0.233047,     2236.1240
    1200.65831,       42.9892,       12.8176,      0.229517,     2231.6240
    1200.70911,       43.5413,       12.5802,      0.225985,     2227.0230
    1200.75991,       44.0938,       12.3425,      0.222450,     2222.4240
    1200.81071,       44.6143,       12.4435,      0.221380,     2224.4240
    1200.86151,       45.1351,       12.5445,      0.220310,     2226.4240
    1200.91231,       45.6562,       12.6455,      0.219238,     2228.3240
    1200.96311,       45.5834,       12.5998,      0.217195,     2228.3240
    1201.01391,       45.5105,       12.5540,      0.215150,     2228.3240
    1201.06471,       45.4375,       12.5081,      0.213104,     2228.3240
    1201.11551,       44.2716,       12.1894,      0.215310,     2225.0240
    1201.16631,       43.1049,       11.8706,      0.217518,     2221.8240
    1201.21711,       41.9375,       11.5515,      0.219727,     2218.5240
