~Version
VERS  .             3.0                                 : CWLS LOG ASCII STANDARD - VERSION 3.0
WRAP  .             NO                                  : One line per depth step
DLM   .             COMMA                               : Delimiter character between data columns
#Delimiting character ( SPACE TAB OR COMMA ).

~Well
#MNEM.UNIT          DATA                                DESCRIPTION
#----- ----        -----------------                   -----------
STRT  .M                  0.00000                       : FIRST INDEX VALUE
STOP  .M               1564.94520                       : LAST INDEX VALUE
STEP  .M                  0.05080                       : STEP OF INDEX
NULL  .             -999.25                             : NULL VALUE
COMP  .                                                 : COMPANY
WELL  .             GOMEISA                             : WELL
FLD   .                                                 : FIELD
LOC   .                                                 : LOCATION
SRVC  .                                                 : SERVICE COMPANY
CTRY  .                                                 : COUNTRY
PROV  .                                                 : PROVINCE
UWI   .                                                 : UNIQUE WELL ID
LIC   .                                                 : LICENSE NUMBER
STAT  .                                                 : STATE
CNTY  .                                                 : COUNTY
API   .                                                 : API NUMBER
DATE  .                                                 : LOG DATE
X     .             652801.2926295                      : X OR EAST-WEST COORDINATE
Y     .             8158686.05792                       : Y OR NORTH-SOUTH COORDINATE
HZCS  .                                                 : HORIZONTAL CO-ORDINATE SYSTEM
LATI  .             -16.64930555556                     : LATITUDE
LONG  .             154.43275                           : LONGITUDE
GDAT  .                                                 : GEODETIC DATUM

~DEVIATION_PARAMETER 
#MNEM.UNIT                    VALUE                        DESCRIPTION
#--------------- ---         ------------                 -----------------

~DEVIATION_DEFINITION 
#MNEM.UNIT                 LOG CODE                  CURVE DESCRIPTION
#----------- ----         ------------              -----------------
DEPTH       .M                                      :     {F}
AZIMUTH     .DEG                                    :     {F}
DEVIATION   .DEG                                    : 90-DIP    {F}

~DEVIATION_DATA | DEVIATION_DEFINITION
       34.0000,       89.5000,        0.5000
      107.0000,       89.7500,        0.2500
      202.0000,       90.0000,        0.0000
      393.0000,       89.2500,        0.7500
      622.0000,       89.7500,        0.2500
      799.0000,       84.2500,        5.7500
     1006.0000,       85.0000,        5.0000
     1137.0000,       86.0000,        4.0000
     1318.0000,       89.7500,        0.2500
     1390.0000,       89.5000,        0.5000
     1550.0000,       89.5000,        0.5000

~TOPS_PARAMETER 
#MNEM.UNIT                    VALUE                        DESCRIPTION
#--------------- ---         ------------                 -----------------

~TOPS_DEFINITION 
#MNEM.UNIT                 LOG CODE                  CURVE DESCRIPTION
#----------- ----         ------------              -----------------
DEPTH       .M                                      :     {F}
TOPS        .                                       : Formation Tops    {S24}

~TOPS_DATA | TOPS_DEFINITION
        4.8000,Doyles Creek Subgroup   
      444.0926,Horseshoe Creek Subgroup
      519.0943,Apple Tree Flat Subgroup
      739.8466,Watts Sandstone         
      755.0000,Denman Fm               
      898.7954,Mt Leonard Fm           
     1014.2954,Althorpe Fm             
     1021.2757,Malabar Fm              
     1062.5915,Mt Ogilvie Fm           
     1097.3011,Milbrodale Fm           
     1175.8202,Mt Thorley Fm           
     1217.5000,Burnamwood Fm           
     1303.5000,Archerfield Sandstone   
     1334.0000,Mulbring Siltstone      
     1401.8210,Muree Sandstone         
     1514.0000,Branxton Fm             
     1538.5000,Greta Coal Measures     
     1553.7695,Dalwood Group           
     1561.5707,                        

~PARAMETER 
#MNEM.UNIT                    VALUE                        DESCRIPTION
#--------------- ---         ------------                 -----------------

~CURVE 
#MNEM.UNIT                 LOG CODE                  CURVE DESCRIPTION
#----------- ----         ------------              -----------------
DEPTH       .M                                      :     {F}
GR          .GAPI         60310010                  : GR_1 (Cleared: 1 Segment)    {F}
LLD         .OHMM         99220100                  :     {F}
NPHI        .V/V          15890000                  :     {F}
RHOB        .K/M3         15350020                  : Offset applied to log data.    {F}

~ASCII | CURVE 
# ...
    1103.42708,      113.9590,        7.0169,      0.291829,     2382.6240
    1103.47788,      112.0430,        7.0684,      0.291692,     2386.5240
    1103.52868,      110.1250,        7.1201,      0.291555,     2390.4240
    1103.57948,      111.5200,        7.2963,      0.288935,     2392.4240
    1103.63028,      112.9160,        7.4727,      0.286314,     2394.3230
    1103.68108,      114.3120,        7.6491,      0.283691,     2396.3240
    1103.73188,      118.0190,        7.8116,      0.282986,     2388.5230
    1103.78268,      121.7270,        7.9743,      0.282280,     2380.7240
    1103.83348,      125.4380,        8.1370,      0.281574,     2372.8240
    1103.88428,      124.9590,        8.0967,      0.281032,     2364.4240
    1103.93508,      124.4790,        8.0563,      0.280490,     2355.9240
    1103.98588,      124.0000,        8.0160,      0.279947,     2347.4240
    1104.03668,      120.8140,        7.9757,      0.277616,     2339.6240
    1104.08748,      117.6270,        7.9354,      0.275283,     2331.8230
    1104.13828,      114.4380,        7.8951,      0.272949,     2324.0240
    1104.18908,      112.1260,        7.8547,      0.271106,     2321.4240
    1104.23988,      109.8140,        7.8143,      0.269261,     2318.8230
    1104.29068,      107.5000,        7.7738,      0.267416,     2316.2240
    1104.34148,      109.5610,        7.7063,      0.268392,     2320.7230
    1104.39228,      111.6240,        7.6387,      0.269368,     2325.3230
    1104.44308,      113.6880,        7.5711,      0.270345,     2329.9240
    1104.49388,      114.5410,        7.7593,      0.273490,     2329.9240
    1104.54468,      115.3950,        7.9476,      0.276637,     2329.9240
    1104.59548,      116.2500,        8.1360,      0.279785,     2329.9240
    1104.64628,      115.9590,        8.3425,      0.280924,     2331.2240
    1104.69708,      115.6670,        8.5492,      0.282063,     2332.5230
    1104.74788,      115.3750,        8.7560,      0.283203,     2333.8240
    1104.79868,      116.2910,        8.8331,      0.282552,     2330.5240
    1104.84948,      117.2080,        8.9103,      0.281901,     2327.3240
    1104.90028,      118.1250,        8.9875,      0.281250,     2324.0240
    1104.95108,      117.6880,        8.9109,      0.283202,     2325.3230
    1105.00188,      117.2500,        8.8343,      0.285155,     2326.6240
    1105.05268,      116.8120,        8.7576,      0.287109,     2327.9240
    1105.10348,      115.8130,        8.6421,      0.283693,     2331.2240
    1105.15428,      114.8130,        8.5265,      0.280275,     2334.4240
    1105.20508,      113.8120,        8.4109,      0.276855,     2337.7240
    1105.25588,      113.7080,        8.4458,      0.275013,     2339.6240
    1105.30668,      113.6040,        8.4806,      0.273169,     2341.6240
    1105.35748,      113.5000,        8.5155,      0.271324,     2343.5240
    1105.40828,      113.6040,        8.5040,      0.269588,     2342.9240
    1105.45908,      113.7080,        8.4924,      0.267851,     2342.2240
    1105.50988,      113.8120,        8.4808,      0.266113,     2341.6240
    1105.56068,      113.5210,        8.3131,      0.264487,     2337.7240
    1105.61148,      113.2290,        8.1454,      0.262859,     2333.8240
    1105.66228,      112.9380,        7.9775,      0.261230,     2329.9240
    1105.71308,      110.1270,        7.9577,      0.261122,     2327.3240
    1105.76388,      107.3140,        7.9380,      0.261014,     2324.7240
    1105.81468,      104.5000,        7.9182,      0.260905,     2322.1240
    1105.86548,      103.2720,        7.7992,      0.262371,     2324.7240
    1105.91628,      102.0420,        7.6801,      0.263837,     2327.3240
    1105.96708,      100.8120,        7.5610,      0.265305,     2329.9240
    1106.01788,      101.5200,        7.4017,      0.268339,     2331.2240
    1106.06868,      102.2290,        7.2423,      0.271376,     2332.5230
    1106.11948,      102.9380,        7.0829,      0.274414,     2333.8240
    1106.17028,      102.5000,        7.1328,      0.273601,     2337.7240
    1106.22108,      102.0630,        7.1828,      0.272787,     2341.6240
    1106.27188,      101.6250,        7.2328,      0.271973,     2345.5230
    1106.32268,      100.2920,        7.2073,      0.267743,     2344.8230
    1106.37348,       98.9591,        7.1817,      0.263511,     2344.2240
    1106.42428,       97.6250,        7.1561,      0.259277,     2343.5240
    1106.47508,       94.9390,        7.1127,      0.258139,     2347.4240
    1106.52588,       92.2515,        7.0693,      0.256999,     2351.4240
    1106.57668,       89.5625,        7.0258,      0.255859,     2355.3230
    1106.62748,       88.1675,        6.9738,      0.255469,     2350.0240
    1106.67828,       86.7716,        6.9218,      0.255078,     2344.9240
    1106.72908,       85.3750,        6.8697,      0.254687,     2339.6240
    1106.77988,       85.2709,        6.6656,      0.257030,     2340.3240
    1106.83068,       85.1667,        6.4614,      0.259374,     2340.9240
    1106.88148,       85.0625,        6.2570,      0.261719,     2341.6240
    1106.93228,       86.8948,        5.9755,      0.263020,     2344.8230
    1106.98308,       88.7281,        5.6939,      0.264322,     2348.1240
    1107.03388,       90.5625,        5.4120,      0.265625,     2351.4240
    1107.08468,       92.1241,        5.1072,      0.266703,     2357.9240
    1107.13548,       93.6866,        4.8022,      0.267781,     2364.4240
    1107.18628,       95.2500,        4.4970,      0.268860,     2370.9240
    1107.23708,       96.1037,        4.2343,      0.275102,     2370.9240
    1107.28788,       96.9578,        3.9713,      0.281348,     2370.9240
    1107.33868,       97.8125,        3.7083,      0.287598,     2370.9240
    1107.38948,       97.7709,        3.6226,      0.287923,     2354.0240
    1107.44028,       97.7292,        3.5369,      0.288249,     2337.0240
    1107.49108,       97.6875,        3.4511,      0.288574,     2320.1240
    1107.54188,       99.0201,        3.3276,      0.299636,     2314.9240
    1107.59268,      100.3530,        3.2041,      0.310704,     2309.7240
    1107.64348,      101.6880,        3.0804,      0.321777,     2304.5240
    1107.69428,      101.2290,        3.1597,      0.318524,     2303.2240
    1107.74508,      100.7710,        3.2391,      0.315269,     2301.9240
    1107.79588,      100.3120,        3.3185,      0.312012,     2300.6240
    1107.84668,       98.6260,        3.5115,      0.312174,     2310.3240
    1107.89748,       96.9385,        3.7047,      0.312337,     2320.1240
    1107.94828,       95.2500,        3.8979,      0.312500,     2329.9240
    1107.99908,       92.3558,        4.0965,      0.301306,     2331.2240
    1108.04988,       89.4600,        4.2952,      0.290106,     2332.5230
    1108.10068,       86.5625,        4.4940,      0.278900,     2333.8240
    1108.15148,       85.9170,        4.7980,      0.276202,     2336.4240
    1108.20228,       85.2712,        5.1021,      0.273502,     2339.0230
    1108.25308,       84.6250,        5.4065,      0.270801,     2341.6240
    1108.30388,       86.6447,        5.4632,      0.270150,     2346.8240
    1108.35468,       88.6655,        5.5199,      0.269500,     2352.0230
    1108.40548,       90.6875,        5.5767,      0.268848,     2357.2240
    1108.45628,       92.1658,        5.4190,      0.268687,     2350.0240
    1108.50708,       93.6450,        5.2613,      0.268526,     2342.9240
    1108.55788,       95.1250,        5.1035,      0.268364,     2335.7240
    1108.60868,       96.4367,        5.0551,      0.272006,     2319.5230
    1108.65948,       97.7492,        5.0067,      0.275651,     2303.2240
    1108.71028,       99.0625,        4.9582,      0.279297,     2286.9240
    1108.76108,       98.0006,        5.0103,      0.288895,     2262.8230
    1108.81188,       96.9381,        5.0624,      0.298497,     2238.7240
