~Version
VERS  .             3.0                                 : CWLS LOG ASCII STANDARD - VERSION 3.0
WRAP  .             NO                                  : One line per depth step
DLM   .             COMMA                               : Delimiter character between data columns
#Delimiting character ( SPACE TAB OR COMMA ).

~Well
#MNEM.UNIT          DATA                                DESCRIPTION
#----- ----        -----------------                   -----------
STRT  .M                  0.00000                       : FIRST INDEX VALUE
STOP  .M               1564.94520                       : LAST INDEX VALUE
STEP  .M                  0.05080                       : STEP OF INDEX
NULL  .             -999.25                             : NULL VALUE
COMP  .                                                 : COMPANY
WELL  .             GOMEISA                             : WELL
FLD   .                                                 : FIELD
LOC   .                                                 : LOCATION
SRVC  .                                                 : SERVICE COMPANY
CTRY  .                                                 : COUNTRY
PROV  .                                                 : PROVINCE
UWI   .                                                 : UNIQUE WELL ID
LIC   .                                                 : LICENSE NUMBER
STAT  .                                                 : STATE
CNTY  .                                                 : COUNTY
API   .                                                 : API NUMBER
DATE  .                                                 : LOG DATE
X     .             652801.2926295                      : X OR EAST-WEST COORDINATE
Y     .             8158686.05792                       : Y OR NORTH-SOUTH COORDINATE
HZCS  .                                                 : HORIZONTAL CO-ORDINATE SYSTEM
LATI  .             -16.64930555556                     : LATITUDE
LONG  .             154.43275                           : LONGITUDE
GDAT  .                                                 : GEODETIC DATUM

~DEVIATION_PARAMETER 
#MNEM.UNIT                    VALUE                        DESCRIPTION
#--------------- ---         ------------                 -----------------

~DEVIATION_DEFINITION 
#MNEM.UNIT                 LOG CODE                  CURVE DESCRIPTION
#----------- ----         ------------              -----------------
DEPTH       .M                                      :     {F}
AZIMUTH     .DEG                                    :     {F}
DEVIATION   .DEG                                    : 90-DIP    {F}

~DEVIATION_DATA | DEVIATION_DEFINITION
       34.0000,       89.5000,        0.5000
      107.0000,       89.7500,        0.2500
      202.0000,       90.0000,        0.0000
      393.0000,       89.2500,        0.7500
      622.0000,       89.7500,        0.2500
      799.0000,       84.2500,        5.7500
     1006.0000,       85.0000,        5.0000
     1137.0000,       86.0000,        4.0000
     1318.0000,       89.7500,        0.2500
     1390.0000,       89.5000,        0.5000
     1550.0000,       89.5000,        0.5000

~TOPS_PARAMETER 
#MNEM.UNIT                    VALUE                        DESCRIPTION
#--------------- ---         ------------                 -----------------

~TOPS_DEFINITION 
#MNEM.UNIT                 LOG CODE                  CURVE DESCRIPTION
#----------- ----         ------------              -----------------
DEPTH       .M                                      :     {F}
TOPS        .                                       : Formation Tops    {S24}

~TOPS_DATA | TOPS_DEFINITION
        4.8000,Doyles Creek Subgroup   
      444.0926,Horseshoe Creek Subgroup
      519.0943,Apple Tree Flat Subgroup
      739.8466,Watts Sandstone         
      755.0000,Denman Fm               
      898.7954,Mt Leonard Fm           
     1014.2954,Althorpe Fm             
     1021.2757,Malabar Fm              
     1062.5915,Mt Ogilvie Fm           
     1097.3011,Milbrodale Fm           
     1175.8202,Mt Thorley Fm           
     1217.5000,Burnamwood Fm           
     1303.5000,Archerfield Sandstone   
     1334.0000,Mulbring Siltstone      
     1401.8210,Muree Sandstone         
     1514.0000,Branxton Fm             
     1538.5000,Greta Coal Measures     
     1553.7695,Dalwood Group           
     1561.5707,                        

~PARAMETER 
#MNEM.UNIT                    VALUE                        DESCRIPTION
#--------------- ---         ------------                 -----------------

~CURVE 
#MNEM.UNIT                 LOG CODE                  CURVE DESCRIPTION
#----------- ----         ------------              -----------------
DEPTH       .M                                      :     {F}
GR          .GAPI         60310010                  : GR_1 (Cleared: 1 Segment)    {F}
LLD         .OHMM         99220100                  :     {F}
NPHI        .V/V          15890000                  :     {F}
RHOB        .K/M3         15350020                  : Offset applied to log data.    {F}

~ASCII | CURVE 
# ...
    1467.61238,       71.6250,       28.2165,      0.160576,     2388.5230
    1467.66318,       70.7923,       29.0228,      0.159678,     2391.1240
    1467.71398,       69.9590,       29.8297,      0.158779,     2393.7240
    1467.76478,       69.1250,       30.6373,      0.157879,     2396.3240
    1467.81558,       68.0217,       31.7991,      0.158130,     2395.0230
    1467.86638,       66.9175,       32.9617,      0.158382,     2393.7240
    1467.91718,       65.8125,       34.1253,      0.158634,     2392.4240
    1467.96798,       66.6868,       32.5824,      0.159327,     2391.7240
    1468.01878,       67.5618,       31.0384,      0.160020,     2391.1240
    1468.06958,       68.4375,       29.4932,      0.160713,     2390.4240
    1468.12038,       68.5832,       28.1917,      0.161457,     2382.0230
    1468.17118,       68.7291,       26.8893,      0.162202,     2373.5240
    1468.22198,       68.8750,       25.5859,      0.162947,     2365.0230
    1468.27278,       68.2921,       24.8089,      0.163644,     2361.1240
    1468.32358,       67.7088,       24.0313,      0.164341,     2357.2240
    1468.37438,       67.1250,       23.2531,      0.165039,     2353.3240
    1468.42518,       67.4581,       22.5599,      0.163644,     2346.8240
    1468.47598,       67.7914,       21.8661,      0.162248,     2340.3240
    1468.52678,       68.1250,       21.1719,      0.160851,     2333.8240
    1468.57758,       67.7503,       21.1411,      0.159430,     2335.7240
    1468.62838,       67.3753,       21.1103,      0.158008,     2337.7240
    1468.67918,       67.0000,       21.0795,      0.156585,     2339.6240
    1468.72998,       69.0609,       22.2645,      0.155804,     2343.7230
    1468.78078,       71.1234,       23.4504,      0.155023,     2347.9240
    1468.83158,       73.1875,       24.6372,      0.154242,     2352.0230
    1468.88238,       74.8737,       25.9352,      0.156372,     2356.8240
    1468.93318,       76.5612,       27.2341,      0.158503,     2361.6240
    1468.98398,       78.2500,       28.5341,      0.160637,     2366.3240
    1469.03478,       80.6024,       28.7828,      0.161736,     2365.9240
    1469.08558,       82.9565,       29.0317,      0.162836,     2365.5230
    1469.13638,       85.3125,       29.2809,      0.163937,     2365.0230
    1469.18718,       84.1259,       29.4792,      0.164732,     2365.0230
    1469.23798,       82.9384,       29.6776,      0.165527,     2365.0230
    1469.28878,       81.7500,       29.8762,      0.166323,     2365.0230
    1469.33958,       78.6898,       29.9079,      0.167326,     2365.0230
    1469.39038,       75.6273,       29.9396,      0.168331,     2365.0230
    1469.44118,       72.5625,       29.9713,      0.169336,     2365.0230
    1469.49198,       72.0629,       30.0382,      0.169127,     2365.3230
    1469.54278,       71.5629,       30.1050,      0.168918,     2365.5230
    1469.59358,       71.0625,       30.1720,      0.168709,     2365.8240
    1469.64438,       70.5004,       30.8103,      0.169322,     2365.8240
    1469.69518,       69.9379,       31.4491,      0.169937,     2365.8240
    1469.74598,       69.3750,       32.0884,      0.170551,     2365.8240
    1469.79678,       70.6032,       32.5102,      0.168507,     2364.2240
    1469.84758,       71.8324,       32.9324,      0.166461,     2362.7240
    1469.89838,       73.0625,       33.3548,      0.164413,     2361.1240
    1469.94918,       73.5413,       33.7443,      0.163985,     2358.3230
    1469.99998,       74.0205,       34.1342,      0.163557,     2355.5230
    1470.05078,       74.5000,       34.5243,      0.163128,     2352.7240
    1470.10158,       75.9989,       34.9226,      0.163114,     2353.5240
    1470.15238,       77.4989,       35.3213,      0.163100,     2354.4240
    1470.20318,       79.0000,       35.7203,      0.163086,     2355.3230
    1470.25398,       78.8751,       36.8020,      0.161505,     2361.1240
    1470.30478,       78.7501,       37.8846,      0.159924,     2367.0240
    1470.35558,       78.6250,       38.9680,      0.158340,     2372.8240
    1470.40638,       76.6265,       36.9972,      0.159596,     2374.1240
    1470.45718,       74.6265,       35.0248,      0.160852,     2375.4240
    1470.50798,       72.6250,       33.0510,      0.162109,     2376.7230
    1470.55878,       69.9395,       30.7129,      0.158206,     2369.6240
    1470.60958,       67.2520,       28.3731,      0.154300,     2362.4240
    1470.66038,       64.5625,       26.0315,      0.150391,     2355.3230
    1470.71118,       61.6793,       24.9072,      0.152017,     2345.5230
    1470.76198,       58.7939,       23.7821,      0.153644,     2335.7240
    1470.81278,       55.9062,       22.6561,      0.155273,     2326.0230
    1470.86358,       55.1672,       22.0369,      0.152834,     2322.7240
    1470.91438,       54.4276,       21.4173,      0.150393,     2319.5230
    1470.96518,       53.6875,       20.7973,      0.147949,     2316.2240
    1471.01598,       54.4161,       21.1631,      0.149250,     2319.5230
    1471.06678,       55.1453,       21.5292,      0.150552,     2322.7240
    1471.11758,       55.8750,       21.8955,      0.151855,     2326.0230
    1471.16838,       57.3634,       23.2122,      0.149904,     2330.5240
    1471.21918,       58.8530,       24.5298,      0.147951,     2335.1240
    1471.26998,       60.3438,       25.8485,      0.145996,     2339.6240
    1471.32078,       59.1780,       26.1989,      0.148598,     2340.9240
    1471.37158,       58.0113,       26.5497,      0.151202,     2342.2240
    1471.42238,       56.8438,       26.9007,      0.153809,     2343.5240
    1471.47318,       57.4162,       26.6457,      0.154459,     2342.9240
    1471.52398,       57.9891,       26.3906,      0.155110,     2342.2240
    1471.57478,       58.5625,       26.1353,      0.155762,     2341.6240
    1471.62558,       60.1134,       25.7399,      0.158201,     2340.3240
    1471.67638,       61.6655,       25.3442,      0.160642,     2339.0230
    1471.72718,       63.2188,       24.9482,      0.163086,     2337.7240
    1471.77798,       66.1228,       24.4465,      0.161622,     2338.3230
    1471.82878,       69.0290,       23.9445,      0.160157,     2339.0230
    1471.87958,       71.9375,       23.4420,      0.158691,     2339.6240
    1471.93038,       70.6885,       24.0654,      0.160480,     2340.9240
    1471.98118,       69.4385,       24.6893,      0.162271,     2342.2240
    1472.03198,       68.1875,       25.3137,      0.164062,     2343.5240
    1472.08278,       66.8135,       26.0386,      0.164225,     2349.4240
    1472.13358,       65.4385,       26.7640,      0.164388,     2355.3230
    1472.18438,       64.0625,       27.4900,      0.164551,     2361.1240
    1472.23518,       63.3651,       28.7769,      0.160648,     2370.9240
    1472.28598,       62.6672,       30.0647,      0.156742,     2380.6240
    1472.33678,       61.9688,       31.3536,      0.152832,     2390.4240
    1472.38758,       62.6349,       34.6250,      0.143400,     2404.7240
    1472.43838,       63.3016,       37.8988,      0.133960,     2419.0240
    1472.48918,       63.9688,       41.1752,      0.124512,     2433.4240
    1472.53998,       63.9583,       44.0104,      0.120446,     2438.6240
    1472.59078,       63.9479,       46.8477,      0.116377,     2443.8230
    1472.64158,       63.9375,       49.6871,      0.112305,     2449.0240
    1472.69238,       62.7613,       48.7414,      0.117183,     2438.0230
    1472.74318,       61.5842,       47.7950,      0.122066,     2426.9240
    1472.79398,       60.4062,       46.8478,      0.126953,     2415.8240
    1472.84478,       59.9379,       44.5993,      0.135735,     2400.9240
    1472.89558,       59.4691,       42.3490,      0.144524,     2385.9240
    1472.94638,       59.0000,       40.0970,      0.153320,     2370.9240
    1472.99718,       57.9279,       35.9278,      0.153971,     2365.7240
