~Version
VERS  .             3.0                                 : CWLS LOG ASCII STANDARD - VERSION 3.0
WRAP  .             NO                                  : One line per depth step
DLM   .             COMMA                               : Delimiter character between data columns
#Delimiting character ( SPACE TAB OR COMMA ).

~Well
#MNEM.UNIT          DATA                                DESCRIPTION
#----- ----        -----------------                   -----------
STRT  .M                  0.00000                       : FIRST INDEX VALUE
STOP  .M               1564.94520                       : LAST INDEX VALUE
STEP  .M                  0.05080                       : STEP OF INDEX
NULL  .             -999.25                             : NULL VALUE
COMP  .                                                 : COMPANY
WELL  .             GOMEISA                             : WELL
FLD   .                                                 : FIELD
LOC   .                                                 : LOCATION
SRVC  .                                                 : SERVICE COMPANY
CTRY  .                                                 : COUNTRY
PROV  .                                                 : PROVINCE
UWI   .                                                 : UNIQUE WELL ID
LIC   .                                                 : LICENSE NUMBER
STAT  .                                                 : STATE
CNTY  .                                                 : COUNTY
API   .                                                 : API NUMBER
DATE  .                                                 : LOG DATE
X     .             652801.2926295                      : X OR EAST-WEST COORDINATE
Y     .             8158686.05792                       : Y OR NORTH-SOUTH COORDINATE
HZCS  .                                                 : HORIZONTAL CO-ORDINATE SYSTEM
LATI  .             -16.64930555556                     : LATITUDE
LONG  .             154.43275                           : LONGITUDE
GDAT  .                                                 : GEODETIC DATUM

~DEVIATION_PARAMETER 
#MNEM.UNIT                    VALUE                        DESCRIPTION
#--------------- ---         ------------                 -----------------

~DEVIATION_DEFINITION 
#MNEM.UNIT                 LOG CODE                  CURVE DESCRIPTION
#----------- ----         ------------              -----------------
DEPTH       .M                                      :     {F}
AZIMUTH     .DEG                                    :     {F}
DEVIATION   .DEG                                    : 90-DIP    {F}

~DEVIATION_DATA | DEVIATION_DEFINITION
       34.0000,       89.5000,        0.5000
      107.0000,       89.7500,        0.2500
      202.0000,       90.0000,        0.0000
      393.0000,       89.2500,        0.7500
      622.0000,       89.7500,        0.2500
      799.0000,       84.2500,        5.7500
     1006.0000,       85.0000,        5.0000
     1137.0000,       86.0000,        4.0000
     1318.0000,       89.7500,        0.2500
     1390.0000,       89.5000,        0.5000
     1550.0000,       89.5000,        0.5000

~TOPS_PARAMETER 
#MNEM.UNIT                    VALUE                        DESCRIPTION
#--------------- ---         ------------                 -----------------

~TOPS_DEFINITION 
#MNEM.UNIT                 LOG CODE                  CURVE DESCRIPTION
#----------- ----         ------------              -----------------
DEPTH       .M                                      :     {F}
TOPS        .                                       : Formation Tops    {S24}

~TOPS_DATA | TOPS_DEFINITION
        4.8000,Doyles Creek Subgroup   
      444.0926,Horseshoe Creek Subgroup
      519.0943,Apple Tree Flat Subgroup
      739.8466,Watts Sandstone         
      755.0000,Denman Fm               
      898.7954,Mt Leonard Fm           
     1014.2954,Althorpe Fm             
     1021.2757,Malabar Fm              
     1062.5915,Mt Ogilvie Fm           
     1097.3011,Milbrodale Fm           
     1175.8202,Mt Thorley Fm           
     1217.5000,Burnamwood Fm           
     1303.5000,Archerfield Sandstone   
     1334.0000,Mulbring Siltstone      
     1401.8210,Muree Sandstone         
     1514.0000,Branxton Fm             
     1538.5000,Greta Coal Measures     
     1553.7695,Dalwood Group           
     1561.5707,                        

~PARAMETER 
#MNEM.UNIT                    VALUE                        DESCRIPTION
#--------------- ---         ------------                 -----------------

~CURVE 
#MNEM.UNIT                 LOG CODE                  CURVE DESCRIPTION
#----------- ----         ------------              -----------------
DEPTH       .M                                      :     {F}
GR          .GAPI         60310010                  : GR_1 (Cleared: 1 Segment)    {F}
LLD         .OHMM         99220100                  :     {F}
NPHI        .V/V          15890000                  :     {F}
RHOB        .K/M3         15350020                  : Offset applied to log data.    {F}

~ASCII | CURVE 
# ...
    1560.01760,     -999.2500,       89.0000,      0.066406,     2781.0240
    1560.06840,     -999.2500,       89.0000,      0.066406,     2777.1240
    1560.11920,     -999.2500,       89.0000,      0.066406,     2773.2240
    1560.17000,     -999.2500,       89.0000,      0.066406,     2766.1240
    1560.22080,     -999.2500,       89.0000,      0.066406,     2758.9240
    1560.27160,     -999.2500,       89.0000,      0.066406,     2751.7230
    1560.32240,     -999.2500,       89.0000,      0.066406,     2750.4240
    1560.37320,     -999.2500,       89.0000,      0.066406,     2749.1240
    1560.42400,     -999.2500,       89.0000,      0.066406,     2747.8240
    1560.47480,     -999.2500,       89.0000,      0.066406,     2749.1240
    1560.52560,     -999.2500,       89.0000,      0.066406,     2750.4240
    1560.57640,     -999.2500,       89.0000,      0.066406,     2751.7230
    1560.62720,     -999.2500,       89.0000,      0.066406,     2755.0240
    1560.67800,     -999.2500,       89.0000,      0.066406,     2758.2230
    1560.72880,     -999.2500,       89.0000,      0.066406,     2761.5240
    1560.77960,     -999.2500,       89.0000,      0.066406,     2762.8230
    1560.83040,     -999.2500,       89.0000,      0.066406,     2764.1240
    1560.88120,     -999.2500,       89.0000,      0.066406,     2765.4240
    1560.93200,     -999.2500,       89.0000,      0.066406,     2765.4240
    1560.98280,     -999.2500,       89.0000,      0.066406,     2765.4240
    1561.03360,     -999.2500,       89.0000,      0.066406,     2765.4240
    1561.08440,     -999.2500,       89.0000,      0.066406,     2765.4240
    1561.13520,     -999.2500,       89.0000,      0.066406,     2765.4240
    1561.18600,     -999.2500,       89.0000,      0.066406,     2765.4240
    1561.23680,     -999.2500,       89.0000,      0.066406,     2764.8240
    1561.28760,     -999.2500,       89.0000,      0.066406,     2764.1240
    1561.33840,     -999.2500,       89.0000,      0.066406,     2763.5230
    1561.38920,     -999.2500,       89.0000,      0.066406,     2763.5230
    1561.44000,     -999.2500,       89.0000,      0.066406,     2763.5230
    1561.49080,     -999.2500,       89.0000,      0.066406,     2763.5230
    1561.54160,     -999.2500,       89.0000,      0.066406,     2764.1240
    1561.59240,     -999.2500,       89.0000,      0.066406,     2764.8240
    1561.64320,     -999.2500,       89.0000,      0.066406,     2765.4240
    1561.69400,     -999.2500,       89.0000,      0.066406,     2760.9240
    1561.74480,     -999.2500,       89.0000,      0.066406,     2756.3230
    1561.79560,     -999.2500,       89.0000,      0.066406,     2751.7230
    1561.84640,     -999.2500,       68.9176,      0.066406,     2757.6240
    1561.89720,     -999.2500,       48.8189,      0.066406,     2763.5230
    1561.94800,     -999.2500,       28.7039,      0.066406,     2769.3230
    1561.99880,     -999.2500,     -999.2500,      0.066406,     2768.0240
    1562.04960,     -999.2500,     -999.2500,      0.066406,     2766.7240
    1562.10040,     -999.2500,     -999.2500,      0.066406,     2765.4240
    1562.15120,     -999.2500,     -999.2500,      0.066406,     2772.6240
    1562.20200,     -999.2500,     -999.2500,      0.066406,     2779.7240
    1562.25280,     -999.2500,     -999.2500,      0.066406,     2786.9240
    1562.30360,     -999.2500,     -999.2500,      0.066406,     2780.4240
    1562.35440,     -999.2500,     -999.2500,      0.066406,     2773.9240
    1562.40520,     -999.2500,     -999.2500,      0.066406,     2767.4240
    1562.45600,     -999.2500,     -999.2500,      0.066406,     2766.7240
    1562.50680,     -999.2500,     -999.2500,      0.066406,     2766.1240
    1562.55760,     -999.2500,     -999.2500,      0.066406,     2765.4240
    1562.60840,     -999.2500,     -999.2500,      0.066406,     2761.5240
    1562.65920,     -999.2500,     -999.2500,      0.066406,     2757.6240
    1562.71000,     -999.2500,     -999.2500,      0.066406,     2753.7240
    1562.76080,     -999.2500,     -999.2500,      0.066406,     2753.7240
    1562.81160,     -999.2500,     -999.2500,      0.066406,     2753.7240
    1562.86240,     -999.2500,     -999.2500,      0.066406,     2753.7240
    1562.91320,     -999.2500,     -999.2500,      0.066406,     2755.7240
    1562.96400,     -999.2500,     -999.2500,      0.066406,     2757.6240
    1563.01480,     -999.2500,     -999.2500,      0.066406,     2759.6240
    1563.06560,     -999.2500,     -999.2500,      0.066406,     2757.0230
    1563.11640,     -999.2500,     -999.2500,      0.066406,     2754.3240
    1563.16720,     -999.2500,     -999.2500,      0.066406,     2751.7230
    1563.21800,     -999.2500,     -999.2500,      0.066406,     2751.7230
    1563.26880,     -999.2500,     -999.2500,      0.066406,     2751.7230
    1563.31960,     -999.2500,     -999.2500,      0.066406,     2751.7230
    1563.37040,     -999.2500,     -999.2500,      0.066406,     2748.5240
    1563.42120,     -999.2500,     -999.2500,      0.066406,     2745.2240
    1563.47200,     -999.2500,     -999.2500,      0.066406,     2742.0240
    1563.52280,     -999.2500,     -999.2500,      0.069008,     2743.9240
    1563.57360,     -999.2500,     -999.2500,      0.071612,     2745.9240
    1563.62440,     -999.2500,     -999.2500,      0.074219,     2747.8240
    1563.67520,     -999.2500,     -999.2500,      0.086089,     2747.8240
    1563.72600,     -999.2500,     -999.2500,      0.097971,     2747.8240
    1563.77680,     -999.2500,     -999.2500,      0.109863,     2747.8240
    1563.82760,     -999.2500,     -999.2500,      0.109863,     2750.4240
    1563.87840,     -999.2500,     -999.2500,      0.109863,     2753.0240
    1563.92920,     -999.2500,     -999.2500,      0.109863,     2755.7240
    1563.98000,     -999.2500,     -999.2500,      0.109863,     2757.0230
    1564.03080,     -999.2500,     -999.2500,      0.109863,     2758.2230
    1564.08160,     -999.2500,     -999.2500,      0.109863,     2759.6240
    1564.13240,     -999.2500,     -999.2500,      0.109863,     2755.0240
    1564.18320,     -999.2500,     -999.2500,      0.109863,     2750.5230
    1564.23400,     -999.2500,     -999.2500,      0.109863,     2745.9240
    1564.28480,     -999.2500,     -999.2500,      0.109863,     2743.9240
    1564.33560,     -999.2500,     -999.2500,      0.109863,     2742.0240
    1564.38640,     -999.2500,     -999.2500,      0.109863,     2740.0230
    1564.43720,     -999.2500,     -999.2500,      0.109863,     2736.8230
    1564.48800,     -999.2500,     -999.2500,      0.109863,     2733.5230
    1564.53880,     -999.2500,     -999.2500,      0.109863,     2730.3230
    1564.58960,     -999.2500,     -999.2500,      0.109863,     2731.6240
    1564.64040,     -999.2500,     -999.2500,      0.109863,     2732.9240
    1564.69120,     -999.2500,     -999.2500,      0.109863,     2734.2240
    1564.74200,     -999.2500,     -999.2500,      0.109863,     2732.9240
    1564.79280,     -999.2500,     -999.2500,      0.109863,     2731.6240
    1564.84360,     -999.2500,     -999.2500,      0.109863,     2730.3230
    1564.89440,     -999.2500,     -999.2500,      0.109863,     2730.3230
    1564.94520,     -999.2500,     -999.2500,      0.109863,     2730.3230
