~Version
VERS  .             3.0                                 : CWLS LOG ASCII STANDARD - VERSION 3.0
WRAP  .             NO                                  : One line per depth step
DLM   .             COMMA                               : Delimiter character between data columns
#Delimiting character ( SPACE TAB OR COMMA ).

~Well
#MNEM.UNIT          DATA                                DESCRIPTION
#----- ----        -----------------                   -----------
STRT  .M                  0.00000                       : FIRST INDEX VALUE
STOP  .M               1564.94520                       : LAST INDEX VALUE
STEP  .M                  0.05080                       : STEP OF INDEX
NULL  .             -999.25                             : NULL VALUE
COMP  .                                                 : COMPANY
WELL  .             GOMEISA                             : WELL
FLD   .                                                 : FIELD
LOC   .                                                 : LOCATION
SRVC  .                                                 : SERVICE COMPANY
CTRY  .                                                 : COUNTRY
PROV  .                                                 : PROVINCE
UWI   .                                                 : UNIQUE WELL ID
LIC   .                                                 : LICENSE NUMBER
STAT  .                                                 : STATE
CNTY  .                                                 : COUNTY
API   .                                                 : API NUMBER
DATE  .                                                 : LOG DATE
X     .             652801.2926295                      : X OR EAST-WEST COORDINATE
Y     .             8158686.05792                       : Y OR NORTH-SOUTH COORDINATE
HZCS  .                                                 : HORIZONTAL CO-ORDINATE SYSTEM
LATI  .             -16.64930555556                     : LATITUDE
LONG  .             154.43275                           : LONGITUDE
GDAT  .                                                 : GEODETIC DATUM

~DEVIATION_PARAMETER 
#MNEM.UNIT                    VALUE                        DESCRIPTION
#--------------- ---         ------------                 -----------------

~DEVIATION_DEFINITION 
#MNEM.UNIT                 LOG CODE                  CURVE DESCRIPTION
#----------- ----         ------------              -----------------
DEPTH       .M                                      :     {F}
AZIMUTH     .DEG                                    :     {F}
DEVIATION   .DEG                                    : 90-DIP    {F}

~DEVIATION_DATA | DEVIATION_DEFINITION
       34.0000,       89.5000,        0.5000
      107.0000,       89.7500,        0.2500
      202.0000,       90.0000,        0.0000
      393.0000,       89.2500,        0.7500
      622.0000,       89.7500,        0.2500
      799.0000,       84.2500,        5.7500
     1006.0000,       85.0000,        5.0000
     1137.0000,       86.0000,        4.0000
     1318.0000,       89.7500,        0.2500
     1390.0000,       89.5000,        0.5000
     1550.0000,       89.5000,        0.5000

~TOPS_PARAMETER 
#MNEM.UNIT                    VALUE                        DESCRIPTION
#--------------- ---         ------------                 -----------------

~TOPS_DEFINITION 
#MNEM.UNIT                 LOG CODE                  CURVE DESCRIPTION
#----------- ----         ------------              -----------------
DEPTH       .M                                      :     {F}
TOPS        .                                       : Formation Tops    {S24}

~TOPS_DATA | TOPS_DEFINITION
        4.8000,Doyles Creek Subgroup   
      444.0926,Horseshoe Creek Subgroup
      519.0943,Apple Tree Flat Subgroup
      739.8466,Watts Sandstone         
      755.0000,Denman Fm               
      898.7954,Mt Leonard Fm           
     1014.2954,Althorpe Fm             
     1021.2757,Malabar Fm              
     1062.5915,Mt Ogilvie Fm           
     1097.3011,Milbrodale Fm           
     1175.8202,Mt Thorley Fm           
     1217.5000,Burnamwood Fm           
     1303.5000,Archerfield Sandstone   
     1334.0000,Mulbring Siltstone      
     1401.8210,Muree Sandstone         
     1514.0000,Branxton Fm             
     1538.5000,Greta Coal Measures     
     1553.7695,Dalwood Group           
     1561.5707,                        

~PARAMETER 
#MNEM.UNIT                    VALUE                        DESCRIPTION
#--------------- ---         ------------                 -----------------

~CURVE 
#MNEM.UNIT                 LOG CODE                  CURVE DESCRIPTION
#----------- ----         ------------              -----------------
DEPTH       .M                                      :     {F}
GR          .GAPI         60310010                  : GR_1 (Cleared: 1 Segment)    {F}
LLD         .OHMM         99220100                  :     {F}
NPHI        .V/V          15890000                  :     {F}
RHOB        .K/M3         15350020                  : Offset applied to log data.    {F}

~ASCII | CURVE 
# ...
     467.46172,       56.9270,        4.0436,   -999.250000,     -999.2500
     467.51252,       57.1666,        4.0169,   -999.250000,     -999.2500
     467.56332,       57.4062,        3.9902,   -999.250000,     -999.2500
     467.61412,       58.4372,        3.9598,   -999.250000,     -999.2500
     467.66492,       59.4685,        3.9294,   -999.250000,     -999.2500
     467.71572,       60.5000,        3.8989,   -999.250000,     -999.2500
     467.76652,       60.4063,        3.9085,   -999.250000,     -999.2500
     467.81732,       60.3125,        3.9181,   -999.250000,     -999.2500
     467.86812,       60.2188,        3.9276,   -999.250000,     -999.2500
     467.91892,       59.6772,        3.9410,   -999.250000,     -999.2500
     467.96972,       59.1355,        3.9543,   -999.250000,     -999.2500
     468.02052,       58.5938,        3.9676,   -999.250000,     -999.2500
     468.07132,       57.7294,        3.9621,   -999.250000,     -999.2500
     468.12212,       56.8648,        3.9567,   -999.250000,     -999.2500
     468.17292,       56.0000,        3.9511,   -999.250000,     -999.2500
     468.22372,       56.8852,        3.9662,   -999.250000,     -999.2500
     468.27452,       57.7706,        3.9811,   -999.250000,     -999.2500
     468.32532,       58.6562,        3.9962,   -999.250000,     -999.2500
     468.37612,       59.4373,        4.0062,   -999.250000,     -999.2500
     468.42692,       60.2186,        4.0163,   -999.250000,     -999.2500
     468.47772,       61.0000,        4.0264,   -999.250000,     -999.2500
     468.52852,       63.3119,        4.0311,   -999.250000,     -999.2500
     468.57932,       65.6244,        4.0359,   -999.250000,     -999.2500
     468.63012,       67.9375,        4.0406,   -999.250000,     -999.2500
     468.68092,       67.6251,        4.1102,   -999.250000,     -999.2500
     468.73172,       67.3126,        4.1798,   -999.250000,     -999.2500
     468.78252,       67.0000,        4.2494,   -999.250000,     -999.2500
     468.83332,       67.8123,        4.2521,   -999.250000,     -999.2500
     468.88412,       68.6248,        4.2548,   -999.250000,     -999.2500
     468.93492,       69.4375,        4.2575,   -999.250000,     -999.2500
     468.98572,       67.9379,        4.2647,   -999.250000,     -999.2500
     469.03652,       66.4379,        4.2719,   -999.250000,     -999.2500
     469.08732,       64.9375,        4.2791,   -999.250000,     -999.2500
     469.13812,       63.8336,        4.2562,   -999.250000,     -999.2500
     469.18892,       62.7294,        4.2333,   -999.250000,     -999.2500
     469.23972,       61.6250,        4.2104,   -999.250000,     -999.2500
     469.29052,       61.8333,        4.1380,   -999.250000,     -999.2500
     469.34132,       62.0416,        4.0655,   -999.250000,     -999.2500
     469.39212,       62.2500,        3.9930,   -999.250000,     -999.2500
     469.44292,       61.9063,        3.8955,   -999.250000,     -999.2500
     469.49372,       61.5626,        3.7979,   -999.250000,     -999.2500
     469.54452,       61.2188,        3.7003,   -999.250000,     -999.2500
     469.59532,       62.1456,        3.6325,   -999.250000,     -999.2500
     469.64612,       63.0727,        3.5647,   -999.250000,     -999.2500
     469.69692,       64.0000,        3.4969,   -999.250000,     -999.2500
     469.74772,       62.7191,        3.4385,   -999.250000,     -999.2500
     469.79852,       61.4378,        3.3802,   -999.250000,     -999.2500
     469.84932,       60.1562,        3.3217,   -999.250000,     -999.2500
     469.90012,       59.6355,        3.2965,   -999.250000,     -999.2500
     469.95092,       59.1147,        3.2713,   -999.250000,     -999.2500
     470.00172,       58.5938,        3.2461,   -999.250000,     -999.2500
     470.05252,       59.7081,        3.2601,   -999.250000,     -999.2500
     470.10332,       60.8226,        3.2741,   -999.250000,     -999.2500
     470.15412,       61.9375,        3.2881,   -999.250000,     -999.2500
     470.20492,       61.8854,        3.3106,   -999.250000,     -999.2500
     470.25572,       61.8333,        3.3331,   -999.250000,     -999.2500
     470.30652,       61.7812,        3.3557,   -999.250000,     -999.2500
     470.35732,       61.5001,        3.4276,   -999.250000,     -999.2500
     470.40812,       61.2188,        3.4995,   -999.250000,     -999.2500
     470.45892,       60.9375,        3.5714,   -999.250000,     -999.2500
     470.50972,       59.2088,        3.6648,   -999.250000,     -999.2500
     470.56052,       57.4796,        3.7582,   -999.250000,     -999.2500
     470.61132,       55.7500,        3.8517,   -999.250000,     -999.2500
     470.66212,       55.4480,        3.9150,   -999.250000,     -999.2500
     470.71292,       55.1459,        3.9784,   -999.250000,     -999.2500
     470.76372,       54.8438,        4.0417,   -999.250000,     -999.2500
     470.81452,       56.4267,        4.1297,   -999.250000,     -999.2500
     470.86532,       58.0100,        4.2178,   -999.250000,     -999.2500
     470.91612,       59.5938,        4.3058,   -999.250000,     -999.2500
     470.96692,       61.5412,        4.2579,   -999.250000,     -999.2500
     471.01772,       63.4891,        4.2100,   -999.250000,     -999.2500
     471.06852,       65.4375,        4.1620,   -999.250000,     -999.2500
     471.11932,       65.7083,        3.9901,   -999.250000,     -999.2500
     471.17012,       65.9791,        3.8182,   -999.250000,     -999.2500
     471.22092,       66.2500,        3.6461,   -999.250000,     -999.2500
     471.27172,       66.5208,        3.5376,   -999.250000,     -999.2500
     471.32252,       66.7916,        3.4290,   -999.250000,     -999.2500
     471.37332,       67.0625,        3.3204,   -999.250000,     -999.2500
     471.42412,       66.6876,        3.2596,   -999.250000,     -999.2500
     471.47492,       66.3126,        3.1988,   -999.250000,     -999.2500
     471.52572,       65.9375,        3.1381,   -999.250000,     -999.2500
     471.57652,       67.1247,        3.1148,   -999.250000,     -999.2500
     471.62732,       68.3122,        3.0916,   -999.250000,     -999.2500
     471.67812,       69.5000,        3.0684,   -999.250000,     -999.2500
     471.72892,       68.2295,        3.1295,   -999.250000,     -999.2500
     471.77972,       66.9586,        3.1907,   -999.250000,     -999.2500
     471.83052,       65.6875,        3.2518,   -999.250000,     -999.2500
     471.88132,       64.4482,        3.3060,   -999.250000,     -999.2500
     471.93212,       63.2086,        3.3602,   -999.250000,     -999.2500
     471.98292,       61.9688,        3.4144,   -999.250000,     -999.2500
     472.03372,       60.8857,        3.4245,   -999.250000,     -999.2500
     472.08452,       59.8023,        3.4346,   -999.250000,     -999.2500
     472.13532,       58.7188,        3.4447,   -999.250000,     -999.2500
     472.18612,       59.0832,        3.4632,   -999.250000,     -999.2500
     472.23692,       59.4478,        3.4818,   -999.250000,     -999.2500
     472.28772,       59.8125,        3.5004,   -999.250000,     -999.2500
     472.33852,       59.3439,        3.5340,   -999.250000,     -999.2500
     472.38932,       58.8751,        3.5676,   -999.250000,     -999.2500
     472.44012,       58.4062,        3.6012,   -999.250000,     -999.2500
     472.49092,       58.4896,        3.6069,   -999.250000,     -999.2500
     472.54172,       58.5729,        3.6126,   -999.250000,     -999.2500
     472.59252,       58.6562,        3.6182,   -999.250000,     -999.2500
     472.64332,       58.2397,        3.5932,   -999.250000,     -999.2500
     472.69412,       57.8230,        3.5682,   -999.250000,     -999.2500
     472.74492,       57.4062,        3.5432,   -999.250000,     -999.2500
     472.79572,       58.5518,        3.5335,   -999.250000,     -999.2500
     472.84652,       59.6976,        3.5238,   -999.250000,     -999.2500
