~Version
VERS  .             3.0                                 : CWLS LOG ASCII STANDARD - VERSION 3.0
WRAP  .             NO                                  : One line per depth step
DLM   .             COMMA                               : Delimiter character between data columns
#Delimiting character ( SPACE TAB OR COMMA ).

~Well
#MNEM.UNIT          DATA                                DESCRIPTION
#----- ----        -----------------                   -----------
STRT  .M                 10.30480                       : FIRST INDEX VALUE
STOP  .M               1434.78642                       : LAST INDEX VALUE
STEP  .M                  0.15240                       : STEP OF INDEX
NULL  .             -999.25                             : NULL VALUE
COMP  .                                                 : COMPANY
WELL  .             HEZE                                : WELL
FLD   .                                                 : FIELD
LOC   .                                                 : LOCATION
SRVC  .                                                 : SERVICE COMPANY
CTRY  .                                                 : COUNTRY
PROV  .                                                 : PROVINCE
UWI   .                                                 : UNIQUE WELL ID
LIC   .                                                 : LICENSE NUMBER
STAT  .                                                 : STATE
CNTY  .                                                 : COUNTY
API   .                                                 : API NUMBER
DATE  .                                                 : LOG DATE
X     .             653060.8816674                      : X OR EAST-WEST COORDINATE
Y     .             8157285.619841                      : Y OR NORTH-SOUTH COORDINATE
HZCS  .                                                 : HORIZONTAL CO-ORDINATE SYSTEM
LATI  .             -16.66194444444                     : LATITUDE
LONG  .             154.4352777778                      : LONGITUDE
GDAT  .                                                 : GEODETIC DATUM

~DEVIATION_PARAMETER 
#MNEM.UNIT                    VALUE                        DESCRIPTION
#--------------- ---         ------------                 -----------------

~DEVIATION_DEFINITION 
#MNEM.UNIT                 LOG CODE                  CURVE DESCRIPTION
#----------- ----         ------------              -----------------
DEPTH       .M                                      :     {F}
AZIMUTH     .DEG                                    :     {F}
DEVIATION   .DEG                                    : 90-DIP    {F}

~DEVIATION_DATA | DEVIATION_DEFINITION
       29.0000,        0.0000,        0.5000
       57.0000,        0.0000,        0.7500
       85.0000,        0.0000,        0.5000
      122.0000,        0.0000,        0.7500
      158.0000,        0.0000,        0.7500
      315.0000,        0.0000,        0.5000
      466.0000,        0.0000,        0.2500
      629.0000,        0.0000,        0.7500
      782.0000,        0.0000,        0.7500
      934.0000,        0.0000,        2.2500
     1086.0000,        0.0000,        1.0000
     1240.0000,        0.0000,        0.7500
     1422.0000,        0.0000,        0.7500

~TOPS_PARAMETER 
#MNEM.UNIT                    VALUE                        DESCRIPTION
#--------------- ---         ------------                 -----------------

~TOPS_DEFINITION 
#MNEM.UNIT                 LOG CODE                  CURVE DESCRIPTION
#----------- ----         ------------              -----------------
DEPTH       .M                                      :     {F}
TOPS        .                                       : Values changed using TEXT_EDIT    {S30}

~TOPS_DATA | TOPS_DEFINITION
        4.0000,Doyles Creek Subgroup         
      419.0000,Horseshoe Creek Subgroup      
      503.0000,Apple Tree Flat Subgroup      
      718.5000,Watts Sandstone               
      736.5000,Denman Fm                     
      862.0000,Mt Leonard Fm                 
      995.0000,Althorpe Fm                   
     1031.0000,Malabar Fm                    
     1080.0000,Mt Ogilvie Fm                 
     1149.0000,Mt Thorley Fm                 
     1199.0000,Burnamwood Fm                 
     1300.0000,Archerfield Sandstone         
     1322.0000,Mulbring Siltstone            
     1388.0000,Muree Sandstone               
     1410.0000,                              

~PARAMETER 
#MNEM.UNIT                    VALUE                        DESCRIPTION
#--------------- ---         ------------                 -----------------

~CURVE 
#MNEM.UNIT                 LOG CODE                  CURVE DESCRIPTION
#----------- ----         ------------              -----------------
DEPTH       .M                                      :     {F}
GR          .GAPI                                   :     {F}
LLD         .OHMM                                   :     {F}
NPHI        .V/V                                    :     {F}
RHOB        .K/M3                                   :     {F}

~ASCII | CURVE 
# ...
    1314.84772,       52.8553,       28.2069,        0.1947,     2281.3000
    1315.00011,       55.3981,       28.2245,        0.1901,     2273.7000
    1315.15251,       58.0364,       28.2625,        0.1877,     2269.5100
    1315.30491,       58.9489,       28.1017,        0.1892,     2272.2100
    1315.45731,       57.4299,       27.7401,        0.1931,     2280.1400
    1315.60971,       54.7147,       27.5744,        0.1958,     2288.5100
    1315.76211,       51.7575,       27.7903,        0.1950,     2290.9400
    1315.91451,       48.1736,       28.1693,        0.1915,     2285.1000
    1316.06691,       44.1801,       28.7198,        0.1880,     2275.6400
    1316.21931,       40.1735,       29.1270,        0.1868,     2268.3300
    1316.37171,       37.1471,       29.1315,        0.1892,     2262.2900
    1316.52411,       37.2325,       28.8625,        0.1944,     2257.0600
    1316.67651,       39.8257,       28.3487,        0.2003,     2253.5800
    1316.82891,       42.9241,       27.4399,        0.2046,     2249.7500
    1316.98131,       44.8482,       26.4251,        0.2059,     2248.4300
    1317.13371,       45.8554,       25.2692,        0.2047,     2251.5500
    1317.28611,       46.4772,       24.0410,        0.2032,     2257.8300
    1317.43851,       47.5653,       23.1823,        0.2037,     2264.7600
    1317.59091,       48.7545,       22.8714,        0.2059,     2269.6100
    1317.74331,       48.2131,       23.0489,        0.2076,     2269.5100
    1317.89571,       46.1074,       23.9038,        0.2071,     2267.2300
    1318.04811,       44.1682,       24.9767,        0.2042,     2264.5000
    1318.20051,       42.4055,       25.8525,        0.1992,     2261.8400
    1318.35291,       40.4349,       26.5868,        0.1934,     2262.4200
    1318.50531,       38.9154,       27.0555,        0.1881,     2266.0100
    1318.65771,       37.8232,       27.1469,        0.1848,     2272.6100
    1318.81011,       36.9340,       27.3193,        0.1846,     2280.6000
    1318.96251,       36.7944,       27.8185,        0.1867,     2286.7100
    1319.11491,       36.8209,       28.4947,        0.1883,     2286.7900
    1319.26731,       35.6131,       29.4376,        0.1876,     2281.4400
    1319.41971,       33.2948,       30.6782,        0.1853,     2272.7600
    1319.57211,       31.0295,       31.8478,        0.1837,     2261.4300
    1319.72451,       29.0966,       32.7042,        0.1837,     2250.4300
    1319.87691,       27.4726,       33.5979,        0.1844,     2243.3700
    1320.02931,       26.7238,       34.5377,        0.1836,     2241.0900
    1320.18171,       26.4973,       35.2361,        0.1812,     2243.1100
    1320.33411,       26.8725,       35.5506,        0.1793,     2249.8000
    1320.48651,       29.2627,       35.1280,        0.1794,     2260.3700
    1320.63891,       33.6605,       33.5809,        0.1810,     2273.5100
    1320.79131,       38.1136,       31.2029,        0.1828,     2286.0000
    1320.94371,       41.5837,       28.4390,        0.1842,     2296.0900
    1321.09611,       43.4450,       25.7537,        0.1861,     2302.6800
    1321.24851,       42.9912,       23.8461,        0.1898,     2304.0900
    1321.40091,       42.0953,       21.9316,        0.1959,     2300.4000
    1321.55331,       44.1196,       19.2161,        0.2048,     2292.9900
    1321.70571,       52.6488,       16.0584,        0.2170,     2296.5500
    1321.85811,       68.1593,       12.7273,        0.2339,     2320.8600
    1322.01051,       86.7733,        9.1105,        0.2547,     2360.9000
    1322.16291,      102.7270,        6.2525,        0.2785,     2400.3700
    1322.31531,      112.1180,        4.7415,        0.2987,     2424.9700
    1322.46771,      116.0040,        4.0205,        0.3098,     2428.7400
    1322.62011,      118.5480,        3.6428,        0.3153,     2424.7800
    1322.77251,      120.2570,        3.4554,        0.3215,     2419.5300
    1322.92491,      120.0260,        3.3396,        0.3298,     2412.3700
    1323.07731,      119.0400,        3.2445,        0.3371,     2406.2200
    1323.22971,      117.5500,        3.1779,        0.3397,     2402.8200
    1323.38211,      116.1600,        3.1451,        0.3368,     2403.5000
    1323.53451,      115.5620,        3.1324,        0.3306,     2406.6200
    1323.68691,      114.5150,        3.1505,        0.3230,     2407.5200
    1323.83931,      113.2250,        3.2021,        0.3146,     2406.7500
    1323.99171,      113.4080,        3.2590,        0.3052,     2409.0000
    1324.14411,      114.6660,        3.3171,        0.2937,     2414.1700
    1324.29651,      114.4210,        3.4232,        0.2819,     2422.7500
    1324.44891,      111.2090,        3.5561,        0.2744,     2430.6800
    1324.60131,      106.3840,        3.7181,        0.2744,     2431.0800
    1324.75371,      102.7610,        3.9257,        0.2815,     2415.4400
    1324.90611,      101.1960,        4.1461,        0.2910,     2384.2800
    1325.05851,      101.0470,        4.3660,        0.2959,     2351.3200
    1325.21091,       99.4945,        4.6650,        0.2900,     2335.7600
    1325.36331,       94.3638,        5.0573,        0.2746,     2343.2900
    1325.51571,       87.6583,        5.5647,        0.2587,     2367.8400
    1325.66811,       82.1353,        6.2324,        0.2467,     2391.8400
    1325.82051,       78.3682,        6.9166,        0.2391,     2404.1300
    1325.97291,       76.4564,        7.4451,        0.2357,     2404.9400
    1326.12531,       76.1184,        7.8102,        0.2342,     2401.7800
    1326.27771,       76.2745,        7.9090,        0.2324,     2396.9300
    1326.43011,       77.1786,        7.7941,        0.2307,     2393.6900
    1326.58251,       78.4319,        7.7624,        0.2305,     2392.1100
    1326.73491,       77.9021,        7.9389,        0.2323,     2392.2900
    1326.88731,       75.0011,        8.3247,        0.2342,     2391.8000
    1327.03970,       71.5149,        8.8462,        0.2342,     2389.1700
    1327.19210,       69.1699,        9.2452,        0.2322,     2383.5600
    1327.34450,       69.5993,        9.3173,        0.2311,     2376.8500
    1327.49690,       72.8040,        8.9594,        0.2342,     2374.5700
    1327.64930,       76.9747,        8.1598,        0.2421,     2378.9800
    1327.80170,       81.3537,        7.1535,        0.2513,     2390.5800
    1327.95410,       86.4010,        6.1719,        0.2581,     2405.1400
    1328.10650,       91.4158,        5.2952,        0.2625,     2416.8800
    1328.25890,       95.7948,        4.6443,        0.2670,     2421.0000
    1328.41130,       98.4581,        4.2326,        0.2748,     2419.3800
    1328.56370,       98.9541,        3.9869,        0.2809,     2417.3400
    1328.71610,       97.5753,        3.8942,        0.2763,     2415.4800
    1328.86850,       94.5513,        3.9510,        0.2647,     2415.0200
    1329.02090,       90.5123,        4.0991,        0.2546,     2413.7500
    1329.17330,       87.0072,        4.2887,        0.2500,     2412.6400
    1329.32570,       85.1942,        4.5125,        0.2498,     2413.3300
    1329.47810,       85.1917,        4.7340,        0.2512,     2416.9000
    1329.63050,       85.6063,        4.9210,        0.2512,     2416.9600
    1329.78290,       84.1456,        5.0853,        0.2497,     2413.8700
    1329.93530,       81.6173,        5.2172,        0.2476,     2411.4400
    1330.08770,       80.5998,        5.2983,        0.2459,     2411.2100
    1330.24010,       81.5952,        5.3758,        0.2448,     2409.7100
    1330.39250,       83.0597,        5.5773,        0.2450,     2402.2500
    1330.54490,       83.0234,        6.0742,        0.2465,     2387.8900
    1330.69730,       80.8779,        6.8520,        0.2482,     2372.2900
    1330.84970,       77.6489,        7.7279,        0.2479,     2364.5600
    1331.00210,       75.0354,        8.6009,        0.2456,     2361.0800
