~Version
VERS  .             3.0                                 : CWLS LOG ASCII STANDARD - VERSION 3.0
WRAP  .             NO                                  : One line per depth step
DLM   .             COMMA                               : Delimiter character between data columns
#Delimiting character ( SPACE TAB OR COMMA ).

~Well
#MNEM.UNIT          DATA                                DESCRIPTION
#----- ----        -----------------                   -----------
STRT  .M                 10.30480                       : FIRST INDEX VALUE
STOP  .M               1434.78642                       : LAST INDEX VALUE
STEP  .M                  0.15240                       : STEP OF INDEX
NULL  .             -999.25                             : NULL VALUE
COMP  .                                                 : COMPANY
WELL  .             HEZE                                : WELL
FLD   .                                                 : FIELD
LOC   .                                                 : LOCATION
SRVC  .                                                 : SERVICE COMPANY
CTRY  .                                                 : COUNTRY
PROV  .                                                 : PROVINCE
UWI   .                                                 : UNIQUE WELL ID
LIC   .                                                 : LICENSE NUMBER
STAT  .                                                 : STATE
CNTY  .                                                 : COUNTY
API   .                                                 : API NUMBER
DATE  .                                                 : LOG DATE
X     .             653060.8816674                      : X OR EAST-WEST COORDINATE
Y     .             8157285.619841                      : Y OR NORTH-SOUTH COORDINATE
HZCS  .                                                 : HORIZONTAL CO-ORDINATE SYSTEM
LATI  .             -16.66194444444                     : LATITUDE
LONG  .             154.4352777778                      : LONGITUDE
GDAT  .                                                 : GEODETIC DATUM

~DEVIATION_PARAMETER 
#MNEM.UNIT                    VALUE                        DESCRIPTION
#--------------- ---         ------------                 -----------------

~DEVIATION_DEFINITION 
#MNEM.UNIT                 LOG CODE                  CURVE DESCRIPTION
#----------- ----         ------------              -----------------
DEPTH       .M                                      :     {F}
AZIMUTH     .DEG                                    :     {F}
DEVIATION   .DEG                                    : 90-DIP    {F}

~DEVIATION_DATA | DEVIATION_DEFINITION
       29.0000,        0.0000,        0.5000
       57.0000,        0.0000,        0.7500
       85.0000,        0.0000,        0.5000
      122.0000,        0.0000,        0.7500
      158.0000,        0.0000,        0.7500
      315.0000,        0.0000,        0.5000
      466.0000,        0.0000,        0.2500
      629.0000,        0.0000,        0.7500
      782.0000,        0.0000,        0.7500
      934.0000,        0.0000,        2.2500
     1086.0000,        0.0000,        1.0000
     1240.0000,        0.0000,        0.7500
     1422.0000,        0.0000,        0.7500

~TOPS_PARAMETER 
#MNEM.UNIT                    VALUE                        DESCRIPTION
#--------------- ---         ------------                 -----------------

~TOPS_DEFINITION 
#MNEM.UNIT                 LOG CODE                  CURVE DESCRIPTION
#----------- ----         ------------              -----------------
DEPTH       .M                                      :     {F}
TOPS        .                                       : Values changed using TEXT_EDIT    {S30}

~TOPS_DATA | TOPS_DEFINITION
        4.0000,Doyles Creek Subgroup         
      419.0000,Horseshoe Creek Subgroup      
      503.0000,Apple Tree Flat Subgroup      
      718.5000,Watts Sandstone               
      736.5000,Denman Fm                     
      862.0000,Mt Leonard Fm                 
      995.0000,Althorpe Fm                   
     1031.0000,Malabar Fm                    
     1080.0000,Mt Ogilvie Fm                 
     1149.0000,Mt Thorley Fm                 
     1199.0000,Burnamwood Fm                 
     1300.0000,Archerfield Sandstone         
     1322.0000,Mulbring Siltstone            
     1388.0000,Muree Sandstone               
     1410.0000,                              

~PARAMETER 
#MNEM.UNIT                    VALUE                        DESCRIPTION
#--------------- ---         ------------                 -----------------

~CURVE 
#MNEM.UNIT                 LOG CODE                  CURVE DESCRIPTION
#----------- ----         ------------              -----------------
DEPTH       .M                                      :     {F}
GR          .GAPI                                   :     {F}
LLD         .OHMM                                   :     {F}
NPHI        .V/V                                    :     {F}
RHOB        .K/M3                                   :     {F}

~ASCII | CURVE 
# ...
    1135.47306,       59.3059,       11.9946,        0.2124,     2297.8400
    1135.62546,       59.6320,       11.2713,        0.2206,     2264.3400
    1135.77786,       58.4723,       10.9666,        0.2285,     2250.9900
    1135.93026,       55.1344,       11.1276,        0.2343,     2246.3900
    1136.08266,       50.9850,       11.5903,        0.2370,     2246.7100
    1136.23506,       47.9784,       11.9865,        0.2369,     2247.7100
    1136.38746,       47.0075,       12.2253,        0.2364,     2247.9900
    1136.53986,       47.8836,       12.3789,        0.2376,     2252.6000
    1136.69226,       49.7787,       12.4087,        0.2404,     2262.3100
    1136.84466,       51.2272,       12.2957,        0.2438,     2262.8300
    1136.99706,       51.5153,       12.2722,        0.2472,     2242.4700
    1137.14946,       51.0632,       12.4046,        0.2495,     2207.7800
    1137.30186,       49.7017,       12.6185,        0.2500,     2176.4100
    1137.45426,       47.9030,       12.9948,        0.2490,     2166.3800
    1137.60666,       46.2723,       13.4966,        0.2484,     2178.5500
    1137.75906,       45.0574,       13.9282,        0.2496,     2201.1500
    1137.91146,       44.6382,       14.4097,        0.2504,     2223.8800
    1138.06386,       45.1091,       14.9822,        0.2477,     2245.8500
    1138.21626,       45.4970,       15.6390,        0.2425,     2270.3400
    1138.36866,       45.0454,       16.0558,        0.2400,     2305.1800
    1138.52106,       45.2872,       15.8341,        0.2434,     2348.5800
    1138.67346,       49.4586,       14.8100,        0.2514,     2393.6600
    1138.82586,       58.2506,       13.1829,        0.2616,     2431.1700
    1138.97826,       70.2266,       11.0617,        0.2757,     2450.9100
    1139.13066,       82.1014,        8.9440,        0.2955,     2453.7400
    1139.28306,       90.0328,        7.4231,        0.3167,     2452.6700
    1139.43546,       93.0089,        6.5757,        0.3307,     2451.3100
    1139.58786,       93.4745,        6.1982,        0.3322,     2447.4700
    1139.74026,       93.2991,        6.0979,        0.3252,     2440.2300
    1139.89266,       93.4180,        6.0864,        0.3173,     2430.1000
    1140.04506,       94.4220,        6.0368,        0.3128,     2423.6600
    1140.19746,       95.2742,        5.8987,        0.3117,     2426.1600
    1140.34986,       95.9126,        5.6993,        0.3127,     2433.7200
    1140.50226,       97.0460,        5.4630,        0.3148,     2440.6200
    1140.65466,       98.2339,        5.2077,        0.3180,     2445.2600
    1140.80706,       99.3067,        4.9375,        0.3235,     2446.0600
    1140.95946,      101.0200,        4.6617,        0.3318,     2441.5800
    1141.11186,      103.0710,        4.4511,        0.3389,     2426.7800
    1141.26426,      104.6980,        4.3710,        0.3388,     2402.1800
    1141.41666,      104.4930,        4.5115,        0.3285,     2378.0100
    1141.56906,      102.9900,        5.0308,        0.3098,     2365.9900
    1141.72146,      100.5020,        5.8428,        0.2881,     2366.4900
    1141.87386,       98.3814,        6.6772,        0.2692,     2367.0400
    1142.02626,       95.1849,        7.3936,        0.2553,     2356.8300
    1142.17866,       90.1959,        7.9028,        0.2457,     2336.4300
    1142.33106,       82.9955,        8.0703,        0.2410,     2315.4000
    1142.48346,       77.3239,        7.9546,        0.2426,     2305.0000
    1142.63586,       75.6621,        7.7963,        0.2506,     2297.3700
    1142.78826,       78.5362,        7.5802,        0.2634,     2267.8000
    1142.94066,       83.6307,        7.2866,        0.2848,     2222.8100
    1143.09306,       88.2947,        7.0259,        0.3127,     2199.1000
    1143.24546,       90.3227,        6.7768,        0.3371,     2218.0300
    1143.39786,       89.7235,        6.4188,        0.3486,     2278.0700
    1143.55026,       88.8234,        6.0733,        0.3454,     2351.6300
    1143.70266,       89.7858,        5.7780,        0.3335,     2402.0000
    1143.85506,       93.2692,        5.4472,        0.3214,     2419.8600
    1144.00746,       97.7727,        5.2195,        0.3138,     2421.4500
    1144.15986,      101.1090,        5.2457,        0.3062,     2414.9300
    1144.31226,      101.4840,        5.4774,        0.2943,     2406.7500
    1144.46466,       99.4691,        5.7590,        0.2814,     2408.3100
    1144.61706,       97.9346,        5.9025,        0.2751,     2422.6700
    1144.76946,       98.1570,        5.8099,        0.2784,     2441.2700
    1144.92186,       99.6138,        5.4763,        0.2882,     2451.7300
    1145.07426,      102.1980,        4.9993,        0.2970,     2449.0900
    1145.22666,      104.7390,        4.5757,        0.2992,     2438.0100
    1145.37906,      106.6770,        4.4179,        0.2944,     2426.8300
    1145.53146,      108.1100,        4.5498,        0.2877,     2419.3400
    1145.68386,      107.7050,        4.8871,        0.2833,     2414.2700
    1145.83626,      105.0430,        5.3331,        0.2814,     2407.4400
    1145.98866,      101.0000,        5.7913,        0.2801,     2400.4300
    1146.14106,       97.0159,        6.2000,        0.2790,     2396.1900
    1146.29346,       94.4982,        6.5208,        0.2791,     2395.0000
    1146.44586,       93.1656,        6.7525,        0.2815,     2392.3700
    1146.59826,       90.9527,        6.9363,        0.2869,     2385.0000
    1146.75065,       88.1398,        7.1317,        0.2934,     2374.5200
    1146.90305,       85.9591,        7.2983,        0.2970,     2365.7400
    1147.05545,       85.4013,        7.4473,        0.2973,     2360.1400
    1147.20785,       86.5890,        7.5391,        0.2968,     2360.9800
    1147.36025,       89.2609,        7.5314,        0.2959,     2366.0700
    1147.51265,       91.5657,        7.4046,        0.2932,     2375.1700
    1147.66505,       93.3612,        7.2026,        0.2886,     2390.4300
    1147.81745,       95.6347,        7.0098,        0.2819,     2407.2500
    1147.96985,       97.9376,        6.9430,        0.2747,     2416.9200
    1148.12225,       98.4878,        6.9817,        0.2706,     2417.5000
    1148.27465,       97.6887,        7.1403,        0.2706,     2409.9200
    1148.42705,       95.3449,        7.4324,        0.2717,     2395.6500
    1148.57945,       91.0693,        7.6819,        0.2699,     2378.1500
    1148.73185,       85.9737,        7.7729,        0.2653,     2358.4400
    1148.88425,       81.1751,        7.8388,        0.2606,     2335.6100
    1149.03665,       75.8166,        7.8450,        0.2580,     2312.1400
    1149.18905,       71.3031,        7.7460,        0.2574,     2295.9500
    1149.34145,       68.6339,        7.6853,        0.2574,     2289.4900
    1149.49385,       67.3018,        7.8088,        0.2561,     2297.0400
    1149.64625,       67.5029,        8.1969,        0.2539,     2325.4800
    1149.79865,       70.1217,        8.9294,        0.2511,     2371.7900
    1149.95105,       73.3425,       10.0024,        0.2459,     2417.3800
    1150.10345,       76.2459,       11.2667,        0.2384,     2439.5500
    1150.25585,       77.5546,       12.1744,        0.2323,     2426.6900
    1150.40825,       76.1591,       12.4033,        0.2302,     2386.9300
    1150.56065,       71.4447,       12.1124,        0.2320,     2339.7700
    1150.71305,       65.1147,       11.5059,        0.2358,     2304.7500
    1150.86545,       58.3699,       10.7737,        0.2385,     2288.8600
    1151.01785,       53.8717,       10.4554,        0.2381,     2292.4900
    1151.17025,       53.1190,       10.6775,        0.2343,     2305.9700
    1151.32265,       54.6044,       11.0872,        0.2280,     2315.8000
    1151.47505,       55.1680,       11.4543,        0.2211,     2310.7600
    1151.62745,       53.3527,       11.7002,        0.2166,     2295.0700
