~Version
VERS  .             3.0                                 : CWLS LOG ASCII STANDARD - VERSION 3.0
WRAP  .             NO                                  : One line per depth step
DLM   .             COMMA                               : Delimiter character between data columns
#Delimiting character ( SPACE TAB OR COMMA ).

~Well
#MNEM.UNIT          DATA                                DESCRIPTION
#----- ----        -----------------                   -----------
STRT  .M                 10.30480                       : FIRST INDEX VALUE
STOP  .M               1434.78642                       : LAST INDEX VALUE
STEP  .M                  0.15240                       : STEP OF INDEX
NULL  .             -999.25                             : NULL VALUE
COMP  .                                                 : COMPANY
WELL  .             HEZE                                : WELL
FLD   .                                                 : FIELD
LOC   .                                                 : LOCATION
SRVC  .                                                 : SERVICE COMPANY
CTRY  .                                                 : COUNTRY
PROV  .                                                 : PROVINCE
UWI   .                                                 : UNIQUE WELL ID
LIC   .                                                 : LICENSE NUMBER
STAT  .                                                 : STATE
CNTY  .                                                 : COUNTY
API   .                                                 : API NUMBER
DATE  .                                                 : LOG DATE
X     .             653060.8816674                      : X OR EAST-WEST COORDINATE
Y     .             8157285.619841                      : Y OR NORTH-SOUTH COORDINATE
HZCS  .                                                 : HORIZONTAL CO-ORDINATE SYSTEM
LATI  .             -16.66194444444                     : LATITUDE
LONG  .             154.4352777778                      : LONGITUDE
GDAT  .                                                 : GEODETIC DATUM

~DEVIATION_PARAMETER 
#MNEM.UNIT                    VALUE                        DESCRIPTION
#--------------- ---         ------------                 -----------------

~DEVIATION_DEFINITION 
#MNEM.UNIT                 LOG CODE                  CURVE DESCRIPTION
#----------- ----         ------------              -----------------
DEPTH       .M                                      :     {F}
AZIMUTH     .DEG                                    :     {F}
DEVIATION   .DEG                                    : 90-DIP    {F}

~DEVIATION_DATA | DEVIATION_DEFINITION
       29.0000,        0.0000,        0.5000
       57.0000,        0.0000,        0.7500
       85.0000,        0.0000,        0.5000
      122.0000,        0.0000,        0.7500
      158.0000,        0.0000,        0.7500
      315.0000,        0.0000,        0.5000
      466.0000,        0.0000,        0.2500
      629.0000,        0.0000,        0.7500
      782.0000,        0.0000,        0.7500
      934.0000,        0.0000,        2.2500
     1086.0000,        0.0000,        1.0000
     1240.0000,        0.0000,        0.7500
     1422.0000,        0.0000,        0.7500

~TOPS_PARAMETER 
#MNEM.UNIT                    VALUE                        DESCRIPTION
#--------------- ---         ------------                 -----------------

~TOPS_DEFINITION 
#MNEM.UNIT                 LOG CODE                  CURVE DESCRIPTION
#----------- ----         ------------              -----------------
DEPTH       .M                                      :     {F}
TOPS        .                                       : Values changed using TEXT_EDIT    {S30}

~TOPS_DATA | TOPS_DEFINITION
        4.0000,Doyles Creek Subgroup         
      419.0000,Horseshoe Creek Subgroup      
      503.0000,Apple Tree Flat Subgroup      
      718.5000,Watts Sandstone               
      736.5000,Denman Fm                     
      862.0000,Mt Leonard Fm                 
      995.0000,Althorpe Fm                   
     1031.0000,Malabar Fm                    
     1080.0000,Mt Ogilvie Fm                 
     1149.0000,Mt Thorley Fm                 
     1199.0000,Burnamwood Fm                 
     1300.0000,Archerfield Sandstone         
     1322.0000,Mulbring Siltstone            
     1388.0000,Muree Sandstone               
     1410.0000,                              

~PARAMETER 
#MNEM.UNIT                    VALUE                        DESCRIPTION
#--------------- ---         ------------                 -----------------

~CURVE 
#MNEM.UNIT                 LOG CODE                  CURVE DESCRIPTION
#----------- ----         ------------              -----------------
DEPTH       .M                                      :     {F}
GR          .GAPI                                   :     {F}
LLD         .OHMM                                   :     {F}
NPHI        .V/V                                    :     {F}
RHOB        .K/M3                                   :     {F}

~ASCII | CURVE 
# ...
    1037.63235,       85.8196,        2.2083,        0.3611,     2387.1100
    1037.78475,       87.1794,        2.2283,        0.3633,     2382.9000
    1037.93715,       86.6031,        2.3519,        0.3483,     2394.8100
    1038.08955,       83.2772,        2.6001,        0.3237,     2420.7000
    1038.24195,       78.0573,        2.9293,        0.3021,     2448.1700
    1038.39434,       73.0734,        3.2268,        0.2897,     2462.6600
    1038.54674,       69.8859,        3.3899,        0.2860,     2458.2700
    1038.69914,       68.6824,        3.3892,        0.2890,     2443.1000
    1038.85154,       69.2130,        3.2262,        0.2963,     2426.7800
    1039.00394,       71.0586,        2.9723,        0.3043,     2416.3700
    1039.15634,       73.8205,        2.7446,        0.3119,     2411.8500
    1039.30874,       76.5463,        2.6226,        0.3193,     2411.7100
    1039.46114,       77.5599,        2.6079,        0.3260,     2410.4600
    1039.61354,       76.2572,        2.6587,        0.3295,     2408.1300
    1039.76594,       73.3259,        2.7095,        0.3272,     2406.3900
    1039.91834,       70.6025,        2.7220,        0.3187,     2410.3200
    1040.07074,       69.4687,        2.6734,        0.3080,     2415.7800
    1040.22314,       69.8454,        2.5625,        0.3014,     2416.5900
    1040.37554,       70.5381,        2.4090,        0.3028,     2405.5900
    1040.52794,       71.1554,        2.2490,        0.3114,     2386.1500
    1040.68034,       71.2972,        2.1037,        0.3247,     2367.9400
    1040.83274,       71.3476,        1.9985,        0.3381,     2359.9100
    1040.98514,       72.3462,        1.9343,        0.3462,     2360.5500
    1041.13754,       73.4678,        1.9053,        0.3454,     2364.6500
    1041.28994,       73.8925,        1.8992,        0.3394,     2367.2500
    1041.44234,       73.8131,        1.8952,        0.3342,     2365.4700
    1041.59474,       73.9841,        1.8787,        0.3348,     2361.2500
    1041.74714,       75.2063,        1.8732,        0.3412,     2358.9000
    1041.89954,       77.1850,        1.8971,        0.3494,     2364.3200
    1042.05194,       78.6818,        1.9722,        0.3533,     2378.4500
    1042.20434,       78.6466,        2.1221,        0.3499,     2395.2000
    1042.35674,       78.2835,        2.3068,        0.3417,     2406.5700
    1042.50914,       77.6577,        2.4596,        0.3341,     2412.2100
    1042.66154,       77.8253,        2.5611,        0.3317,     2414.4000
    1042.81394,       78.2537,        2.6020,        0.3360,     2414.6200
    1042.96634,       78.8042,        2.5665,        0.3453,     2410.9100
    1043.11874,       79.5695,        2.4970,        0.3553,     2403.1500
    1043.27114,       80.7597,        2.4411,        0.3623,     2392.7500
    1043.42354,       80.6767,        2.4001,        0.3655,     2387.3600
    1043.57594,       79.5493,        2.3730,        0.3665,     2388.4100
    1043.72834,       78.3715,        2.3780,        0.3647,     2392.2200
    1043.88074,       77.1962,        2.4272,        0.3581,     2396.3900
    1044.03314,       76.7622,        2.5051,        0.3496,     2401.3600
    1044.18554,       77.2837,        2.6050,        0.3430,     2403.8100
    1044.33794,       78.3939,        2.7047,        0.3396,     2404.6100
    1044.49034,       78.9472,        2.7783,        0.3396,     2405.0100
    1044.64274,       79.3829,        2.7982,        0.3426,     2406.2600
    1044.79514,       79.0168,        2.7811,        0.3468,     2407.9100
    1044.94754,       77.9750,        2.7569,        0.3521,     2409.4100
    1045.09994,       77.1235,        2.7341,        0.3573,     2408.5200
    1045.25234,       77.5998,        2.7236,        0.3594,     2406.3700
    1045.40474,       78.1721,        2.7364,        0.3591,     2404.2300
    1045.55714,       78.6718,        2.7509,        0.3576,     2405.0600
    1045.70954,       79.2493,        2.7367,        0.3535,     2407.3300
    1045.86194,       80.2816,        2.7000,        0.3484,     2409.0800
    1046.01434,       81.9826,        2.6574,        0.3471,     2410.6800
    1046.16674,       84.2220,        2.6057,        0.3517,     2411.3100
    1046.31914,       85.3152,        2.5527,        0.3601,     2410.7900
    1046.47154,       85.0196,        2.5182,        0.3654,     2408.9100
    1046.62394,       84.2890,        2.5093,        0.3618,     2405.6300
    1046.77634,       84.1585,        2.5050,        0.3542,     2401.7400
    1046.92874,       84.7198,        2.5114,        0.3522,     2402.0500
    1047.08114,       85.0808,        2.5384,        0.3576,     2405.3900
    1047.23354,       84.3706,        2.5652,        0.3647,     2406.8800
    1047.38594,       82.7897,        2.5827,        0.3665,     2405.0800
    1047.53834,       81.4676,        2.5980,        0.3630,     2399.6400
    1047.69074,       81.0794,        2.5990,        0.3610,     2392.9900
    1047.84314,       81.6411,        2.5844,        0.3660,     2389.1400
    1047.99554,       82.2486,        2.5684,        0.3740,     2389.1800
    1048.14794,       82.3125,        2.5491,        0.3769,     2391.0100
    1048.30034,       81.7431,        2.5431,        0.3703,     2395.5000
    1048.45274,       81.1762,        2.5667,        0.3579,     2399.4500
    1048.60514,       81.0655,        2.5949,        0.3476,     2400.3700
    1048.75754,       80.9802,        2.6225,        0.3430,     2399.4700
    1048.90994,       80.9355,        2.6449,        0.3406,     2401.1400
    1049.06234,       81.1529,        2.6535,        0.3356,     2404.4000
    1049.21474,       81.7703,        2.6476,        0.3274,     2406.2700
    1049.36714,       82.6032,        2.6365,        0.3201,     2404.5100
    1049.51954,       83.3806,        2.6132,        0.3171,     2402.0300
    1049.67194,       83.5353,        2.5824,        0.3190,     2399.0400
    1049.82434,       83.3160,        2.5389,        0.3236,     2395.9800
    1049.97674,       83.9203,        2.4870,        0.3281,     2392.2200
    1050.12914,       85.3443,        2.4432,        0.3307,     2387.6000
    1050.28154,       86.7430,        2.4235,        0.3325,     2386.9200
    1050.43393,       87.6332,        2.4410,        0.3340,     2392.0700
    1050.58633,       87.5068,        2.4911,        0.3355,     2395.4800
    1050.73873,       86.5660,        2.5656,        0.3398,     2394.1100
    1050.89113,       85.8959,        2.6394,        0.3496,     2388.3700
    1051.04353,       85.7290,        2.6874,        0.3647,     2384.1000
    1051.19593,       85.5245,        2.7041,        0.3806,     2384.8800
    1051.34833,       85.7781,        2.6987,        0.3907,     2389.1500
    1051.50073,       86.4456,        2.6710,        0.3917,     2388.5200
    1051.65313,       87.1523,        2.6402,        0.3873,     2384.2600
    1051.80553,       87.5518,        2.6167,        0.3826,     2379.4100
    1051.95793,       88.1872,        2.5941,        0.3800,     2378.5100
    1052.11033,       88.9882,        2.5821,        0.3775,     2382.1400
    1052.26273,       89.8925,        2.6033,        0.3722,     2387.2300
    1052.41513,       89.8426,        2.6441,        0.3650,     2390.3700
    1052.56753,       88.3435,        2.7000,        0.3600,     2393.8400
    1052.71993,       85.4351,        2.7864,        0.3583,     2404.4100
    1052.87233,       82.3942,        2.8779,        0.3572,     2422.5600
    1053.02473,       80.0211,        2.9514,        0.3545,     2441.2100
    1053.17713,       78.7497,        3.0243,        0.3511,     2450.0200
    1053.32953,       78.0899,        3.0872,        0.3474,     2443.1200
    1053.48193,       78.3258,        3.1202,        0.3418,     2424.1800
    1053.63433,       79.2682,        3.1427,        0.3357,     2404.5200
    1053.78673,       79.7559,        3.1550,        0.3340,     2394.3700
