~Version
VERS  .             3.0                                 : CWLS LOG ASCII STANDARD - VERSION 3.0
WRAP  .             NO                                  : One line per depth step
DLM   .             COMMA                               : Delimiter character between data columns
#Delimiting character ( SPACE TAB OR COMMA ).

~Well
#MNEM.UNIT          DATA                                DESCRIPTION
#----- ----        -----------------                   -----------
STRT  .M                 10.30480                       : FIRST INDEX VALUE
STOP  .M               1434.78642                       : LAST INDEX VALUE
STEP  .M                  0.15240                       : STEP OF INDEX
NULL  .             -999.25                             : NULL VALUE
COMP  .                                                 : COMPANY
WELL  .             HEZE                                : WELL
FLD   .                                                 : FIELD
LOC   .                                                 : LOCATION
SRVC  .                                                 : SERVICE COMPANY
CTRY  .                                                 : COUNTRY
PROV  .                                                 : PROVINCE
UWI   .                                                 : UNIQUE WELL ID
LIC   .                                                 : LICENSE NUMBER
STAT  .                                                 : STATE
CNTY  .                                                 : COUNTY
API   .                                                 : API NUMBER
DATE  .                                                 : LOG DATE
X     .             653060.8816674                      : X OR EAST-WEST COORDINATE
Y     .             8157285.619841                      : Y OR NORTH-SOUTH COORDINATE
HZCS  .                                                 : HORIZONTAL CO-ORDINATE SYSTEM
LATI  .             -16.66194444444                     : LATITUDE
LONG  .             154.4352777778                      : LONGITUDE
GDAT  .                                                 : GEODETIC DATUM

~DEVIATION_PARAMETER 
#MNEM.UNIT                    VALUE                        DESCRIPTION
#--------------- ---         ------------                 -----------------

~DEVIATION_DEFINITION 
#MNEM.UNIT                 LOG CODE                  CURVE DESCRIPTION
#----------- ----         ------------              -----------------
DEPTH       .M                                      :     {F}
AZIMUTH     .DEG                                    :     {F}
DEVIATION   .DEG                                    : 90-DIP    {F}

~DEVIATION_DATA | DEVIATION_DEFINITION
       29.0000,        0.0000,        0.5000
       57.0000,        0.0000,        0.7500
       85.0000,        0.0000,        0.5000
      122.0000,        0.0000,        0.7500
      158.0000,        0.0000,        0.7500
      315.0000,        0.0000,        0.5000
      466.0000,        0.0000,        0.2500
      629.0000,        0.0000,        0.7500
      782.0000,        0.0000,        0.7500
      934.0000,        0.0000,        2.2500
     1086.0000,        0.0000,        1.0000
     1240.0000,        0.0000,        0.7500
     1422.0000,        0.0000,        0.7500

~TOPS_PARAMETER 
#MNEM.UNIT                    VALUE                        DESCRIPTION
#--------------- ---         ------------                 -----------------

~TOPS_DEFINITION 
#MNEM.UNIT                 LOG CODE                  CURVE DESCRIPTION
#----------- ----         ------------              -----------------
DEPTH       .M                                      :     {F}
TOPS        .                                       : Values changed using TEXT_EDIT    {S30}

~TOPS_DATA | TOPS_DEFINITION
        4.0000,Doyles Creek Subgroup         
      419.0000,Horseshoe Creek Subgroup      
      503.0000,Apple Tree Flat Subgroup      
      718.5000,Watts Sandstone               
      736.5000,Denman Fm                     
      862.0000,Mt Leonard Fm                 
      995.0000,Althorpe Fm                   
     1031.0000,Malabar Fm                    
     1080.0000,Mt Ogilvie Fm                 
     1149.0000,Mt Thorley Fm                 
     1199.0000,Burnamwood Fm                 
     1300.0000,Archerfield Sandstone         
     1322.0000,Mulbring Siltstone            
     1388.0000,Muree Sandstone               
     1410.0000,                              

~PARAMETER 
#MNEM.UNIT                    VALUE                        DESCRIPTION
#--------------- ---         ------------                 -----------------

~CURVE 
#MNEM.UNIT                 LOG CODE                  CURVE DESCRIPTION
#----------- ----         ------------              -----------------
DEPTH       .M                                      :     {F}
GR          .GAPI                                   :     {F}
LLD         .OHMM                                   :     {F}
NPHI        .V/V                                    :     {F}
RHOB        .K/M3                                   :     {F}

~ASCII | CURVE 
# ...
     287.52017,       62.8015,        1.8397,     -999.2500,     -999.2500
     287.67257,       65.1015,        1.8103,     -999.2500,     -999.2500
     287.82497,       67.7685,        1.7748,     -999.2500,     -999.2500
     287.97737,       69.9077,        1.7398,     -999.2500,     -999.2500
     288.12977,       69.9381,        1.7235,     -999.2500,     -999.2500
     288.28217,       68.6059,        1.7399,     -999.2500,     -999.2500
     288.43457,       66.3344,        1.7849,     -999.2500,     -999.2500
     288.58697,       63.9533,        1.8499,     -999.2500,     -999.2500
     288.73937,       62.5262,        1.9164,     -999.2500,     -999.2500
     288.89177,       62.3505,        1.9667,     -999.2500,     -999.2500
     289.04417,       62.7256,        2.0352,     -999.2500,     -999.2500
     289.19657,       63.7170,        2.1432,     -999.2500,     -999.2500
     289.34897,       63.6736,        2.2872,     -999.2500,     -999.2500
     289.50137,       62.8378,        2.4499,     -999.2500,     -999.2500
     289.65377,       62.8314,        2.5789,     -999.2500,     -999.2500
     289.80617,       65.1734,        2.6052,     -999.2500,     -999.2500
     289.95857,       69.5410,        2.5183,     -999.2500,     -999.2500
     290.11097,       73.6328,        2.4242,     -999.2500,     -999.2500
     290.26337,       74.1200,        2.4341,     -999.2500,     -999.2500
     290.41577,       70.1124,        2.6116,     -999.2500,     -999.2500
     290.56817,       63.4864,        3.0408,     -999.2500,     -999.2500
     290.72057,       57.7136,        3.4470,     -999.2500,     -999.2500
     290.87297,       55.7652,        3.5585,     -999.2500,     -999.2500
     291.02537,       58.5153,        3.4333,     -999.2500,     -999.2500
     291.17777,       64.6155,        3.1219,     -999.2500,     -999.2500
     291.33017,       71.2810,        2.6075,     -999.2500,     -999.2500
     291.48257,       75.1586,        2.1840,     -999.2500,     -999.2500
     291.63497,       75.5345,        2.0220,     -999.2500,     -999.2500
     291.78737,       73.6416,        1.9785,     -999.2500,     -999.2500
     291.93977,       71.3293,        1.9822,     -999.2500,     -999.2500
     292.09217,       70.3387,        1.9997,     -999.2500,     -999.2500
     292.24457,       70.7274,        1.9961,     -999.2500,     -999.2500
     292.39697,       70.9652,        1.9749,     -999.2500,     -999.2500
     292.54937,       70.6852,        1.9553,     -999.2500,     -999.2500
     292.70177,       70.0820,        1.9433,     -999.2500,     -999.2500
     292.85417,       69.4280,        1.9506,     -999.2500,     -999.2500
     293.00656,       69.6388,        1.9787,     -999.2500,     -999.2500
     293.15896,       70.1107,        2.0247,     -999.2500,     -999.2500
     293.31136,       69.7768,        2.0864,     -999.2500,     -999.2500
     293.46376,       68.3795,        2.1504,     -999.2500,     -999.2500
     293.61616,       66.9311,        2.2056,     -999.2500,     -999.2500
     293.76856,       66.4407,        2.2535,     -999.2500,     -999.2500
     293.92096,       67.4211,        2.2789,     -999.2500,     -999.2500
     294.07336,       69.3033,        2.3079,     -999.2500,     -999.2500
     294.22576,       70.0501,        2.3733,     -999.2500,     -999.2500
     294.37816,       68.2897,        2.4501,     -999.2500,     -999.2500
     294.53056,       64.7780,        2.5123,     -999.2500,     -999.2500
     294.68296,       61.8173,        2.5559,     -999.2500,     -999.2500
     294.83536,       61.1245,        2.5286,     -999.2500,     -999.2500
     294.98776,       63.3199,        2.4306,     -999.2500,     -999.2500
     295.14016,       67.2065,        2.3190,     -999.2500,     -999.2500
     295.29256,       70.7689,        2.2162,     -999.2500,     -999.2500
     295.44496,       73.0300,        2.1395,     -999.2500,     -999.2500
     295.59736,       74.0509,        2.1077,     -999.2500,     -999.2500
     295.74976,       74.3256,        2.1032,     -999.2500,     -999.2500
     295.90216,       74.0859,        2.0986,     -999.2500,     -999.2500
     296.05456,       74.1274,        2.0918,     -999.2500,     -999.2500
     296.20696,       73.8041,        2.0832,     -999.2500,     -999.2500
     296.35936,       72.9734,        2.0776,     -999.2500,     -999.2500
     296.51176,       71.4083,        2.0684,     -999.2500,     -999.2500
     296.66416,       70.2444,        2.0586,     -999.2500,     -999.2500
     296.81656,       69.9258,        2.0495,     -999.2500,     -999.2500
     296.96896,       70.2935,        2.0413,     -999.2500,     -999.2500
     297.12136,       70.3161,        2.0295,     -999.2500,     -999.2500
     297.27376,       69.3464,        2.0201,     -999.2500,     -999.2500
     297.42616,       67.4128,        2.0063,     -999.2500,     -999.2500
     297.57856,       65.2384,        1.9942,     -999.2500,     -999.2500
     297.73096,       63.2432,        1.9893,     -999.2500,     -999.2500
     297.88336,       61.5293,        1.9887,     -999.2500,     -999.2500
     298.03576,       60.5916,        1.9782,     -999.2500,     -999.2500
     298.18816,       60.4348,        1.9634,     -999.2500,     -999.2500
     298.34056,       61.3527,        1.9418,     -999.2500,     -999.2500
     298.49296,       62.8365,        1.9040,     -999.2500,     -999.2500
     298.64536,       63.9701,        1.8538,     -999.2500,     -999.2500
     298.79776,       64.9200,        1.8373,     -999.2500,     -999.2500
     298.95016,       65.5460,        1.8719,     -999.2500,     -999.2500
     299.10256,       64.5273,        1.9301,     -999.2500,     -999.2500
     299.25496,       62.5467,        2.0068,     -999.2500,     -999.2500
     299.40736,       61.0504,        2.0883,     -999.2500,     -999.2500
     299.55976,       59.7174,        2.1161,     -999.2500,     -999.2500
     299.71216,       59.3528,        2.0960,     -999.2500,     -999.2500
     299.86456,       60.7564,        2.0684,     -999.2500,     -999.2500
     300.01696,       62.2220,        2.0391,     -999.2500,     -999.2500
     300.16936,       62.7488,        2.0074,     -999.2500,     -999.2500
     300.32176,       63.0784,        1.9999,     -999.2500,     -999.2500
     300.47416,       62.6242,        2.0101,     -999.2500,     -999.2500
     300.62656,       61.6937,        2.0239,     -999.2500,     -999.2500
     300.77896,       60.9992,        2.0305,     -999.2500,     -999.2500
     300.93136,       60.3305,        2.0454,     -999.2500,     -999.2500
     301.08376,       60.1547,        2.0519,     -999.2500,     -999.2500
     301.23616,       61.8347,        2.0290,     -999.2500,     -999.2500
     301.38856,       64.6769,        1.9972,     -999.2500,     -999.2500
     301.54096,       67.6060,        1.9721,     -999.2500,     -999.2500
     301.69336,       69.0204,        1.9472,     -999.2500,     -999.2500
     301.84576,       68.3133,        1.9441,     -999.2500,     -999.2500
     301.99816,       66.7039,        1.9663,     -999.2500,     -999.2500
     302.15056,       65.2266,        1.9802,     -999.2500,     -999.2500
     302.30296,       64.5797,        1.9797,     -999.2500,     -999.2500
     302.45536,       65.4949,        1.9670,     -999.2500,     -999.2500
     302.60776,       67.1740,        1.9434,     -999.2500,     -999.2500
     302.76016,       69.2941,        1.9191,     -999.2500,     -999.2500
     302.91256,       71.8272,        1.9075,     -999.2500,     -999.2500
     303.06496,       73.9030,        1.9178,     -999.2500,     -999.2500
     303.21736,       74.5963,        1.9446,     -999.2500,     -999.2500
     303.36976,       73.1851,        1.9796,     -999.2500,     -999.2500
     303.52216,       69.6021,        2.0083,     -999.2500,     -999.2500
     303.67456,       65.2297,        2.0479,     -999.2500,     -999.2500
