~Version
VERS  .             3.0                                 : CWLS LOG ASCII STANDARD - VERSION 3.0
WRAP  .             NO                                  : One line per depth step
DLM   .             COMMA                               : Delimiter character between data columns
#Delimiting character ( SPACE TAB OR COMMA ).

~Well
#MNEM.UNIT          DATA                                DESCRIPTION
#----- ----        -----------------                   -----------
STRT  .M                 10.30480                       : FIRST INDEX VALUE
STOP  .M               1434.78642                       : LAST INDEX VALUE
STEP  .M                  0.15240                       : STEP OF INDEX
NULL  .             -999.25                             : NULL VALUE
COMP  .                                                 : COMPANY
WELL  .             HEZE                                : WELL
FLD   .                                                 : FIELD
LOC   .                                                 : LOCATION
SRVC  .                                                 : SERVICE COMPANY
CTRY  .                                                 : COUNTRY
PROV  .                                                 : PROVINCE
UWI   .                                                 : UNIQUE WELL ID
LIC   .                                                 : LICENSE NUMBER
STAT  .                                                 : STATE
CNTY  .                                                 : COUNTY
API   .                                                 : API NUMBER
DATE  .                                                 : LOG DATE
X     .             653060.8816674                      : X OR EAST-WEST COORDINATE
Y     .             8157285.619841                      : Y OR NORTH-SOUTH COORDINATE
HZCS  .                                                 : HORIZONTAL CO-ORDINATE SYSTEM
LATI  .             -16.66194444444                     : LATITUDE
LONG  .             154.4352777778                      : LONGITUDE
GDAT  .                                                 : GEODETIC DATUM

~DEVIATION_PARAMETER 
#MNEM.UNIT                    VALUE                        DESCRIPTION
#--------------- ---         ------------                 -----------------

~DEVIATION_DEFINITION 
#MNEM.UNIT                 LOG CODE                  CURVE DESCRIPTION
#----------- ----         ------------              -----------------
DEPTH       .M                                      :     {F}
AZIMUTH     .DEG                                    :     {F}
DEVIATION   .DEG                                    : 90-DIP    {F}

~DEVIATION_DATA | DEVIATION_DEFINITION
       29.0000,        0.0000,        0.5000
       57.0000,        0.0000,        0.7500
       85.0000,        0.0000,        0.5000
      122.0000,        0.0000,        0.7500
      158.0000,        0.0000,        0.7500
      315.0000,        0.0000,        0.5000
      466.0000,        0.0000,        0.2500
      629.0000,        0.0000,        0.7500
      782.0000,        0.0000,        0.7500
      934.0000,        0.0000,        2.2500
     1086.0000,        0.0000,        1.0000
     1240.0000,        0.0000,        0.7500
     1422.0000,        0.0000,        0.7500

~TOPS_PARAMETER 
#MNEM.UNIT                    VALUE                        DESCRIPTION
#--------------- ---         ------------                 -----------------

~TOPS_DEFINITION 
#MNEM.UNIT                 LOG CODE                  CURVE DESCRIPTION
#----------- ----         ------------              -----------------
DEPTH       .M                                      :     {F}
TOPS        .                                       : Values changed using TEXT_EDIT    {S30}

~TOPS_DATA | TOPS_DEFINITION
        4.0000,Doyles Creek Subgroup         
      419.0000,Horseshoe Creek Subgroup      
      503.0000,Apple Tree Flat Subgroup      
      718.5000,Watts Sandstone               
      736.5000,Denman Fm                     
      862.0000,Mt Leonard Fm                 
      995.0000,Althorpe Fm                   
     1031.0000,Malabar Fm                    
     1080.0000,Mt Ogilvie Fm                 
     1149.0000,Mt Thorley Fm                 
     1199.0000,Burnamwood Fm                 
     1300.0000,Archerfield Sandstone         
     1322.0000,Mulbring Siltstone            
     1388.0000,Muree Sandstone               
     1410.0000,                              

~PARAMETER 
#MNEM.UNIT                    VALUE                        DESCRIPTION
#--------------- ---         ------------                 -----------------

~CURVE 
#MNEM.UNIT                 LOG CODE                  CURVE DESCRIPTION
#----------- ----         ------------              -----------------
DEPTH       .M                                      :     {F}
GR          .GAPI                                   :     {F}
LLD         .OHMM                                   :     {F}
NPHI        .V/V                                    :     {F}
RHOB        .K/M3                                   :     {F}

~ASCII | CURVE 
# ...
     189.67945,       61.1986,        1.7889,     -999.2500,     -999.2500
     189.83185,       59.0023,        1.7473,     -999.2500,     -999.2500
     189.98425,       56.8978,        1.7076,     -999.2500,     -999.2500
     190.13665,       56.6461,        1.6902,     -999.2500,     -999.2500
     190.28905,       58.5782,        1.7201,     -999.2500,     -999.2500
     190.44145,       61.9164,        1.7710,     -999.2500,     -999.2500
     190.59385,       65.4433,        1.8130,     -999.2500,     -999.2500
     190.74625,       67.6721,        1.8371,     -999.2500,     -999.2500
     190.89865,       68.4591,        1.8365,     -999.2500,     -999.2500
     191.05105,       68.5201,        1.8097,     -999.2500,     -999.2500
     191.20345,       67.9034,        1.7700,     -999.2500,     -999.2500
     191.35585,       67.1859,        1.7528,     -999.2500,     -999.2500
     191.50825,       66.7041,        1.7601,     -999.2500,     -999.2500
     191.66065,       66.6504,        1.7797,     -999.2500,     -999.2500
     191.81305,       66.9677,        1.8032,     -999.2500,     -999.2500
     191.96545,       68.3880,        1.8378,     -999.2500,     -999.2500
     192.11785,       69.2794,        1.8652,     -999.2500,     -999.2500
     192.27025,       68.8674,        1.8835,     -999.2500,     -999.2500
     192.42265,       67.0376,        1.9245,     -999.2500,     -999.2500
     192.57505,       64.4815,        1.9996,     -999.2500,     -999.2500
     192.72745,       60.9278,        2.0626,     -999.2500,     -999.2500
     192.87985,       57.6916,        2.0951,     -999.2500,     -999.2500
     193.03225,       55.8672,        2.0936,     -999.2500,     -999.2500
     193.18465,       55.7016,        2.0269,     -999.2500,     -999.2500
     193.33705,       57.4073,        1.9144,     -999.2500,     -999.2500
     193.48945,       61.1517,        1.8147,     -999.2500,     -999.2500
     193.64185,       64.4105,        1.7504,     -999.2500,     -999.2500
     193.79425,       65.5033,        1.7288,     -999.2500,     -999.2500
     193.94665,       65.5525,        1.7485,     -999.2500,     -999.2500
     194.09905,       65.9171,        1.7789,     -999.2500,     -999.2500
     194.25145,       66.7191,        1.7948,     -999.2500,     -999.2500
     194.40385,       67.7503,        1.7883,     -999.2500,     -999.2500
     194.55625,       67.8671,        1.7699,     -999.2500,     -999.2500
     194.70865,       66.4772,        1.7679,     -999.2500,     -999.2500
     194.86105,       64.4400,        1.7719,     -999.2500,     -999.2500
     195.01345,       62.0669,        1.7811,     -999.2500,     -999.2500
     195.16585,       59.3535,        1.8019,     -999.2500,     -999.2500
     195.31825,       57.0418,        1.8102,     -999.2500,     -999.2500
     195.47065,       56.7901,        1.7893,     -999.2500,     -999.2500
     195.62305,       59.4123,        1.7721,     -999.2500,     -999.2500
     195.77545,       63.4802,        1.7638,     -999.2500,     -999.2500
     195.92785,       65.9899,        1.7776,     -999.2500,     -999.2500
     196.08025,       66.0205,        1.8232,     -999.2500,     -999.2500
     196.23265,       65.0252,        1.8932,     -999.2500,     -999.2500
     196.38505,       63.9440,        1.9583,     -999.2500,     -999.2500
     196.53745,       63.5122,        2.0011,     -999.2500,     -999.2500
     196.68984,       63.9040,        2.0108,     -999.2500,     -999.2500
     196.84224,       64.7957,        2.0023,     -999.2500,     -999.2500
     196.99464,       66.2032,        1.9863,     -999.2500,     -999.2500
     197.14704,       68.1872,        1.9650,     -999.2500,     -999.2500
     197.29944,       70.1829,        1.9505,     -999.2500,     -999.2500
     197.45184,       71.5865,        1.9386,     -999.2500,     -999.2500
     197.60424,       72.1149,        1.9338,     -999.2500,     -999.2500
     197.75664,       71.7021,        1.9461,     -999.2500,     -999.2500
     197.90904,       70.9511,        1.9899,     -999.2500,     -999.2500
     198.06144,       70.1391,        2.0459,     -999.2500,     -999.2500
     198.21384,       69.4814,        2.0938,     -999.2500,     -999.2500
     198.36624,       69.0393,        2.1187,     -999.2500,     -999.2500
     198.51864,       68.4308,        2.1100,     -999.2500,     -999.2500
     198.67104,       67.0207,        2.0642,     -999.2500,     -999.2500
     198.82344,       65.1817,        1.9943,     -999.2500,     -999.2500
     198.97584,       63.2597,        1.9232,     -999.2500,     -999.2500
     199.12824,       62.1060,        1.8430,     -999.2500,     -999.2500
     199.28064,       61.7831,        1.7595,     -999.2500,     -999.2500
     199.43304,       62.2940,        1.7002,     -999.2500,     -999.2500
     199.58544,       62.6965,        1.6818,     -999.2500,     -999.2500
     199.73784,       62.6161,        1.6859,     -999.2500,     -999.2500
     199.89024,       62.0297,        1.7066,     -999.2500,     -999.2500
     200.04264,       61.4167,        1.7303,     -999.2500,     -999.2500
     200.19504,       60.5679,        1.7290,     -999.2500,     -999.2500
     200.34744,       59.9421,        1.7056,     -999.2500,     -999.2500
     200.49984,       59.5951,        1.6853,     -999.2500,     -999.2500
     200.65224,       59.8307,        1.6853,     -999.2500,     -999.2500
     200.80464,       60.4568,        1.7006,     -999.2500,     -999.2500
     200.95704,       61.0264,        1.7268,     -999.2500,     -999.2500
     201.10944,       61.2309,        1.7452,     -999.2500,     -999.2500
     201.26184,       60.7928,        1.7408,     -999.2500,     -999.2500
     201.41424,       59.6676,        1.7015,     -999.2500,     -999.2500
     201.56664,       58.2885,        1.6507,     -999.2500,     -999.2500
     201.71904,       57.4137,        1.6025,     -999.2500,     -999.2500
     201.87144,       57.0649,        1.5740,     -999.2500,     -999.2500
     202.02384,       57.5802,        1.5881,     -999.2500,     -999.2500
     202.17624,       58.8953,        1.6383,     -999.2500,     -999.2500
     202.32864,       59.9185,        1.6935,     -999.2500,     -999.2500
     202.48104,       60.5960,        1.7483,     -999.2500,     -999.2500
     202.63344,       60.7625,        1.8012,     -999.2500,     -999.2500
     202.78584,       61.0937,        1.8347,     -999.2500,     -999.2500
     202.93824,       61.7942,        1.8624,     -999.2500,     -999.2500
     203.09064,       62.4947,        1.9078,     -999.2500,     -999.2500
     203.24304,       62.4505,        1.9568,     -999.2500,     -999.2500
     203.39544,       62.3247,        1.9907,     -999.2500,     -999.2500
     203.54784,       62.1832,        2.0099,     -999.2500,     -999.2500
     203.70024,       62.6428,        2.0194,     -999.2500,     -999.2500
     203.85264,       63.9230,        2.0187,     -999.2500,     -999.2500
     204.00504,       65.0825,        2.0104,     -999.2500,     -999.2500
     204.15744,       66.3770,        2.0000,     -999.2500,     -999.2500
     204.30984,       67.3366,        1.9800,     -999.2500,     -999.2500
     204.46224,       67.2946,        1.9387,     -999.2500,     -999.2500
     204.61464,       65.8345,        1.8757,     -999.2500,     -999.2500
     204.76704,       64.3352,        1.7988,     -999.2500,     -999.2500
     204.91944,       63.3312,        1.7189,     -999.2500,     -999.2500
     205.07184,       62.7084,        1.6632,     -999.2500,     -999.2500
     205.22424,       62.0107,        1.6474,     -999.2500,     -999.2500
     205.37664,       61.7670,        1.6775,     -999.2500,     -999.2500
     205.52904,       62.3772,        1.7501,     -999.2500,     -999.2500
     205.68144,       63.8612,        1.8347,     -999.2500,     -999.2500
     205.83384,       65.1889,        1.8900,     -999.2500,     -999.2500
