~Version
VERS  .             3.0                                 : CWLS LOG ASCII STANDARD - VERSION 3.0
WRAP  .             NO                                  : One line per depth step
DLM   .             COMMA                               : Delimiter character between data columns
#Delimiting character ( SPACE TAB OR COMMA ).

~Well
#MNEM.UNIT          DATA                                DESCRIPTION
#----- ----        -----------------                   -----------
STRT  .M                 10.30480                       : FIRST INDEX VALUE
STOP  .M               1434.78642                       : LAST INDEX VALUE
STEP  .M                  0.15240                       : STEP OF INDEX
NULL  .             -999.25                             : NULL VALUE
COMP  .                                                 : COMPANY
WELL  .             HEZE                                : WELL
FLD   .                                                 : FIELD
LOC   .                                                 : LOCATION
SRVC  .                                                 : SERVICE COMPANY
CTRY  .                                                 : COUNTRY
PROV  .                                                 : PROVINCE
UWI   .                                                 : UNIQUE WELL ID
LIC   .                                                 : LICENSE NUMBER
STAT  .                                                 : STATE
CNTY  .                                                 : COUNTY
API   .                                                 : API NUMBER
DATE  .                                                 : LOG DATE
X     .             653060.8816674                      : X OR EAST-WEST COORDINATE
Y     .             8157285.619841                      : Y OR NORTH-SOUTH COORDINATE
HZCS  .                                                 : HORIZONTAL CO-ORDINATE SYSTEM
LATI  .             -16.66194444444                     : LATITUDE
LONG  .             154.4352777778                      : LONGITUDE
GDAT  .                                                 : GEODETIC DATUM

~DEVIATION_PARAMETER 
#MNEM.UNIT                    VALUE                        DESCRIPTION
#--------------- ---         ------------                 -----------------

~DEVIATION_DEFINITION 
#MNEM.UNIT                 LOG CODE                  CURVE DESCRIPTION
#----------- ----         ------------              -----------------
DEPTH       .M                                      :     {F}
AZIMUTH     .DEG                                    :     {F}
DEVIATION   .DEG                                    : 90-DIP    {F}

~DEVIATION_DATA | DEVIATION_DEFINITION
       29.0000,        0.0000,        0.5000
       57.0000,        0.0000,        0.7500
       85.0000,        0.0000,        0.5000
      122.0000,        0.0000,        0.7500
      158.0000,        0.0000,        0.7500
      315.0000,        0.0000,        0.5000
      466.0000,        0.0000,        0.2500
      629.0000,        0.0000,        0.7500
      782.0000,        0.0000,        0.7500
      934.0000,        0.0000,        2.2500
     1086.0000,        0.0000,        1.0000
     1240.0000,        0.0000,        0.7500
     1422.0000,        0.0000,        0.7500

~TOPS_PARAMETER 
#MNEM.UNIT                    VALUE                        DESCRIPTION
#--------------- ---         ------------                 -----------------

~TOPS_DEFINITION 
#MNEM.UNIT                 LOG CODE                  CURVE DESCRIPTION
#----------- ----         ------------              -----------------
DEPTH       .M                                      :     {F}
TOPS        .                                       : Values changed using TEXT_EDIT    {S30}

~TOPS_DATA | TOPS_DEFINITION
        4.0000,Doyles Creek Subgroup         
      419.0000,Horseshoe Creek Subgroup      
      503.0000,Apple Tree Flat Subgroup      
      718.5000,Watts Sandstone               
      736.5000,Denman Fm                     
      862.0000,Mt Leonard Fm                 
      995.0000,Althorpe Fm                   
     1031.0000,Malabar Fm                    
     1080.0000,Mt Ogilvie Fm                 
     1149.0000,Mt Thorley Fm                 
     1199.0000,Burnamwood Fm                 
     1300.0000,Archerfield Sandstone         
     1322.0000,Mulbring Siltstone            
     1388.0000,Muree Sandstone               
     1410.0000,                              

~PARAMETER 
#MNEM.UNIT                    VALUE                        DESCRIPTION
#--------------- ---         ------------                 -----------------

~CURVE 
#MNEM.UNIT                 LOG CODE                  CURVE DESCRIPTION
#----------- ----         ------------              -----------------
DEPTH       .M                                      :     {F}
GR          .GAPI                                   :     {F}
LLD         .OHMM                                   :     {F}
NPHI        .V/V                                    :     {F}
RHOB        .K/M3                                   :     {F}

~ASCII | CURVE 
# ...
    1233.31378,       91.3245,       15.1714,        0.2067,     2386.0200
    1233.46618,       91.2688,       15.2477,        0.2077,     2384.3400
    1233.61858,       92.9308,       15.3437,        0.2072,     2382.6500
    1233.77098,       93.6945,       15.4637,        0.2069,     2379.0800
    1233.92338,       93.2208,       15.6097,        0.2072,     2372.1400
    1234.07578,       91.3780,       15.7367,        0.2070,     2364.3700
    1234.22818,       89.7757,       15.8558,        0.2056,     2361.8900
    1234.38058,       90.0600,       15.9029,        0.2024,     2366.8200
    1234.53298,       91.7178,       15.8903,        0.1986,     2374.8500
    1234.68538,       92.3058,       15.8981,        0.1971,     2381.9200
    1234.83778,       91.9307,       15.9240,        0.1985,     2384.8400
    1234.99018,       91.8734,       15.9481,        0.2013,     2384.6000
    1235.14258,       91.3811,       15.9791,        0.2042,     2382.6400
    1235.29498,       90.2525,       15.9927,        0.2060,     2378.4700
    1235.44738,       89.3323,       15.9301,        0.2066,     2371.7100
    1235.59978,       89.3487,       15.8276,        0.2075,     2365.9600
    1235.75218,       89.0139,       15.7327,        0.2099,     2361.4400
    1235.90458,       88.6015,       15.6928,        0.2129,     2360.0900
    1236.05698,       87.4415,       15.7027,        0.2150,     2363.0500
    1236.20938,       86.5021,       15.7827,        0.2151,     2367.4700
    1236.36178,       86.2511,       15.9006,        0.2127,     2367.1500
    1236.51418,       86.2994,       16.0081,        0.2087,     2362.2200
    1236.66658,       85.0178,       16.0892,        0.2052,     2358.1900
    1236.81898,       83.7944,       16.1619,        0.2036,     2360.9500
    1236.97138,       84.2301,       16.1995,        0.2043,     2369.3700
    1237.12378,       86.3661,       16.1232,        0.2068,     2377.0200
    1237.27618,       88.0712,       16.0290,        0.2100,     2377.2600
    1237.42858,       88.2533,       15.9384,        0.2130,     2375.0400
    1237.58098,       87.4527,       15.7713,        0.2154,     2378.2400
    1237.73338,       88.0111,       15.5693,        0.2171,     2388.5400
    1237.88578,       89.4048,       15.4753,        0.2175,     2397.6900
    1238.03818,       89.9393,       15.3836,        0.2165,     2398.7800
    1238.19058,       88.9055,       15.2485,        0.2150,     2390.4200
    1238.34298,       87.5559,       15.2162,        0.2144,     2380.8400
    1238.49538,       87.2789,       15.2578,        0.2154,     2371.7600
    1238.64778,       88.6530,       15.3064,        0.2166,     2365.5600
    1238.80018,       90.7668,       15.3883,        0.2159,     2365.3900
    1238.95258,       92.5209,       15.5146,        0.2128,     2371.5100
    1239.10498,       93.3614,       15.5845,        0.2093,     2380.3600
    1239.25738,       93.2592,       15.5103,        0.2084,     2389.1000
    1239.40978,       92.1190,       15.3277,        0.2107,     2392.4000
    1239.56218,       91.0514,       15.0714,        0.2134,     2391.3200
    1239.71458,       91.1925,       14.8186,        0.2142,     2392.7600
    1239.86698,       93.4047,       14.6299,        0.2130,     2399.9500
    1240.01938,       96.9703,       14.5918,        0.2116,     2408.0800
    1240.17178,      101.4560,       14.6660,        0.2112,     2414.7400
    1240.32418,      104.4290,       14.7422,        0.2109,     2418.3200
    1240.47658,      104.7670,       14.7045,        0.2097,     2417.4200
    1240.62898,      102.0190,       14.5468,        0.2080,     2411.5000
    1240.78138,       97.6928,       14.2877,        0.2070,     2401.0100
    1240.93378,       94.5821,       14.0025,        0.2073,     2390.8600
    1241.08618,       94.2341,       13.8821,        0.2083,     2385.9200
    1241.23858,       96.1539,       13.9891,        0.2083,     2388.9600
    1241.39098,       99.6823,       14.3119,        0.2075,     2401.5400
    1241.54338,      105.2230,       14.7546,        0.2083,     2421.2300
    1241.69578,      112.1160,       15.1336,        0.2120,     2442.3900
    1241.84818,      119.8860,       15.3174,        0.2176,     2462.2600
    1242.00058,      124.5300,       15.2672,        0.2226,     2472.3800
    1242.15298,      122.9280,       14.9984,        0.2244,     2463.5100
    1242.30538,      115.5450,       14.7082,        0.2233,     2441.2200
    1242.45778,      106.5610,       14.4987,        0.2213,     2412.3800
    1242.61018,       98.8369,       14.3749,        0.2181,     2384.7700
    1242.76258,       93.5398,       14.3715,        0.2126,     2362.0100
    1242.91497,       88.8033,       14.5041,        0.2064,     2349.2700
    1243.06737,       84.4547,       14.7340,        0.2020,     2350.9200
    1243.21977,       82.6767,       15.0907,        0.2006,     2366.8100
    1243.37217,       83.6148,       15.6191,        0.2013,     2388.5000
    1243.52457,       86.5036,       16.2628,        0.2012,     2408.1700
    1243.67697,       90.7076,       16.6810,        0.1994,     2420.7600
    1243.82937,       94.1147,       16.7170,        0.1978,     2430.2900
    1243.98177,       96.8154,       16.3103,        0.1981,     2438.3400
    1244.13417,       98.6429,       15.5809,        0.2003,     2438.4300
    1244.28657,       98.4367,       14.7625,        0.2038,     2429.4900
    1244.43897,       97.1080,       14.2919,        0.2083,     2421.1400
    1244.59137,       95.8186,       14.3947,        0.2141,     2421.1600
    1244.74377,       94.6039,       15.1155,        0.2203,     2430.5200
    1244.89617,       94.9693,       15.7664,        0.2256,     2437.3500
    1245.04857,       96.4474,       15.9840,        0.2291,     2434.3400
    1245.20097,       97.9056,       15.8619,        0.2318,     2421.8200
    1245.35337,       99.7818,       15.2956,        0.2359,     2408.0600
    1245.50577,      101.4930,       14.4613,        0.2423,     2397.8800
    1245.65817,      103.3720,       13.9900,        0.2500,     2391.8400
    1245.81057,      105.4060,       13.8294,        0.2569,     2382.8800
    1245.96297,      106.4730,       13.6732,        0.2617,     2368.3600
    1246.11537,      106.5580,       13.5721,        0.2640,     2353.1500
    1246.26777,      107.4810,       13.4202,        0.2642,     2350.1300
    1246.42017,      109.7000,       13.2188,        0.2631,     2361.7200
    1246.57257,      111.0130,       13.2476,        0.2616,     2377.6300
    1246.72497,      109.9360,       13.3877,        0.2606,     2383.4000
    1246.87737,      106.5840,       13.4163,        0.2609,     2371.3200
    1247.02977,      102.0280,       13.4241,        0.2634,     2347.4900
    1247.18217,       98.7570,       13.3423,        0.2664,     2328.3600
    1247.33457,       99.5885,       13.0507,        0.2678,     2326.4800
    1247.48697,      102.2690,       12.8106,        0.2655,     2340.0400
    1247.63937,      105.1620,       12.7708,        0.2601,     2358.6200
    1247.79177,      106.4020,       12.6595,        0.2546,     2370.4300
    1247.94417,      104.2930,       12.5129,        0.2514,     2367.0200
    1248.09657,       99.9159,       12.5113,        0.2500,     2356.9100
    1248.24897,       97.5211,       12.5238,        0.2495,     2354.9500
    1248.40137,       97.6213,       12.5377,        0.2500,     2361.0800
    1248.55377,       99.5995,       12.7633,        0.2517,     2367.1900
    1248.70617,      102.3400,       12.9692,        0.2552,     2369.4400
    1248.85857,      103.8140,       13.0108,        0.2599,     2363.5700
    1249.01097,      103.2260,       13.0383,        0.2638,     2354.7200
    1249.16337,      101.6400,       12.9324,        0.2648,     2345.8500
    1249.31577,      100.2280,       12.7106,        0.2619,     2335.2800
    1249.46817,      100.3470,       12.6982,        0.2559,     2329.1400
