~Version
VERS  .             3.0                                 : CWLS LOG ASCII STANDARD - VERSION 3.0
WRAP  .             NO                                  : One line per depth step
DLM   .             COMMA                               : Delimiter character between data columns
#Delimiting character ( SPACE TAB OR COMMA ).

~Well
#MNEM.UNIT          DATA                                DESCRIPTION
#----- ----        -----------------                   -----------
STRT  .M                 10.30480                       : FIRST INDEX VALUE
STOP  .M               1434.78642                       : LAST INDEX VALUE
STEP  .M                  0.15240                       : STEP OF INDEX
NULL  .             -999.25                             : NULL VALUE
COMP  .                                                 : COMPANY
WELL  .             HEZE                                : WELL
FLD   .                                                 : FIELD
LOC   .                                                 : LOCATION
SRVC  .                                                 : SERVICE COMPANY
CTRY  .                                                 : COUNTRY
PROV  .                                                 : PROVINCE
UWI   .                                                 : UNIQUE WELL ID
LIC   .                                                 : LICENSE NUMBER
STAT  .                                                 : STATE
CNTY  .                                                 : COUNTY
API   .                                                 : API NUMBER
DATE  .                                                 : LOG DATE
X     .             653060.8816674                      : X OR EAST-WEST COORDINATE
Y     .             8157285.619841                      : Y OR NORTH-SOUTH COORDINATE
HZCS  .                                                 : HORIZONTAL CO-ORDINATE SYSTEM
LATI  .             -16.66194444444                     : LATITUDE
LONG  .             154.4352777778                      : LONGITUDE
GDAT  .                                                 : GEODETIC DATUM

~DEVIATION_PARAMETER 
#MNEM.UNIT                    VALUE                        DESCRIPTION
#--------------- ---         ------------                 -----------------

~DEVIATION_DEFINITION 
#MNEM.UNIT                 LOG CODE                  CURVE DESCRIPTION
#----------- ----         ------------              -----------------
DEPTH       .M                                      :     {F}
AZIMUTH     .DEG                                    :     {F}
DEVIATION   .DEG                                    : 90-DIP    {F}

~DEVIATION_DATA | DEVIATION_DEFINITION
       29.0000,        0.0000,        0.5000
       57.0000,        0.0000,        0.7500
       85.0000,        0.0000,        0.5000
      122.0000,        0.0000,        0.7500
      158.0000,        0.0000,        0.7500
      315.0000,        0.0000,        0.5000
      466.0000,        0.0000,        0.2500
      629.0000,        0.0000,        0.7500
      782.0000,        0.0000,        0.7500
      934.0000,        0.0000,        2.2500
     1086.0000,        0.0000,        1.0000
     1240.0000,        0.0000,        0.7500
     1422.0000,        0.0000,        0.7500

~TOPS_PARAMETER 
#MNEM.UNIT                    VALUE                        DESCRIPTION
#--------------- ---         ------------                 -----------------

~TOPS_DEFINITION 
#MNEM.UNIT                 LOG CODE                  CURVE DESCRIPTION
#----------- ----         ------------              -----------------
DEPTH       .M                                      :     {F}
TOPS        .                                       : Values changed using TEXT_EDIT    {S30}

~TOPS_DATA | TOPS_DEFINITION
        4.0000,Doyles Creek Subgroup         
      419.0000,Horseshoe Creek Subgroup      
      503.0000,Apple Tree Flat Subgroup      
      718.5000,Watts Sandstone               
      736.5000,Denman Fm                     
      862.0000,Mt Leonard Fm                 
      995.0000,Althorpe Fm                   
     1031.0000,Malabar Fm                    
     1080.0000,Mt Ogilvie Fm                 
     1149.0000,Mt Thorley Fm                 
     1199.0000,Burnamwood Fm                 
     1300.0000,Archerfield Sandstone         
     1322.0000,Mulbring Siltstone            
     1388.0000,Muree Sandstone               
     1410.0000,                              

~PARAMETER 
#MNEM.UNIT                    VALUE                        DESCRIPTION
#--------------- ---         ------------                 -----------------

~CURVE 
#MNEM.UNIT                 LOG CODE                  CURVE DESCRIPTION
#----------- ----         ------------              -----------------
DEPTH       .M                                      :     {F}
GR          .GAPI                                   :     {F}
LLD         .OHMM                                   :     {F}
NPHI        .V/V                                    :     {F}
RHOB        .K/M3                                   :     {F}

~ASCII | CURVE 
# ...
     385.36089,       71.9442,        1.7817,     -999.2500,     -999.2500
     385.51329,       68.1477,        1.9157,     -999.2500,     -999.2500
     385.66569,       61.8632,        2.1248,     -999.2500,     -999.2500
     385.81809,       54.8823,        2.4074,     -999.2500,     -999.2500
     385.97049,       50.7583,        2.7392,     -999.2500,     -999.2500
     386.12289,       48.8645,        3.0413,     -999.2500,     -999.2500
     386.27529,       46.4983,        3.3605,     -999.2500,     -999.2500
     386.42769,       42.0079,        3.8718,     -999.2500,     -999.2500
     386.58009,       36.3023,        4.3594,     -999.2500,     -999.2500
     386.73249,       32.2565,        4.5462,     -999.2500,     -999.2500
     386.88489,       33.6994,        4.4802,     -999.2500,     -999.2500
     387.03729,       40.8654,        4.1845,     -999.2500,     -999.2500
     387.18969,       50.9533,        3.5751,     -999.2500,     -999.2500
     387.34209,       60.6756,        2.9045,     -999.2500,     -999.2500
     387.49449,       67.7847,        2.4848,     -999.2500,     -999.2500
     387.64689,       70.4034,        2.2919,     -999.2500,     -999.2500
     387.79929,       69.9266,        2.2025,     -999.2500,     -999.2500
     387.95169,       69.6747,        2.1686,     -999.2500,     -999.2500
     388.10409,       70.8476,        2.1408,     -999.2500,     -999.2500
     388.25649,       72.0871,        2.0943,     -999.2500,     -999.2500
     388.40889,       72.9671,        2.0785,     -999.2500,     -999.2500
     388.56129,       71.7519,        2.0972,     -999.2500,     -999.2500
     388.71369,       68.3346,        2.1031,     -999.2500,     -999.2500
     388.86609,       65.0807,        2.1015,     -999.2500,     -999.2500
     389.01849,       64.0453,        2.0720,     -999.2500,     -999.2500
     389.17088,       65.0774,        1.9759,     -999.2500,     -999.2500
     389.32328,       67.8161,        1.8607,     -999.2500,     -999.2500
     389.47568,       70.5064,        1.7874,     -999.2500,     -999.2500
     389.62808,       71.8345,        1.7599,     -999.2500,     -999.2500
     389.78048,       71.5410,        1.7930,     -999.2500,     -999.2500
     389.93288,       70.7787,        1.8887,     -999.2500,     -999.2500
     390.08528,       70.1037,        1.9998,     -999.2500,     -999.2500
     390.23768,       69.5764,        2.0874,     -999.2500,     -999.2500
     390.39008,       68.9407,        2.1324,     -999.2500,     -999.2500
     390.54248,       68.3026,        2.1424,     -999.2500,     -999.2500
     390.69488,       67.4032,        2.1243,     -999.2500,     -999.2500
     390.84728,       66.4047,        2.1069,     -999.2500,     -999.2500
     390.99968,       65.3604,        2.1138,     -999.2500,     -999.2500
     391.15208,       64.4164,        2.1694,     -999.2500,     -999.2500
     391.30448,       62.7740,        2.2622,     -999.2500,     -999.2500
     391.45688,       61.0007,        2.3638,     -999.2500,     -999.2500
     391.60928,       59.1603,        2.4530,     -999.2500,     -999.2500
     391.76168,       57.6092,        2.5173,     -999.2500,     -999.2500
     391.91408,       57.0052,        2.5423,     -999.2500,     -999.2500
     392.06648,       57.6458,        2.5388,     -999.2500,     -999.2500
     392.21888,       58.8263,        2.5857,     -999.2500,     -999.2500
     392.37128,       60.3278,        2.7869,     -999.2500,     -999.2500
     392.52368,       61.1307,        3.2671,     -999.2500,     -999.2500
     392.67608,       59.8470,        4.1722,     -999.2500,     -999.2500
     392.82848,       56.6614,        5.1211,     -999.2500,     -999.2500
     392.98088,       52.9626,        5.6203,     -999.2500,     -999.2500
     393.13328,       51.7624,        5.6065,     -999.2500,     -999.2500
     393.28568,       54.4668,        5.1226,     -999.2500,     -999.2500
     393.43808,       59.0695,        4.1347,     -999.2500,     -999.2500
     393.59048,       62.8648,        3.0777,     -999.2500,     -999.2500
     393.74288,       64.7016,        2.4040,     -999.2500,     -999.2500
     393.89528,       65.2542,        2.0867,     -999.2500,     -999.2500
     394.04768,       66.4966,        1.9659,     -999.2500,     -999.2500
     394.20008,       68.4840,        1.9299,     -999.2500,     -999.2500
     394.35248,       69.8659,        1.9226,     -999.2500,     -999.2500
     394.50488,       70.3589,        1.9162,     -999.2500,     -999.2500
     394.65728,       70.6446,        1.9027,     -999.2500,     -999.2500
     394.80968,       70.7807,        1.8866,     -999.2500,     -999.2500
     394.96208,       70.7556,        1.8700,     -999.2500,     -999.2500
     395.11448,       70.2166,        1.8534,     -999.2500,     -999.2500
     395.26688,       69.2405,        1.8463,     -999.2500,     -999.2500
     395.41928,       68.6164,        1.8444,     -999.2500,     -999.2500
     395.57168,       68.6616,        1.8385,     -999.2500,     -999.2500
     395.72408,       68.7244,        1.8310,     -999.2500,     -999.2500
     395.87648,       68.4409,        1.8228,     -999.2500,     -999.2500
     396.02888,       68.3861,        1.8084,     -999.2500,     -999.2500
     396.18128,       68.3854,        1.7939,     -999.2500,     -999.2500
     396.33368,       67.7842,        1.7944,     -999.2500,     -999.2500
     396.48608,       67.0096,        1.8089,     -999.2500,     -999.2500
     396.63848,       66.7481,        1.8320,     -999.2500,     -999.2500
     396.79088,       67.1065,        1.8800,     -999.2500,     -999.2500
     396.94328,       68.6859,        1.9332,     -999.2500,     -999.2500
     397.09568,       70.4596,        1.9679,     -999.2500,     -999.2500
     397.24808,       70.1865,        1.9881,     -999.2500,     -999.2500
     397.40048,       69.4369,        1.9910,     -999.2500,     -999.2500
     397.55288,       68.7009,        1.9612,     -999.2500,     -999.2500
     397.70528,       67.9499,        1.9197,     -999.2500,     -999.2500
     397.85768,       67.8959,        1.8749,     -999.2500,     -999.2500
     398.01008,       68.6214,        1.8287,     -999.2500,     -999.2500
     398.16248,       68.7533,        1.7876,     -999.2500,     -999.2500
     398.31488,       69.5132,        1.7573,     -999.2500,     -999.2500
     398.46728,       69.6820,        1.7407,     -999.2500,     -999.2500
     398.61968,       68.7840,        1.7470,     -999.2500,     -999.2500
     398.77208,       67.7572,        1.7800,     -999.2500,     -999.2500
     398.92448,       67.1654,        1.8331,     -999.2500,     -999.2500
     399.07688,       66.9533,        1.8991,     -999.2500,     -999.2500
     399.22928,       67.4112,        1.9637,     -999.2500,     -999.2500
     399.38168,       68.2707,        1.9964,     -999.2500,     -999.2500
     399.53408,       68.6606,        1.9950,     -999.2500,     -999.2500
     399.68648,       69.0613,        1.9851,     -999.2500,     -999.2500
     399.83888,       69.3462,        1.9742,     -999.2500,     -999.2500
     399.99128,       69.2159,        1.9617,     -999.2500,     -999.2500
     400.14368,       67.6791,        1.9607,     -999.2500,     -999.2500
     400.29608,       65.2143,        1.9574,     -999.2500,     -999.2500
     400.44848,       62.1949,        1.9354,     -999.2500,     -999.2500
     400.60088,       59.9560,        1.9511,     -999.2500,     -999.2500
     400.75328,       58.3560,        2.1305,     -999.2500,     -999.2500
     400.90568,       56.2280,        2.6521,     -999.2500,     -999.2500
     401.05808,       52.4712,        3.9319,     -999.2500,     -999.2500
     401.21047,       48.1904,        6.5349,     -999.2500,     -999.2500
     401.36287,       45.1604,        9.6206,     -999.2500,     -999.2500
     401.51527,       43.9754,       12.3336,     -999.2500,     -999.2500
