~Version
VERS  .             3.0                                 : CWLS LOG ASCII STANDARD - VERSION 3.0
WRAP  .             NO                                  : One line per depth step
DLM   .             COMMA                               : Delimiter character between data columns
#Delimiting character ( SPACE TAB OR COMMA ).

~Well
#MNEM.UNIT          DATA                                DESCRIPTION
#----- ----        -----------------                   -----------
STRT  .M                 10.30480                       : FIRST INDEX VALUE
STOP  .M               1434.78642                       : LAST INDEX VALUE
STEP  .M                  0.15240                       : STEP OF INDEX
NULL  .             -999.25                             : NULL VALUE
COMP  .                                                 : COMPANY
WELL  .             HEZE                                : WELL
FLD   .                                                 : FIELD
LOC   .                                                 : LOCATION
SRVC  .                                                 : SERVICE COMPANY
CTRY  .                                                 : COUNTRY
PROV  .                                                 : PROVINCE
UWI   .                                                 : UNIQUE WELL ID
LIC   .                                                 : LICENSE NUMBER
STAT  .                                                 : STATE
CNTY  .                                                 : COUNTY
API   .                                                 : API NUMBER
DATE  .                                                 : LOG DATE
X     .             653060.8816674                      : X OR EAST-WEST COORDINATE
Y     .             8157285.619841                      : Y OR NORTH-SOUTH COORDINATE
HZCS  .                                                 : HORIZONTAL CO-ORDINATE SYSTEM
LATI  .             -16.66194444444                     : LATITUDE
LONG  .             154.4352777778                      : LONGITUDE
GDAT  .                                                 : GEODETIC DATUM

~DEVIATION_PARAMETER 
#MNEM.UNIT                    VALUE                        DESCRIPTION
#--------------- ---         ------------                 -----------------

~DEVIATION_DEFINITION 
#MNEM.UNIT                 LOG CODE                  CURVE DESCRIPTION
#----------- ----         ------------              -----------------
DEPTH       .M                                      :     {F}
AZIMUTH     .DEG                                    :     {F}
DEVIATION   .DEG                                    : 90-DIP    {F}

~DEVIATION_DATA | DEVIATION_DEFINITION
       29.0000,        0.0000,        0.5000
       57.0000,        0.0000,        0.7500
       85.0000,        0.0000,        0.5000
      122.0000,        0.0000,        0.7500
      158.0000,        0.0000,        0.7500
      315.0000,        0.0000,        0.5000
      466.0000,        0.0000,        0.2500
      629.0000,        0.0000,        0.7500
      782.0000,        0.0000,        0.7500
      934.0000,        0.0000,        2.2500
     1086.0000,        0.0000,        1.0000
     1240.0000,        0.0000,        0.7500
     1422.0000,        0.0000,        0.7500

~TOPS_PARAMETER 
#MNEM.UNIT                    VALUE                        DESCRIPTION
#--------------- ---         ------------                 -----------------

~TOPS_DEFINITION 
#MNEM.UNIT                 LOG CODE                  CURVE DESCRIPTION
#----------- ----         ------------              -----------------
DEPTH       .M                                      :     {F}
TOPS        .                                       : Values changed using TEXT_EDIT    {S30}

~TOPS_DATA | TOPS_DEFINITION
        4.0000,Doyles Creek Subgroup         
      419.0000,Horseshoe Creek Subgroup      
      503.0000,Apple Tree Flat Subgroup      
      718.5000,Watts Sandstone               
      736.5000,Denman Fm                     
      862.0000,Mt Leonard Fm                 
      995.0000,Althorpe Fm                   
     1031.0000,Malabar Fm                    
     1080.0000,Mt Ogilvie Fm                 
     1149.0000,Mt Thorley Fm                 
     1199.0000,Burnamwood Fm                 
     1300.0000,Archerfield Sandstone         
     1322.0000,Mulbring Siltstone            
     1388.0000,Muree Sandstone               
     1410.0000,                              

~PARAMETER 
#MNEM.UNIT                    VALUE                        DESCRIPTION
#--------------- ---         ------------                 -----------------

~CURVE 
#MNEM.UNIT                 LOG CODE                  CURVE DESCRIPTION
#----------- ----         ------------              -----------------
DEPTH       .M                                      :     {F}
GR          .GAPI                                   :     {F}
LLD         .OHMM                                   :     {F}
NPHI        .V/V                                    :     {F}
RHOB        .K/M3                                   :     {F}

~ASCII | CURVE 
# ...
     939.79163,       66.6657,        1.4692,     -999.2500,     -999.2500
     939.94403,       67.0388,        1.4694,     -999.2500,     -999.2500
     940.09643,       67.9744,        1.4791,     -999.2500,     -999.2500
     940.24883,       69.4477,        1.4865,     -999.2500,     -999.2500
     940.40123,       71.1034,        1.4783,     -999.2500,     -999.2500
     940.55363,       72.2252,        1.4673,     -999.2500,     -999.2500
     940.70603,       71.9293,        1.4709,     -999.2500,     -999.2500
     940.85843,       70.9729,        1.4775,     -999.2500,     -999.2500
     941.01083,       69.4887,        1.4891,     -999.2500,     -999.2500
     941.16323,       69.1606,        1.5069,     -999.2500,     -999.2500
     941.31563,       70.6241,        1.5147,     -999.2500,     -999.2500
     941.46803,       72.5378,        1.5119,     -999.2500,     -999.2500
     941.62043,       73.4793,        1.5112,     -999.2500,     -999.2500
     941.77283,       73.1146,        1.5125,     -999.2500,     -999.2500
     941.92523,       71.8064,        1.5152,     -999.2500,     -999.2500
     942.07763,       69.9225,        1.5316,     -999.2500,     -999.2500
     942.23002,       68.8610,        1.5456,     -999.2500,     -999.2500
     942.38242,       68.7423,        1.5458,     -999.2500,     -999.2500
     942.53482,       69.3202,        1.5335,     -999.2500,     -999.2500
     942.68722,       69.7603,        1.5123,     -999.2500,     -999.2500
     942.83962,       69.6893,        1.4745,     -999.2500,     -999.2500
     942.99202,       69.5118,        1.4332,     -999.2500,     -999.2500
     943.14442,       69.9022,        1.3930,     -999.2500,     -999.2500
     943.29682,       71.3527,        1.3596,     -999.2500,     -999.2500
     943.44922,       73.3657,        1.3358,     -999.2500,     -999.2500
     943.60162,       75.2358,        1.3303,     -999.2500,     -999.2500
     943.75402,       75.1647,        1.3470,     -999.2500,     -999.2500
     943.90642,       73.1004,        1.3855,     -999.2500,     -999.2500
     944.05882,       70.4706,        1.4358,     -999.2500,     -999.2500
     944.21122,       68.8283,        1.4913,     -999.2500,     -999.2500
     944.36362,       68.6725,        1.5419,     -999.2500,     -999.2500
     944.51602,       69.1012,        1.5818,     -999.2500,     -999.2500
     944.66842,       68.2289,        1.6000,     -999.2500,     -999.2500
     944.82082,       65.8886,        1.6082,     -999.2500,     -999.2500
     944.97322,       64.0126,        1.6146,     -999.2500,     -999.2500
     945.12562,       63.9481,        1.6133,     -999.2500,     -999.2500
     945.27802,       64.6242,        1.6104,     -999.2500,     -999.2500
     945.43042,       65.4927,        1.6114,     -999.2500,     -999.2500
     945.58282,       66.4222,        1.6098,     -999.2500,     -999.2500
     945.73522,       67.5357,        1.5985,     -999.2500,     -999.2500
     945.88762,       68.4830,        1.5794,     -999.2500,     -999.2500
     946.04002,       69.5256,        1.5520,     -999.2500,     -999.2500
     946.19242,       69.6910,        1.5263,     -999.2500,     -999.2500
     946.34482,       69.0501,        1.5104,     -999.2500,     -999.2500
     946.49722,       68.2644,        1.5056,     -999.2500,     -999.2500
     946.64962,       67.3196,        1.5157,     -999.2500,     -999.2500
     946.80202,       66.3447,        1.5322,     -999.2500,     -999.2500
     946.95442,       65.3974,        1.5495,     -999.2500,     -999.2500
     947.10682,       65.0220,        1.5568,     -999.2500,     -999.2500
     947.25922,       65.1017,        1.5609,     -999.2500,     -999.2500
     947.41162,       66.1369,        1.5731,     -999.2500,     -999.2500
     947.56402,       67.1076,        1.5910,     -999.2500,     -999.2500
     947.71642,       67.2087,        1.6145,     -999.2500,     -999.2500
     947.86882,       66.2259,        1.6521,        0.3696,     2320.5600
     948.02122,       64.8719,        1.6871,        0.3603,     2326.4300
     948.17362,       63.9858,        1.7063,        0.3499,     2332.6700
     948.32602,       65.3231,        1.7123,        0.3418,     2335.6900
     948.47842,       67.7237,        1.7084,        0.3387,     2338.1000
     948.63082,       68.5660,        1.6885,        0.3432,     2339.2700
     948.78322,       67.9285,        1.6650,        0.3543,     2342.3100
     948.93562,       66.4927,        1.6471,        0.3645,     2345.8000
     949.08802,       65.3222,        1.6233,        0.3654,     2346.6200
     949.24042,       65.6349,        1.5928,        0.3578,     2344.4900
     949.39282,       66.2554,        1.5634,        0.3506,     2343.5200
     949.54522,       66.2416,        1.5330,        0.3505,     2342.9700
     949.69762,       66.7010,        1.5034,        0.3557,     2340.7200
     949.85002,       68.2775,        1.4893,        0.3615,     2338.2800
     950.00242,       70.4636,        1.4919,        0.3641,     2335.3200
     950.15482,       71.8305,        1.5011,        0.3639,     2332.4800
     950.30722,       71.7652,        1.5106,        0.3640,     2331.9700
     950.45962,       71.4037,        1.5135,        0.3660,     2331.9100
     950.61202,       71.1228,        1.5103,        0.3671,     2331.5400
     950.76442,       70.9603,        1.5052,        0.3629,     2334.0800
     950.91682,       71.1491,        1.4954,        0.3515,     2338.1500
     951.06922,       70.6122,        1.4935,        0.3376,     2340.8800
     951.22162,       68.9117,        1.5110,        0.3281,     2340.9700
     951.37402,       66.5531,        1.5486,        0.3251,     2337.2600
     951.52642,       63.8641,        1.6054,        0.3259,     2334.7100
     951.67882,       61.9238,        1.6747,        0.3287,     2335.3400
     951.83122,       61.2885,        1.7358,        0.3342,     2337.5100
     951.98362,       61.0831,        1.7782,        0.3419,     2339.7000
     952.13602,       61.0828,        1.7961,        0.3484,     2340.5300
     952.28842,       61.2652,        1.7919,        0.3500,     2339.5300
     952.44082,       62.6847,        1.7832,        0.3471,     2338.2200
     952.59322,       64.7531,        1.7754,        0.3464,     2335.6800
     952.74562,       66.7020,        1.7816,        0.3535,     2331.1800
     952.89802,       67.4309,        1.8016,        0.3664,     2327.7000
     953.05042,       67.5935,        1.8189,        0.3782,     2326.3100
     953.20282,       67.2674,        1.8422,        0.3831,     2326.6300
     953.35522,       67.5955,        1.8692,        0.3827,     2328.9100
     953.50762,       67.0025,        1.8770,        0.3835,     2330.7300
     953.66002,       65.2898,        1.8745,        0.3873,     2331.1800
     953.81242,       62.7360,        1.8761,        0.3879,     2328.2800
     953.96482,       60.6863,        1.8593,        0.3799,     2324.2300
     954.11722,       59.9203,        1.8296,        0.3636,     2320.1800
     954.26961,       61.0419,        1.8129,        0.3458,     2318.9800
     954.42201,       62.6097,        1.8080,        0.3355,     2317.5200
     954.57441,       64.3537,        1.8030,        0.3363,     2314.5600
     954.72681,       65.4121,        1.8083,        0.3447,     2312.3500
     954.87921,       65.6518,        1.8242,        0.3566,     2313.9500
     955.03161,       65.0717,        1.8459,        0.3678,     2319.3200
     955.18401,       63.9706,        1.8705,        0.3743,     2325.3500
     955.33641,       62.8281,        1.9041,        0.3760,     2330.7500
     955.48881,       63.0002,        1.9367,        0.3755,     2333.6300
     955.64121,       64.1670,        1.9656,        0.3744,     2336.5100
     955.79361,       65.2442,        1.9781,        0.3733,     2339.7600
     955.94601,       65.6727,        1.9701,        0.3712,     2342.2900
