~Version
VERS  .             3.0                                 : CWLS LOG ASCII STANDARD - VERSION 3.0
WRAP  .             NO                                  : One line per depth step
DLM   .             COMMA                               : Delimiter character between data columns
#Delimiting character ( SPACE TAB OR COMMA ).

~Well
#MNEM.UNIT          DATA                                DESCRIPTION
#----- ----        -----------------                   -----------
STRT  .M                 10.30480                       : FIRST INDEX VALUE
STOP  .M               1434.78642                       : LAST INDEX VALUE
STEP  .M                  0.15240                       : STEP OF INDEX
NULL  .             -999.25                             : NULL VALUE
COMP  .                                                 : COMPANY
WELL  .             HEZE                                : WELL
FLD   .                                                 : FIELD
LOC   .                                                 : LOCATION
SRVC  .                                                 : SERVICE COMPANY
CTRY  .                                                 : COUNTRY
PROV  .                                                 : PROVINCE
UWI   .                                                 : UNIQUE WELL ID
LIC   .                                                 : LICENSE NUMBER
STAT  .                                                 : STATE
CNTY  .                                                 : COUNTY
API   .                                                 : API NUMBER
DATE  .                                                 : LOG DATE
X     .             653060.8816674                      : X OR EAST-WEST COORDINATE
Y     .             8157285.619841                      : Y OR NORTH-SOUTH COORDINATE
HZCS  .                                                 : HORIZONTAL CO-ORDINATE SYSTEM
LATI  .             -16.66194444444                     : LATITUDE
LONG  .             154.4352777778                      : LONGITUDE
GDAT  .                                                 : GEODETIC DATUM

~DEVIATION_PARAMETER 
#MNEM.UNIT                    VALUE                        DESCRIPTION
#--------------- ---         ------------                 -----------------

~DEVIATION_DEFINITION 
#MNEM.UNIT                 LOG CODE                  CURVE DESCRIPTION
#----------- ----         ------------              -----------------
DEPTH       .M                                      :     {F}
AZIMUTH     .DEG                                    :     {F}
DEVIATION   .DEG                                    : 90-DIP    {F}

~DEVIATION_DATA | DEVIATION_DEFINITION
       29.0000,        0.0000,        0.5000
       57.0000,        0.0000,        0.7500
       85.0000,        0.0000,        0.5000
      122.0000,        0.0000,        0.7500
      158.0000,        0.0000,        0.7500
      315.0000,        0.0000,        0.5000
      466.0000,        0.0000,        0.2500
      629.0000,        0.0000,        0.7500
      782.0000,        0.0000,        0.7500
      934.0000,        0.0000,        2.2500
     1086.0000,        0.0000,        1.0000
     1240.0000,        0.0000,        0.7500
     1422.0000,        0.0000,        0.7500

~TOPS_PARAMETER 
#MNEM.UNIT                    VALUE                        DESCRIPTION
#--------------- ---         ------------                 -----------------

~TOPS_DEFINITION 
#MNEM.UNIT                 LOG CODE                  CURVE DESCRIPTION
#----------- ----         ------------              -----------------
DEPTH       .M                                      :     {F}
TOPS        .                                       : Values changed using TEXT_EDIT    {S30}

~TOPS_DATA | TOPS_DEFINITION
        4.0000,Doyles Creek Subgroup         
      419.0000,Horseshoe Creek Subgroup      
      503.0000,Apple Tree Flat Subgroup      
      718.5000,Watts Sandstone               
      736.5000,Denman Fm                     
      862.0000,Mt Leonard Fm                 
      995.0000,Althorpe Fm                   
     1031.0000,Malabar Fm                    
     1080.0000,Mt Ogilvie Fm                 
     1149.0000,Mt Thorley Fm                 
     1199.0000,Burnamwood Fm                 
     1300.0000,Archerfield Sandstone         
     1322.0000,Mulbring Siltstone            
     1388.0000,Muree Sandstone               
     1410.0000,                              

~PARAMETER 
#MNEM.UNIT                    VALUE                        DESCRIPTION
#--------------- ---         ------------                 -----------------

~CURVE 
#MNEM.UNIT                 LOG CODE                  CURVE DESCRIPTION
#----------- ----         ------------              -----------------
DEPTH       .M                                      :     {F}
GR          .GAPI                                   :     {F}
LLD         .OHMM                                   :     {F}
NPHI        .V/V                                    :     {F}
RHOB        .K/M3                                   :     {F}

~ASCII | CURVE 
# ...
     564.73554,       71.0618,        1.6852,     -999.2500,     -999.2500
     564.88794,       71.0088,        1.6740,     -999.2500,     -999.2500
     565.04034,       70.6847,        1.6876,     -999.2500,     -999.2500
     565.19274,       69.9256,        1.7260,     -999.2500,     -999.2500
     565.34514,       69.5426,        1.7722,     -999.2500,     -999.2500
     565.49754,       69.4282,        1.8003,     -999.2500,     -999.2500
     565.64994,       69.8166,        1.8029,     -999.2500,     -999.2500
     565.80234,       70.8138,        1.8061,     -999.2500,     -999.2500
     565.95474,       72.2473,        1.7994,     -999.2500,     -999.2500
     566.10714,       73.0305,        1.7780,     -999.2500,     -999.2500
     566.25954,       72.6442,        1.7634,     -999.2500,     -999.2500
     566.41194,       71.1086,        1.7516,     -999.2500,     -999.2500
     566.56434,       69.6348,        1.7249,     -999.2500,     -999.2500
     566.71674,       69.1149,        1.6827,     -999.2500,     -999.2500
     566.86914,       70.2716,        1.6451,     -999.2500,     -999.2500
     567.02154,       72.7844,        1.6234,     -999.2500,     -999.2500
     567.17394,       75.1251,        1.6397,     -999.2500,     -999.2500
     567.32634,       75.4068,        1.7318,     -999.2500,     -999.2500
     567.47874,       72.7961,        1.9301,     -999.2500,     -999.2500
     567.63114,       67.6977,        2.1948,     -999.2500,     -999.2500
     567.78354,       62.9136,        2.4134,     -999.2500,     -999.2500
     567.93594,       61.4211,        2.5213,     -999.2500,     -999.2500
     568.08834,       63.1433,        2.5086,     -999.2500,     -999.2500
     568.24074,       66.1116,        2.3842,     -999.2500,     -999.2500
     568.39314,       68.3713,        2.1979,     -999.2500,     -999.2500
     568.54554,       69.1079,        2.0376,     -999.2500,     -999.2500
     568.69794,       69.1748,        1.9556,     -999.2500,     -999.2500
     568.85034,       70.2364,        1.9274,     -999.2500,     -999.2500
     569.00274,       71.7097,        1.9237,     -999.2500,     -999.2500
     569.15514,       72.8532,        1.9287,     -999.2500,     -999.2500
     569.30754,       74.6793,        1.9400,     -999.2500,     -999.2500
     569.45993,       77.2411,        1.9462,     -999.2500,     -999.2500
     569.61233,       79.7562,        1.9448,     -999.2500,     -999.2500
     569.76473,       82.2337,        1.9387,     -999.2500,     -999.2500
     569.91713,       83.4003,        1.9246,     -999.2500,     -999.2500
     570.06953,       82.6636,        1.9135,     -999.2500,     -999.2500
     570.22193,       81.0983,        1.8965,     -999.2500,     -999.2500
     570.37433,       79.3242,        1.8787,     -999.2500,     -999.2500
     570.52673,       77.6891,        1.8503,     -999.2500,     -999.2500
     570.67913,       77.1237,        1.8153,     -999.2500,     -999.2500
     570.83153,       77.2401,        1.7873,     -999.2500,     -999.2500
     570.98393,       77.9693,        1.7712,     -999.2500,     -999.2500
     571.13633,       78.6318,        1.7608,     -999.2500,     -999.2500
     571.28873,       79.0072,        1.7599,     -999.2500,     -999.2500
     571.44113,       78.9721,        1.7668,     -999.2500,     -999.2500
     571.59353,       78.1019,        1.7636,     -999.2500,     -999.2500
     571.74593,       76.4622,        1.7590,     -999.2500,     -999.2500
     571.89833,       74.5410,        1.7568,     -999.2500,     -999.2500
     572.05073,       73.4026,        1.7464,     -999.2500,     -999.2500
     572.20313,       72.8416,        1.7267,     -999.2500,     -999.2500
     572.35553,       72.9225,        1.7029,     -999.2500,     -999.2500
     572.50793,       72.7955,        1.6872,     -999.2500,     -999.2500
     572.66033,       73.0636,        1.6728,     -999.2500,     -999.2500
     572.81273,       73.0533,        1.6738,     -999.2500,     -999.2500
     572.96513,       72.1932,        1.6843,     -999.2500,     -999.2500
     573.11753,       69.9504,        1.6317,     -999.2500,     -999.2500
     573.26993,       68.1047,        1.6027,     -999.2500,     -999.2500
     573.42233,       67.7268,        1.6202,     -999.2500,     -999.2500
     573.57473,       69.3978,        1.6402,     -999.2500,     -999.2500
     573.72713,       71.6526,        1.6796,     -999.2500,     -999.2500
     573.87953,       72.6835,        1.8012,     -999.2500,     -999.2500
     574.03193,       72.1230,        1.8973,     -999.2500,     -999.2500
     574.18433,       71.0016,        1.9535,     -999.2500,     -999.2500
     574.33673,       70.0486,        1.9960,     -999.2500,     -999.2500
     574.48913,       69.8239,        2.0118,     -999.2500,     -999.2500
     574.64153,       70.0371,        2.0041,     -999.2500,     -999.2500
     574.79393,       70.2211,        1.9745,     -999.2500,     -999.2500
     574.94633,       70.8686,        1.9379,     -999.2500,     -999.2500
     575.09873,       72.0243,        1.9139,     -999.2500,     -999.2500
     575.25113,       73.0120,        1.8957,     -999.2500,     -999.2500
     575.40353,       73.9811,        1.8797,     -999.2500,     -999.2500
     575.55593,       74.6893,        1.8763,     -999.2500,     -999.2500
     575.70833,       74.8159,        1.8649,     -999.2500,     -999.2500
     575.86073,       74.9974,        1.8393,     -999.2500,     -999.2500
     576.01313,       75.5408,        1.8096,     -999.2500,     -999.2500
     576.16553,       75.6159,        1.7794,     -999.2500,     -999.2500
     576.31793,       75.2532,        1.7427,     -999.2500,     -999.2500
     576.47033,       74.7691,        1.7132,     -999.2500,     -999.2500
     576.62273,       74.9205,        1.6888,     -999.2500,     -999.2500
     576.77513,       75.0522,        1.6747,     -999.2500,     -999.2500
     576.92753,       73.8403,        1.6756,     -999.2500,     -999.2500
     577.07993,       71.9213,        1.6827,     -999.2500,     -999.2500
     577.23233,       70.1759,        1.6910,     -999.2500,     -999.2500
     577.38473,       69.2129,        1.7007,     -999.2500,     -999.2500
     577.53713,       68.9452,        1.7083,     -999.2500,     -999.2500
     577.68953,       69.2522,        1.7052,     -999.2500,     -999.2500
     577.84193,       69.1276,        1.6886,     -999.2500,     -999.2500
     577.99433,       69.3371,        1.6632,     -999.2500,     -999.2500
     578.14673,       70.1038,        1.6400,     -999.2500,     -999.2500
     578.29913,       70.9455,        1.6225,     -999.2500,     -999.2500
     578.45153,       70.9011,        1.6216,     -999.2500,     -999.2500
     578.60393,       70.9772,        1.6526,     -999.2500,     -999.2500
     578.75633,       71.4755,        1.7068,     -999.2500,     -999.2500
     578.90873,       72.0009,        1.7656,     -999.2500,     -999.2500
     579.06113,       72.7807,        1.7918,     -999.2500,     -999.2500
     579.21353,       72.9351,        1.8074,     -999.2500,     -999.2500
     579.36593,       72.5336,        1.8182,     -999.2500,     -999.2500
     579.51833,       72.5028,        1.8366,     -999.2500,     -999.2500
     579.67073,       72.4557,        1.8622,     -999.2500,     -999.2500
     579.82313,       72.0763,        1.9206,     -999.2500,     -999.2500
     579.97553,       71.6018,        1.9814,     -999.2500,     -999.2500
     580.12793,       70.3885,        2.0339,     -999.2500,     -999.2500
     580.28033,       70.3383,        2.0678,     -999.2500,     -999.2500
     580.43273,       72.5269,        2.0671,     -999.2500,     -999.2500
     580.58513,       74.7821,        2.0423,     -999.2500,     -999.2500
     580.73753,       76.5211,        2.0307,     -999.2500,     -999.2500
     580.88993,       77.3350,        2.0253,     -999.2500,     -999.2500
