~Version
VERS  .             3.0                                 : CWLS LOG ASCII STANDARD - VERSION 3.0
WRAP  .             NO                                  : One line per depth step
DLM   .             COMMA                               : Delimiter character between data columns
#Delimiting character ( SPACE TAB OR COMMA ).

~Well
#MNEM.UNIT          DATA                                DESCRIPTION
#----- ----        -----------------                   -----------
STRT  .M                 10.30480                       : FIRST INDEX VALUE
STOP  .M               1434.78642                       : LAST INDEX VALUE
STEP  .M                  0.15240                       : STEP OF INDEX
NULL  .             -999.25                             : NULL VALUE
COMP  .                                                 : COMPANY
WELL  .             HEZE                                : WELL
FLD   .                                                 : FIELD
LOC   .                                                 : LOCATION
SRVC  .                                                 : SERVICE COMPANY
CTRY  .                                                 : COUNTRY
PROV  .                                                 : PROVINCE
UWI   .                                                 : UNIQUE WELL ID
LIC   .                                                 : LICENSE NUMBER
STAT  .                                                 : STATE
CNTY  .                                                 : COUNTY
API   .                                                 : API NUMBER
DATE  .                                                 : LOG DATE
X     .             653060.8816674                      : X OR EAST-WEST COORDINATE
Y     .             8157285.619841                      : Y OR NORTH-SOUTH COORDINATE
HZCS  .                                                 : HORIZONTAL CO-ORDINATE SYSTEM
LATI  .             -16.66194444444                     : LATITUDE
LONG  .             154.4352777778                      : LONGITUDE
GDAT  .                                                 : GEODETIC DATUM

~DEVIATION_PARAMETER 
#MNEM.UNIT                    VALUE                        DESCRIPTION
#--------------- ---         ------------                 -----------------

~DEVIATION_DEFINITION 
#MNEM.UNIT                 LOG CODE                  CURVE DESCRIPTION
#----------- ----         ------------              -----------------
DEPTH       .M                                      :     {F}
AZIMUTH     .DEG                                    :     {F}
DEVIATION   .DEG                                    : 90-DIP    {F}

~DEVIATION_DATA | DEVIATION_DEFINITION
       29.0000,        0.0000,        0.5000
       57.0000,        0.0000,        0.7500
       85.0000,        0.0000,        0.5000
      122.0000,        0.0000,        0.7500
      158.0000,        0.0000,        0.7500
      315.0000,        0.0000,        0.5000
      466.0000,        0.0000,        0.2500
      629.0000,        0.0000,        0.7500
      782.0000,        0.0000,        0.7500
      934.0000,        0.0000,        2.2500
     1086.0000,        0.0000,        1.0000
     1240.0000,        0.0000,        0.7500
     1422.0000,        0.0000,        0.7500

~TOPS_PARAMETER 
#MNEM.UNIT                    VALUE                        DESCRIPTION
#--------------- ---         ------------                 -----------------

~TOPS_DEFINITION 
#MNEM.UNIT                 LOG CODE                  CURVE DESCRIPTION
#----------- ----         ------------              -----------------
DEPTH       .M                                      :     {F}
TOPS        .                                       : Values changed using TEXT_EDIT    {S30}

~TOPS_DATA | TOPS_DEFINITION
        4.0000,Doyles Creek Subgroup         
      419.0000,Horseshoe Creek Subgroup      
      503.0000,Apple Tree Flat Subgroup      
      718.5000,Watts Sandstone               
      736.5000,Denman Fm                     
      862.0000,Mt Leonard Fm                 
      995.0000,Althorpe Fm                   
     1031.0000,Malabar Fm                    
     1080.0000,Mt Ogilvie Fm                 
     1149.0000,Mt Thorley Fm                 
     1199.0000,Burnamwood Fm                 
     1300.0000,Archerfield Sandstone         
     1322.0000,Mulbring Siltstone            
     1388.0000,Muree Sandstone               
     1410.0000,                              

~PARAMETER 
#MNEM.UNIT                    VALUE                        DESCRIPTION
#--------------- ---         ------------                 -----------------

~CURVE 
#MNEM.UNIT                 LOG CODE                  CURVE DESCRIPTION
#----------- ----         ------------              -----------------
DEPTH       .M                                      :     {F}
GR          .GAPI                                   :     {F}
LLD         .OHMM                                   :     {F}
NPHI        .V/V                                    :     {F}
RHOB        .K/M3                                   :     {F}

~ASCII | CURVE 
# ...
     108.14552,       33.8204,        0.7237,     -999.2500,     -999.2500
     108.29792,       33.3240,        0.8818,     -999.2500,     -999.2500
     108.45032,       35.2552,        2.7790,     -999.2500,     -999.2500
     108.60272,       38.3331,        3.8722,     -999.2500,     -999.2500
     108.75512,       40.4252,        3.8624,     -999.2500,     -999.2500
     108.90752,       40.6570,        3.7637,     -999.2500,     -999.2500
     109.05992,       39.2062,        3.5995,     -999.2500,     -999.2500
     109.21232,       37.3678,        1.8012,     -999.2500,     -999.2500
     109.36472,       36.5530,        0.7567,     -999.2500,     -999.2500
     109.51712,       36.8319,        1.0580,     -999.2500,     -999.2500
     109.66952,       37.2843,        1.2597,     -999.2500,     -999.2500
     109.82192,       37.9185,        1.5168,     -999.2500,     -999.2500
     109.97432,       38.7048,        1.5537,     -999.2500,     -999.2500
     110.12672,       39.2099,        1.4249,     -999.2500,     -999.2500
     110.27912,       39.3789,        1.1333,     -999.2500,     -999.2500
     110.43152,       39.5565,        1.1717,     -999.2500,     -999.2500
     110.58392,       39.6604,        1.0612,     -999.2500,     -999.2500
     110.73632,       40.2196,        0.9394,     -999.2500,     -999.2500
     110.88872,       40.7611,        0.9876,     -999.2500,     -999.2500
     111.04112,       40.6460,        1.0136,     -999.2500,     -999.2500
     111.19352,       39.8276,        0.9113,     -999.2500,     -999.2500
     111.34592,       39.3934,        0.9219,     -999.2500,     -999.2500
     111.49832,       40.0426,        0.9365,     -999.2500,     -999.2500
     111.65072,       41.7735,        0.9271,     -999.2500,     -999.2500
     111.80312,       43.1802,        0.8373,     -999.2500,     -999.2500
     111.95552,       43.3137,        0.8601,     -999.2500,     -999.2500
     112.10792,       43.0746,        0.8575,     -999.2500,     -999.2500
     112.26032,       42.7853,        0.7875,     -999.2500,     -999.2500
     112.41272,       43.0657,        0.7416,     -999.2500,     -999.2500
     112.56511,       44.1438,        0.7245,     -999.2500,     -999.2500
     112.71751,       45.2581,        0.5244,     -999.2500,     -999.2500
     112.86991,       45.8486,        0.3799,     -999.2500,     -999.2500
     113.02231,       46.4815,        0.4280,     -999.2500,     -999.2500
     113.17471,       46.1517,        0.5523,     -999.2500,     -999.2500
     113.32711,       45.1979,        0.5803,     -999.2500,     -999.2500
     113.47951,       44.2172,        0.5977,     -999.2500,     -999.2500
     113.63191,       43.6059,        1.1876,     -999.2500,     -999.2500
     113.78431,       43.6179,        1.5828,     -999.2500,     -999.2500
     113.93671,       43.6934,        1.6602,     -999.2500,     -999.2500
     114.08911,       42.8720,        1.9117,     -999.2500,     -999.2500
     114.24151,       41.8817,        2.1458,     -999.2500,     -999.2500
     114.39391,       41.8769,        1.6912,     -999.2500,     -999.2500
     114.54631,       42.3385,        1.2674,     -999.2500,     -999.2500
     114.69871,       42.6565,        1.0937,     -999.2500,     -999.2500
     114.85111,       42.1980,        0.8571,     -999.2500,     -999.2500
     115.00351,       40.5584,        0.6500,     -999.2500,     -999.2500
     115.15591,       38.8237,        0.8600,     -999.2500,     -999.2500
     115.30831,       38.4747,        3.5013,     -999.2500,     -999.2500
     115.46071,       39.8828,        5.0762,     -999.2500,     -999.2500
     115.61311,       41.7194,        5.1281,     -999.2500,     -999.2500
     115.76551,       43.2299,        5.2273,     -999.2500,     -999.2500
     115.91791,       43.8467,        5.5632,     -999.2500,     -999.2500
     116.07031,       43.6323,        3.2499,     -999.2500,     -999.2500
     116.22271,       43.2768,        1.6513,     -999.2500,     -999.2500
     116.37511,       43.7426,        1.6965,     -999.2500,     -999.2500
     116.52751,       44.2625,        1.8356,     -999.2500,     -999.2500
     116.67991,       44.5706,        1.3254,     -999.2500,     -999.2500
     116.83231,       44.7895,        1.0026,     -999.2500,     -999.2500
     116.98471,       44.5385,        1.1341,     -999.2500,     -999.2500
     117.13711,       43.6267,        1.0918,     -999.2500,     -999.2500
     117.28951,       42.3332,        0.8209,     -999.2500,     -999.2500
     117.44191,       41.4047,        0.7078,     -999.2500,     -999.2500
     117.59431,       41.3641,        0.8189,     -999.2500,     -999.2500
     117.74671,       42.1830,        0.7995,     -999.2500,     -999.2500
     117.89911,       43.0434,        0.7532,     -999.2500,     -999.2500
     118.05151,       43.5250,        0.8941,     -999.2500,     -999.2500
     118.20391,       43.7993,        1.0407,     -999.2500,     -999.2500
     118.35631,       43.5841,        1.0827,     -999.2500,     -999.2500
     118.50871,       42.3569,        1.1495,     -999.2500,     -999.2500
     118.66111,       40.2235,        1.3102,     -999.2500,     -999.2500
     118.81351,       38.2119,        1.2870,     -999.2500,     -999.2500
     118.96591,       37.4765,        1.2652,     -999.2500,     -999.2500
     119.11831,       38.4994,        1.2537,     -999.2500,     -999.2500
     119.27071,       40.0075,        1.3740,     -999.2500,     -999.2500
     119.42311,       41.0408,        1.3212,     -999.2500,     -999.2500
     119.57551,       41.3083,        1.2919,     -999.2500,     -999.2500
     119.72791,       40.9975,        1.4475,     -999.2500,     -999.2500
     119.88031,       40.9319,        1.5888,     -999.2500,     -999.2500
     120.03271,       41.2254,        1.7659,     -999.2500,     -999.2500
     120.18511,       41.5228,        1.8913,     -999.2500,     -999.2500
     120.33751,       41.4546,        2.0165,     -999.2500,     -999.2500
     120.48991,       41.3869,        1.9235,     -999.2500,     -999.2500
     120.64231,       41.1467,        1.8149,     -999.2500,     -999.2500
     120.79471,       40.4374,        1.4852,     -999.2500,     -999.2500
     120.94711,       39.7895,        1.3621,     -999.2500,     -999.2500
     121.09951,       39.7386,        1.4568,     -999.2500,     -999.2500
     121.25191,       40.1809,        1.4118,     -999.2500,     -999.2500
     121.40431,       40.9142,        1.3331,     -999.2500,     -999.2500
     121.55671,       41.0138,        1.3962,     -999.2500,     -999.2500
     121.70911,       39.6709,        1.3754,     -999.2500,     -999.2500
     121.86151,       38.2250,        1.1458,     -999.2500,     -999.2500
     122.01391,       38.5067,        1.0435,     -999.2500,     -999.2500
     122.16631,       40.3266,        1.0199,     -999.2500,     -999.2500
     122.31871,       42.7559,        1.0448,     -999.2500,     -999.2500
     122.47111,       44.5929,        1.2616,     -999.2500,     -999.2500
     122.62351,       45.1503,        1.4495,     -999.2500,     -999.2500
     122.77591,       44.3959,        1.5108,     -999.2500,     -999.2500
     122.92831,       42.8283,        1.6701,     -999.2500,     -999.2500
     123.08071,       41.2170,        1.7121,     -999.2500,     -999.2500
     123.23311,       40.2806,        1.3869,     -999.2500,     -999.2500
     123.38551,       40.0474,        1.1330,     -999.2500,     -999.2500
     123.53791,       40.5055,        1.2222,     -999.2500,     -999.2500
     123.69031,       41.0160,        1.1672,     -999.2500,     -999.2500
     123.84271,       41.2245,        1.1094,     -999.2500,     -999.2500
     123.99511,       41.4667,        1.1807,     -999.2500,     -999.2500
     124.14751,       41.7119,        1.6564,     -999.2500,     -999.2500
     124.29991,       41.3908,        1.8472,     -999.2500,     -999.2500
