~Version
VERS  .             3.0                                 : CWLS LOG ASCII STANDARD - VERSION 3.0
WRAP  .             NO                                  : One line per depth step
DLM   .             COMMA                               : Delimiter character between data columns
#Delimiting character ( SPACE TAB OR COMMA ).

~Well
#MNEM.UNIT          DATA                                DESCRIPTION
#----- ----        -----------------                   -----------
STRT  .M                 10.30480                       : FIRST INDEX VALUE
STOP  .M               1434.78642                       : LAST INDEX VALUE
STEP  .M                  0.15240                       : STEP OF INDEX
NULL  .             -999.25                             : NULL VALUE
COMP  .                                                 : COMPANY
WELL  .             HEZE                                : WELL
FLD   .                                                 : FIELD
LOC   .                                                 : LOCATION
SRVC  .                                                 : SERVICE COMPANY
CTRY  .                                                 : COUNTRY
PROV  .                                                 : PROVINCE
UWI   .                                                 : UNIQUE WELL ID
LIC   .                                                 : LICENSE NUMBER
STAT  .                                                 : STATE
CNTY  .                                                 : COUNTY
API   .                                                 : API NUMBER
DATE  .                                                 : LOG DATE
X     .             653060.8816674                      : X OR EAST-WEST COORDINATE
Y     .             8157285.619841                      : Y OR NORTH-SOUTH COORDINATE
HZCS  .                                                 : HORIZONTAL CO-ORDINATE SYSTEM
LATI  .             -16.66194444444                     : LATITUDE
LONG  .             154.4352777778                      : LONGITUDE
GDAT  .                                                 : GEODETIC DATUM

~DEVIATION_PARAMETER 
#MNEM.UNIT                    VALUE                        DESCRIPTION
#--------------- ---         ------------                 -----------------

~DEVIATION_DEFINITION 
#MNEM.UNIT                 LOG CODE                  CURVE DESCRIPTION
#----------- ----         ------------              -----------------
DEPTH       .M                                      :     {F}
AZIMUTH     .DEG                                    :     {F}
DEVIATION   .DEG                                    : 90-DIP    {F}

~DEVIATION_DATA | DEVIATION_DEFINITION
       29.0000,        0.0000,        0.5000
       57.0000,        0.0000,        0.7500
       85.0000,        0.0000,        0.5000
      122.0000,        0.0000,        0.7500
      158.0000,        0.0000,        0.7500
      315.0000,        0.0000,        0.5000
      466.0000,        0.0000,        0.2500
      629.0000,        0.0000,        0.7500
      782.0000,        0.0000,        0.7500
      934.0000,        0.0000,        2.2500
     1086.0000,        0.0000,        1.0000
     1240.0000,        0.0000,        0.7500
     1422.0000,        0.0000,        0.7500

~TOPS_PARAMETER 
#MNEM.UNIT                    VALUE                        DESCRIPTION
#--------------- ---         ------------                 -----------------

~TOPS_DEFINITION 
#MNEM.UNIT                 LOG CODE                  CURVE DESCRIPTION
#----------- ----         ------------              -----------------
DEPTH       .M                                      :     {F}
TOPS        .                                       : Values changed using TEXT_EDIT    {S30}

~TOPS_DATA | TOPS_DEFINITION
        4.0000,Doyles Creek Subgroup         
      419.0000,Horseshoe Creek Subgroup      
      503.0000,Apple Tree Flat Subgroup      
      718.5000,Watts Sandstone               
      736.5000,Denman Fm                     
      862.0000,Mt Leonard Fm                 
      995.0000,Althorpe Fm                   
     1031.0000,Malabar Fm                    
     1080.0000,Mt Ogilvie Fm                 
     1149.0000,Mt Thorley Fm                 
     1199.0000,Burnamwood Fm                 
     1300.0000,Archerfield Sandstone         
     1322.0000,Mulbring Siltstone            
     1388.0000,Muree Sandstone               
     1410.0000,                              

~PARAMETER 
#MNEM.UNIT                    VALUE                        DESCRIPTION
#--------------- ---         ------------                 -----------------

~CURVE 
#MNEM.UNIT                 LOG CODE                  CURVE DESCRIPTION
#----------- ----         ------------              -----------------
DEPTH       .M                                      :     {F}
GR          .GAPI                                   :     {F}
LLD         .OHMM                                   :     {F}
NPHI        .V/V                                    :     {F}
RHOB        .K/M3                                   :     {F}

~ASCII | CURVE 
# ...
     760.41698,       75.1034,        2.6954,     -999.2500,     -999.2500
     760.56938,       73.8114,        2.7035,     -999.2500,     -999.2500
     760.72178,       72.6836,        2.6984,     -999.2500,     -999.2500
     760.87418,       72.1731,        2.6500,     -999.2500,     -999.2500
     761.02658,       73.0434,        2.5777,     -999.2500,     -999.2500
     761.17898,       74.6192,        2.4808,     -999.2500,     -999.2500
     761.33138,       75.5726,        2.3730,     -999.2500,     -999.2500
     761.48378,       75.6472,        2.2986,     -999.2500,     -999.2500
     761.63618,       75.9223,        2.2745,     -999.2500,     -999.2500
     761.78858,       76.0174,        2.2620,     -999.2500,     -999.2500
     761.94097,       75.6749,        2.2496,     -999.2500,     -999.2500
     762.09337,       75.1514,        2.2320,     -999.2500,     -999.2500
     762.24577,       74.8342,        2.1857,     -999.2500,     -999.2500
     762.39817,       74.5145,        2.1073,     -999.2500,     -999.2500
     762.55057,       75.0440,        2.0384,     -999.2500,     -999.2500
     762.70297,       76.2930,        2.0005,     -999.2500,     -999.2500
     762.85537,       78.0222,        1.9965,     -999.2500,     -999.2500
     763.00777,       79.8441,        2.0431,     -999.2500,     -999.2500
     763.16017,       81.2130,        2.1226,     -999.2500,     -999.2500
     763.31257,       80.3691,        2.1778,     -999.2500,     -999.2500
     763.46497,       78.9335,        2.1962,     -999.2500,     -999.2500
     763.61737,       77.8177,        2.1764,     -999.2500,     -999.2500
     763.76977,       77.9781,        2.1204,     -999.2500,     -999.2500
     763.92217,       79.0959,        2.0547,     -999.2500,     -999.2500
     764.07457,       79.8267,        2.0348,     -999.2500,     -999.2500
     764.22697,       78.8994,        2.0764,     -999.2500,     -999.2500
     764.37937,       77.7925,        2.1825,     -999.2500,     -999.2500
     764.53177,       76.8253,        2.3405,     -999.2500,     -999.2500
     764.68417,       75.9132,        2.5038,     -999.2500,     -999.2500
     764.83657,       75.2154,        2.6158,     -999.2500,     -999.2500
     764.98897,       73.9007,        2.6572,     -999.2500,     -999.2500
     765.14137,       72.0576,        2.6218,     -999.2500,     -999.2500
     765.29377,       71.3830,        2.5231,     -999.2500,     -999.2500
     765.44617,       71.6991,        2.4046,     -999.2500,     -999.2500
     765.59857,       72.1813,        2.3267,     -999.2500,     -999.2500
     765.75097,       72.4849,        2.3127,     -999.2500,     -999.2500
     765.90337,       72.2328,        2.3511,     -999.2500,     -999.2500
     766.05577,       71.2785,        2.4205,     -999.2500,     -999.2500
     766.20817,       71.2422,        2.4763,     -999.2500,     -999.2500
     766.36057,       72.1133,        2.4684,     -999.2500,     -999.2500
     766.51297,       73.0398,        2.3902,     -999.2500,     -999.2500
     766.66537,       73.6891,        2.2787,     -999.2500,     -999.2500
     766.81777,       73.6335,        2.1521,     -999.2500,     -999.2500
     766.97017,       73.1801,        2.0450,     -999.2500,     -999.2500
     767.12257,       72.6985,        1.9896,     -999.2500,     -999.2500
     767.27497,       72.5946,        1.9781,     -999.2500,     -999.2500
     767.42737,       72.3542,        1.9755,     -999.2500,     -999.2500
     767.57977,       72.2299,        1.9745,     -999.2500,     -999.2500
     767.73217,       72.1651,        1.9725,     -999.2500,     -999.2500
     767.88457,       72.6996,        1.9574,     -999.2500,     -999.2500
     768.03697,       73.2957,        1.9298,     -999.2500,     -999.2500
     768.18937,       73.2316,        1.9099,     -999.2500,     -999.2500
     768.34177,       72.3316,        1.9053,     -999.2500,     -999.2500
     768.49417,       71.1710,        1.9055,     -999.2500,     -999.2500
     768.64657,       70.9929,        1.9229,     -999.2500,     -999.2500
     768.79897,       71.9432,        1.9581,     -999.2500,     -999.2500
     768.95137,       73.1899,        2.0016,     -999.2500,     -999.2500
     769.10377,       73.6843,        2.0419,     -999.2500,     -999.2500
     769.25617,       73.1713,        2.0784,     -999.2500,     -999.2500
     769.40857,       72.6719,        2.0962,     -999.2500,     -999.2500
     769.56097,       73.0551,        2.0885,     -999.2500,     -999.2500
     769.71337,       74.1093,        2.0544,     -999.2500,     -999.2500
     769.86577,       74.8624,        2.0087,     -999.2500,     -999.2500
     770.01817,       75.7966,        1.9748,     -999.2500,     -999.2500
     770.17057,       76.6235,        1.9523,     -999.2500,     -999.2500
     770.32297,       77.0787,        1.9361,     -999.2500,     -999.2500
     770.47537,       77.1818,        1.9363,     -999.2500,     -999.2500
     770.62777,       76.2199,        1.9395,     -999.2500,     -999.2500
     770.78017,       74.8846,        1.9311,     -999.2500,     -999.2500
     770.93257,       74.2699,        1.9291,     -999.2500,     -999.2500
     771.08497,       74.4290,        1.9387,     -999.2500,     -999.2500
     771.23737,       74.8215,        1.9451,     -999.2500,     -999.2500
     771.38977,       75.7728,        1.9537,     -999.2500,     -999.2500
     771.54217,       76.0335,        1.9695,     -999.2500,     -999.2500
     771.69457,       75.7301,        1.9926,     -999.2500,     -999.2500
     771.84697,       74.3570,        2.0203,     -999.2500,     -999.2500
     771.99937,       72.1840,        2.0503,     -999.2500,     -999.2500
     772.15177,       70.1111,        2.0858,     -999.2500,     -999.2500
     772.30417,       69.3538,        2.1216,     -999.2500,     -999.2500
     772.45657,       69.8368,        2.1433,     -999.2500,     -999.2500
     772.60897,       70.8412,        2.1678,     -999.2500,     -999.2500
     772.76137,       70.9764,        2.1984,     -999.2500,     -999.2500
     772.91377,       70.0969,        2.2218,     -999.2500,     -999.2500
     773.06617,       69.0641,        2.2276,     -999.2500,     -999.2500
     773.21857,       68.9477,        2.2120,     -999.2500,     -999.2500
     773.37097,       69.6689,        2.1701,     -999.2500,     -999.2500
     773.52337,       70.9899,        2.1256,     -999.2500,     -999.2500
     773.67577,       72.1777,        2.0865,     -999.2500,     -999.2500
     773.82817,       73.4046,        2.0684,     -999.2500,     -999.2500
     773.98056,       74.2769,        2.0752,     -999.2500,     -999.2500
     774.13296,       74.0957,        2.0842,     -999.2500,     -999.2500
     774.28536,       72.3848,        2.0772,     -999.2500,     -999.2500
     774.43776,       70.1677,        2.0663,     -999.2500,     -999.2500
     774.59016,       69.5121,        2.0473,     -999.2500,     -999.2500
     774.74256,       71.0052,        2.0262,     -999.2500,     -999.2500
     774.89496,       73.3379,        2.0258,     -999.2500,     -999.2500
     775.04736,       74.6964,        2.0477,     -999.2500,     -999.2500
     775.19976,       74.6951,        2.0840,     -999.2500,     -999.2500
     775.35216,       73.5459,        2.1138,     -999.2500,     -999.2500
     775.50456,       73.6724,        2.1149,     -999.2500,     -999.2500
     775.65696,       74.5873,        2.0779,     -999.2500,     -999.2500
     775.80936,       75.2214,        2.0108,     -999.2500,     -999.2500
     775.96176,       75.3133,        1.9476,     -999.2500,     -999.2500
     776.11416,       75.7134,        1.9355,     -999.2500,     -999.2500
     776.26656,       75.6668,        1.9913,     -999.2500,     -999.2500
     776.41896,       76.0020,        2.1179,     -999.2500,     -999.2500
     776.57136,       76.6349,        2.2775,     -999.2500,     -999.2500
