~Version
VERS  .             3.0                                 : CWLS LOG ASCII STANDARD - VERSION 3.0
WRAP  .             NO                                  : One line per depth step
DLM   .             COMMA                               : Delimiter character between data columns
#Delimiting character ( SPACE TAB OR COMMA ).

~Well
#MNEM.UNIT          DATA                                DESCRIPTION
#----- ----        -----------------                   -----------
STRT  .M                 10.30480                       : FIRST INDEX VALUE
STOP  .M               1434.78642                       : LAST INDEX VALUE
STEP  .M                  0.15240                       : STEP OF INDEX
NULL  .             -999.25                             : NULL VALUE
COMP  .                                                 : COMPANY
WELL  .             HEZE                                : WELL
FLD   .                                                 : FIELD
LOC   .                                                 : LOCATION
SRVC  .                                                 : SERVICE COMPANY
CTRY  .                                                 : COUNTRY
PROV  .                                                 : PROVINCE
UWI   .                                                 : UNIQUE WELL ID
LIC   .                                                 : LICENSE NUMBER
STAT  .                                                 : STATE
CNTY  .                                                 : COUNTY
API   .                                                 : API NUMBER
DATE  .                                                 : LOG DATE
X     .             653060.8816674                      : X OR EAST-WEST COORDINATE
Y     .             8157285.619841                      : Y OR NORTH-SOUTH COORDINATE
HZCS  .                                                 : HORIZONTAL CO-ORDINATE SYSTEM
LATI  .             -16.66194444444                     : LATITUDE
LONG  .             154.4352777778                      : LONGITUDE
GDAT  .                                                 : GEODETIC DATUM

~DEVIATION_PARAMETER 
#MNEM.UNIT                    VALUE                        DESCRIPTION
#--------------- ---         ------------                 -----------------

~DEVIATION_DEFINITION 
#MNEM.UNIT                 LOG CODE                  CURVE DESCRIPTION
#----------- ----         ------------              -----------------
DEPTH       .M                                      :     {F}
AZIMUTH     .DEG                                    :     {F}
DEVIATION   .DEG                                    : 90-DIP    {F}

~DEVIATION_DATA | DEVIATION_DEFINITION
       29.0000,        0.0000,        0.5000
       57.0000,        0.0000,        0.7500
       85.0000,        0.0000,        0.5000
      122.0000,        0.0000,        0.7500
      158.0000,        0.0000,        0.7500
      315.0000,        0.0000,        0.5000
      466.0000,        0.0000,        0.2500
      629.0000,        0.0000,        0.7500
      782.0000,        0.0000,        0.7500
      934.0000,        0.0000,        2.2500
     1086.0000,        0.0000,        1.0000
     1240.0000,        0.0000,        0.7500
     1422.0000,        0.0000,        0.7500

~TOPS_PARAMETER 
#MNEM.UNIT                    VALUE                        DESCRIPTION
#--------------- ---         ------------                 -----------------

~TOPS_DEFINITION 
#MNEM.UNIT                 LOG CODE                  CURVE DESCRIPTION
#----------- ----         ------------              -----------------
DEPTH       .M                                      :     {F}
TOPS        .                                       : Values changed using TEXT_EDIT    {S30}

~TOPS_DATA | TOPS_DEFINITION
        4.0000,Doyles Creek Subgroup         
      419.0000,Horseshoe Creek Subgroup      
      503.0000,Apple Tree Flat Subgroup      
      718.5000,Watts Sandstone               
      736.5000,Denman Fm                     
      862.0000,Mt Leonard Fm                 
      995.0000,Althorpe Fm                   
     1031.0000,Malabar Fm                    
     1080.0000,Mt Ogilvie Fm                 
     1149.0000,Mt Thorley Fm                 
     1199.0000,Burnamwood Fm                 
     1300.0000,Archerfield Sandstone         
     1322.0000,Mulbring Siltstone            
     1388.0000,Muree Sandstone               
     1410.0000,                              

~PARAMETER 
#MNEM.UNIT                    VALUE                        DESCRIPTION
#--------------- ---         ------------                 -----------------

~CURVE 
#MNEM.UNIT                 LOG CODE                  CURVE DESCRIPTION
#----------- ----         ------------              -----------------
DEPTH       .M                                      :     {F}
GR          .GAPI                                   :     {F}
LLD         .OHMM                                   :     {F}
NPHI        .V/V                                    :     {F}
RHOB        .K/M3                                   :     {F}

~ASCII | CURVE 
# ...
     662.57626,       72.7380,        1.5737,     -999.2500,     -999.2500
     662.72866,       72.3904,        1.5439,     -999.2500,     -999.2500
     662.88106,       72.0203,        1.5146,     -999.2500,     -999.2500
     663.03346,       71.5887,        1.5179,     -999.2500,     -999.2500
     663.18586,       70.7728,        1.5366,     -999.2500,     -999.2500
     663.33826,       69.7928,        1.5771,     -999.2500,     -999.2500
     663.49066,       69.3906,        1.6359,     -999.2500,     -999.2500
     663.64306,       69.7260,        1.6780,     -999.2500,     -999.2500
     663.79546,       70.8507,        1.6821,     -999.2500,     -999.2500
     663.94786,       72.7237,        1.6606,     -999.2500,     -999.2500
     664.10026,       73.9207,        1.6154,     -999.2500,     -999.2500
     664.25266,       74.1398,        1.5644,     -999.2500,     -999.2500
     664.40506,       73.4231,        1.5361,     -999.2500,     -999.2500
     664.55746,       72.0815,        1.5177,     -999.2500,     -999.2500
     664.70986,       71.6484,        1.5062,     -999.2500,     -999.2500
     664.86226,       72.7299,        1.5013,     -999.2500,     -999.2500
     665.01466,       74.0387,        1.4972,     -999.2500,     -999.2500
     665.16706,       75.2525,        1.4877,     -999.2500,     -999.2500
     665.31946,       76.5764,        1.4878,     -999.2500,     -999.2500
     665.47186,       77.3945,        1.5072,     -999.2500,     -999.2500
     665.62426,       77.3051,        1.5462,     -999.2500,     -999.2500
     665.77665,       75.5036,        1.5781,     -999.2500,     -999.2500
     665.92905,       72.5346,        1.6060,     -999.2500,     -999.2500
     666.08145,       70.2310,        1.6239,     -999.2500,     -999.2500
     666.23385,       69.9089,        1.6269,     -999.2500,     -999.2500
     666.38625,       71.1681,        1.6072,     -999.2500,     -999.2500
     666.53865,       72.6206,        1.6006,     -999.2500,     -999.2500
     666.69105,       73.1001,        1.6081,     -999.2500,     -999.2500
     666.84345,       73.2045,        1.6154,     -999.2500,     -999.2500
     666.99585,       74.2606,        1.6173,     -999.2500,     -999.2500
     667.14825,       75.2349,        1.6182,     -999.2500,     -999.2500
     667.30065,       75.5965,        1.6081,     -999.2500,     -999.2500
     667.45305,       74.8171,        1.5864,     -999.2500,     -999.2500
     667.60545,       72.5478,        1.5675,     -999.2500,     -999.2500
     667.75785,       70.6521,        1.5508,     -999.2500,     -999.2500
     667.91025,       70.3629,        1.5345,     -999.2500,     -999.2500
     668.06265,       71.3896,        1.5168,     -999.2500,     -999.2500
     668.21505,       73.6803,        1.4967,     -999.2500,     -999.2500
     668.36745,       75.6286,        1.4788,     -999.2500,     -999.2500
     668.51985,       76.0848,        1.4816,     -999.2500,     -999.2500
     668.67225,       74.9273,        1.5014,     -999.2500,     -999.2500
     668.82465,       72.8585,        1.5357,     -999.2500,     -999.2500
     668.97705,       71.0499,        1.5785,     -999.2500,     -999.2500
     669.12945,       70.4270,        1.6080,     -999.2500,     -999.2500
     669.28185,       70.5220,        1.6087,     -999.2500,     -999.2500
     669.43425,       71.9071,        1.5941,     -999.2500,     -999.2500
     669.58665,       73.1573,        1.5702,     -999.2500,     -999.2500
     669.73905,       73.2785,        1.5497,     -999.2500,     -999.2500
     669.89145,       72.4552,        1.5467,     -999.2500,     -999.2500
     670.04385,       71.9359,        1.5613,     -999.2500,     -999.2500
     670.19625,       72.8816,        1.5792,     -999.2500,     -999.2500
     670.34865,       75.1572,        1.5832,     -999.2500,     -999.2500
     670.50105,       77.3130,        1.5665,     -999.2500,     -999.2500
     670.65345,       78.1728,        1.5439,     -999.2500,     -999.2500
     670.80585,       78.1670,        1.5296,     -999.2500,     -999.2500
     670.95825,       78.0037,        1.5235,     -999.2500,     -999.2500
     671.11065,       77.2198,        1.5271,     -999.2500,     -999.2500
     671.26305,       75.4658,        1.5383,     -999.2500,     -999.2500
     671.41545,       73.6681,        1.5372,     -999.2500,     -999.2500
     671.56785,       72.5311,        1.5147,     -999.2500,     -999.2500
     671.72025,       72.8180,        1.4849,     -999.2500,     -999.2500
     671.87265,       74.8993,        1.4590,     -999.2500,     -999.2500
     672.02505,       76.9240,        1.4400,     -999.2500,     -999.2500
     672.17745,       77.7599,        1.4336,     -999.2500,     -999.2500
     672.32985,       77.6355,        1.4449,     -999.2500,     -999.2500
     672.48225,       76.3774,        1.4648,     -999.2500,     -999.2500
     672.63465,       74.2359,        1.4819,     -999.2500,     -999.2500
     672.78705,       73.1556,        1.4968,     -999.2500,     -999.2500
     672.93945,       73.7021,        1.5111,     -999.2500,     -999.2500
     673.09185,       74.5053,        1.5152,     -999.2500,     -999.2500
     673.24425,       74.7835,        1.5100,     -999.2500,     -999.2500
     673.39665,       74.4933,        1.5011,     -999.2500,     -999.2500
     673.54905,       73.5424,        1.4875,     -999.2500,     -999.2500
     673.70145,       73.3420,        1.4761,     -999.2500,     -999.2500
     673.85385,       73.9864,        1.4651,     -999.2500,     -999.2500
     674.00625,       74.6508,        1.4550,     -999.2500,     -999.2500
     674.15865,       74.3949,        1.4560,     -999.2500,     -999.2500
     674.31105,       73.2506,        1.4593,     -999.2500,     -999.2500
     674.46345,       71.8603,        1.4560,     -999.2500,     -999.2500
     674.61585,       71.7279,        1.4494,     -999.2500,     -999.2500
     674.76825,       72.5161,        1.4419,     -999.2500,     -999.2500
     674.92065,       74.1957,        1.4267,     -999.2500,     -999.2500
     675.07305,       75.5061,        1.4077,     -999.2500,     -999.2500
     675.22545,       75.6013,        1.3956,     -999.2500,     -999.2500
     675.37785,       74.2510,        1.3884,     -999.2500,     -999.2500
     675.53025,       72.8571,        1.3833,     -999.2500,     -999.2500
     675.68265,       72.3412,        1.3840,     -999.2500,     -999.2500
     675.83505,       72.7123,        1.3958,     -999.2500,     -999.2500
     675.98745,       73.0689,        1.4095,     -999.2500,     -999.2500
     676.13985,       73.6369,        1.4199,     -999.2500,     -999.2500
     676.29225,       73.3797,        1.4223,     -999.2500,     -999.2500
     676.44465,       73.1461,        1.4143,     -999.2500,     -999.2500
     676.59705,       73.8850,        1.3986,     -999.2500,     -999.2500
     676.74945,       74.3408,        1.3850,     -999.2500,     -999.2500
     676.90185,       73.9619,        1.3744,     -999.2500,     -999.2500
     677.05425,       73.6032,        1.3734,     -999.2500,     -999.2500
     677.20665,       73.2080,        1.3799,     -999.2500,     -999.2500
     677.35905,       72.8012,        1.3861,     -999.2500,     -999.2500
     677.51145,       72.9459,        1.3815,     -999.2500,     -999.2500
     677.66384,       72.8744,        1.3794,     -999.2500,     -999.2500
     677.81624,       73.6578,        1.3738,     -999.2500,     -999.2500
     677.96864,       74.9537,        1.3673,     -999.2500,     -999.2500
     678.12104,       75.7642,        1.3680,     -999.2500,     -999.2500
     678.27344,       75.6885,        1.3737,     -999.2500,     -999.2500
     678.42584,       75.5765,        1.3815,     -999.2500,     -999.2500
     678.57824,       75.4099,        1.3887,     -999.2500,     -999.2500
     678.73064,       75.3719,        1.3909,     -999.2500,     -999.2500
