~Version
VERS  .             3.0                                 : CWLS LOG ASCII STANDARD - VERSION 3.0
WRAP  .             NO                                  : One line per depth step
DLM   .             COMMA                               : Delimiter character between data columns
#Delimiting character ( SPACE TAB OR COMMA ).

~Well
#MNEM.UNIT          DATA                                DESCRIPTION
#----- ----        -----------------                   -----------
STRT  .M                 10.30480                       : FIRST INDEX VALUE
STOP  .M               1434.78642                       : LAST INDEX VALUE
STEP  .M                  0.15240                       : STEP OF INDEX
NULL  .             -999.25                             : NULL VALUE
COMP  .                                                 : COMPANY
WELL  .             HEZE                                : WELL
FLD   .                                                 : FIELD
LOC   .                                                 : LOCATION
SRVC  .                                                 : SERVICE COMPANY
CTRY  .                                                 : COUNTRY
PROV  .                                                 : PROVINCE
UWI   .                                                 : UNIQUE WELL ID
LIC   .                                                 : LICENSE NUMBER
STAT  .                                                 : STATE
CNTY  .                                                 : COUNTY
API   .                                                 : API NUMBER
DATE  .                                                 : LOG DATE
X     .             653060.8816674                      : X OR EAST-WEST COORDINATE
Y     .             8157285.619841                      : Y OR NORTH-SOUTH COORDINATE
HZCS  .                                                 : HORIZONTAL CO-ORDINATE SYSTEM
LATI  .             -16.66194444444                     : LATITUDE
LONG  .             154.4352777778                      : LONGITUDE
GDAT  .                                                 : GEODETIC DATUM

~DEVIATION_PARAMETER 
#MNEM.UNIT                    VALUE                        DESCRIPTION
#--------------- ---         ------------                 -----------------

~DEVIATION_DEFINITION 
#MNEM.UNIT                 LOG CODE                  CURVE DESCRIPTION
#----------- ----         ------------              -----------------
DEPTH       .M                                      :     {F}
AZIMUTH     .DEG                                    :     {F}
DEVIATION   .DEG                                    : 90-DIP    {F}

~DEVIATION_DATA | DEVIATION_DEFINITION
       29.0000,        0.0000,        0.5000
       57.0000,        0.0000,        0.7500
       85.0000,        0.0000,        0.5000
      122.0000,        0.0000,        0.7500
      158.0000,        0.0000,        0.7500
      315.0000,        0.0000,        0.5000
      466.0000,        0.0000,        0.2500
      629.0000,        0.0000,        0.7500
      782.0000,        0.0000,        0.7500
      934.0000,        0.0000,        2.2500
     1086.0000,        0.0000,        1.0000
     1240.0000,        0.0000,        0.7500
     1422.0000,        0.0000,        0.7500

~TOPS_PARAMETER 
#MNEM.UNIT                    VALUE                        DESCRIPTION
#--------------- ---         ------------                 -----------------

~TOPS_DEFINITION 
#MNEM.UNIT                 LOG CODE                  CURVE DESCRIPTION
#----------- ----         ------------              -----------------
DEPTH       .M                                      :     {F}
TOPS        .                                       : Values changed using TEXT_EDIT    {S30}

~TOPS_DATA | TOPS_DEFINITION
        4.0000,Doyles Creek Subgroup         
      419.0000,Horseshoe Creek Subgroup      
      503.0000,Apple Tree Flat Subgroup      
      718.5000,Watts Sandstone               
      736.5000,Denman Fm                     
      862.0000,Mt Leonard Fm                 
      995.0000,Althorpe Fm                   
     1031.0000,Malabar Fm                    
     1080.0000,Mt Ogilvie Fm                 
     1149.0000,Mt Thorley Fm                 
     1199.0000,Burnamwood Fm                 
     1300.0000,Archerfield Sandstone         
     1322.0000,Mulbring Siltstone            
     1388.0000,Muree Sandstone               
     1410.0000,                              

~PARAMETER 
#MNEM.UNIT                    VALUE                        DESCRIPTION
#--------------- ---         ------------                 -----------------

~CURVE 
#MNEM.UNIT                 LOG CODE                  CURVE DESCRIPTION
#----------- ----         ------------              -----------------
DEPTH       .M                                      :     {F}
GR          .GAPI                                   :     {F}
LLD         .OHMM                                   :     {F}
NPHI        .V/V                                    :     {F}
RHOB        .K/M3                                   :     {F}

~ASCII | CURVE 
      10.30480,       38.7853,       13.0959,     -999.2500,     -999.2500
      10.45720,       38.9764,       10.9214,     -999.2500,     -999.2500
      10.60960,       39.5420,        9.9703,     -999.2500,     -999.2500
      10.76200,       40.2226,       10.1816,     -999.2500,     -999.2500
      10.91440,       40.4107,       11.0550,     -999.2500,     -999.2500
      11.06680,       40.6386,       11.4568,     -999.2500,     -999.2500
      11.21920,       40.5433,       11.5761,     -999.2500,     -999.2500
      11.37160,       40.3356,        9.9791,     -999.2500,     -999.2500
      11.52400,       39.6561,        9.7828,     -999.2500,     -999.2500
      11.67640,       38.3301,       10.1614,     -999.2500,     -999.2500
      11.82880,       36.6650,       10.9121,     -999.2500,     -999.2500
      11.98120,       35.9623,       11.8491,     -999.2500,     -999.2500
      12.13360,       36.5173,       12.3740,     -999.2500,     -999.2500
      12.28600,       37.7947,       11.4660,     -999.2500,     -999.2500
      12.43840,       39.1595,       10.7691,     -999.2500,     -999.2500
      12.59080,       40.1422,        9.7028,     -999.2500,     -999.2500
      12.74320,       40.3754,        8.5765,     -999.2500,     -999.2500
      12.89560,       40.2272,        7.4004,     -999.2500,     -999.2500
      13.04800,       40.1857,        6.2340,     -999.2500,     -999.2500
      13.20040,       40.0135,        5.5201,     -999.2500,     -999.2500
      13.35280,       39.6173,        5.6277,     -999.2500,     -999.2500
      13.50520,       38.5320,        5.8604,     -999.2500,     -999.2500
      13.65760,       36.6964,        7.1021,     -999.2500,     -999.2500
      13.81000,       34.8120,        8.3628,     -999.2500,     -999.2500
      13.96240,       33.8604,        8.5551,     -999.2500,     -999.2500
      14.11480,       33.9755,        8.3504,     -999.2500,     -999.2500
      14.26720,       34.6387,        7.8857,     -999.2500,     -999.2500
      14.41960,       35.3480,        6.6853,     -999.2500,     -999.2500
      14.57200,       36.0732,        5.9543,     -999.2500,     -999.2500
      14.72440,       36.8621,        6.0987,     -999.2500,     -999.2500
      14.87680,       37.5381,        7.7205,     -999.2500,     -999.2500
      15.02920,       37.7514,        8.5037,     -999.2500,     -999.2500
      15.18160,       37.3227,        9.7127,     -999.2500,     -999.2500
      15.33400,       36.7090,       13.3968,     -999.2500,     -999.2500
      15.48640,       36.4612,       15.0896,     -999.2500,     -999.2500
      15.63880,       36.1292,       13.9383,     -999.2500,     -999.2500
      15.79120,       35.3676,       14.0251,     -999.2500,     -999.2500
      15.94360,       34.5920,       13.4514,     -999.2500,     -999.2500
      16.09600,       34.2235,       17.1174,     -999.2500,     -999.2500
      16.24840,       33.9351,       19.6242,     -999.2500,     -999.2500
      16.40079,       33.6466,       19.1162,     -999.2500,     -999.2500
      16.55319,       33.1613,       18.6296,     -999.2500,     -999.2500
      16.70559,       32.4968,       18.3423,     -999.2500,     -999.2500
      16.85799,       32.3397,       10.9546,     -999.2500,     -999.2500
      17.01039,       32.7108,        7.7271,     -999.2500,     -999.2500
      17.16279,       32.7068,        9.0997,     -999.2500,     -999.2500
      17.31519,       32.1037,        9.6136,     -999.2500,     -999.2500
      17.46759,       31.5068,        9.4117,     -999.2500,     -999.2500
      17.61999,       30.9846,        9.6236,     -999.2500,     -999.2500
      17.77239,       30.6896,       10.7862,     -999.2500,     -999.2500
      17.92479,       30.5914,       10.5933,     -999.2500,     -999.2500
      18.07719,       30.3331,       10.4022,     -999.2500,     -999.2500
      18.22959,       30.1798,       11.9379,     -999.2500,     -999.2500
      18.38199,       30.6246,       12.5969,     -999.2500,     -999.2500
      18.53439,       31.3826,       10.7866,     -999.2500,     -999.2500
      18.68679,       31.7187,       10.4106,     -999.2500,     -999.2500
      18.83919,       31.1921,       11.6386,     -999.2500,     -999.2500
      18.99159,       29.5121,       12.2202,     -999.2500,     -999.2500
      19.14399,       27.7290,       12.3070,     -999.2500,     -999.2500
      19.29639,       26.5617,       14.5153,     -999.2500,     -999.2500
      19.44879,       26.6249,       15.7134,     -999.2500,     -999.2500
      19.60119,       27.5357,       14.0909,     -999.2500,     -999.2500
      19.75359,       28.9168,       14.1002,     -999.2500,     -999.2500
      19.90599,       30.2439,       14.1738,     -999.2500,     -999.2500
      20.05839,       31.4158,       11.3185,     -999.2500,     -999.2500
      20.21079,       31.6514,        9.0408,     -999.2500,     -999.2500
      20.36319,       30.8177,        8.9301,     -999.2500,     -999.2500
      20.51559,       29.4052,        6.5401,     -999.2500,     -999.2500
      20.66799,       28.3186,        4.6982,     -999.2500,     -999.2500
      20.82039,       28.1603,        3.8890,     -999.2500,     -999.2500
      20.97279,       28.7248,        3.6063,     -999.2500,     -999.2500
      21.12519,       29.0411,        2.9607,     -999.2500,     -999.2500
      21.27759,       28.8573,        2.6123,     -999.2500,     -999.2500
      21.42999,       28.1926,        2.7323,     -999.2500,     -999.2500
      21.58239,       27.7972,        2.8684,     -999.2500,     -999.2500
      21.73479,       27.5774,        2.7602,     -999.2500,     -999.2500
      21.88719,       27.6787,        4.0859,     -999.2500,     -999.2500
      22.03959,       27.5839,        5.8888,     -999.2500,     -999.2500
      22.19199,       27.6017,        6.2912,     -999.2500,     -999.2500
      22.34439,       27.7578,        6.2013,     -999.2500,     -999.2500
      22.49679,       28.5450,        6.1731,     -999.2500,     -999.2500
      22.64919,       29.7881,        4.7601,     -999.2500,     -999.2500
      22.80159,       31.0629,        3.2843,     -999.2500,     -999.2500
      22.95399,       31.4520,        4.0655,     -999.2500,     -999.2500
      23.10639,       30.8488,        6.5906,     -999.2500,     -999.2500
      23.25879,       29.7438,        7.9684,     -999.2500,     -999.2500
      23.41119,       29.1649,        8.0121,     -999.2500,     -999.2500
      23.56359,       29.6954,        8.1602,     -999.2500,     -999.2500
      23.71599,       31.4873,        7.7490,     -999.2500,     -999.2500
      23.86839,       33.8431,        5.4242,     -999.2500,     -999.2500
      24.02079,       35.5829,        5.1953,     -999.2500,     -999.2500
      24.17319,       35.8143,        6.2318,     -999.2500,     -999.2500
      24.32559,       34.9847,        6.0327,     -999.2500,     -999.2500
      24.47799,       34.0895,        5.1771,     -999.2500,     -999.2500
      24.63039,       33.9926,        4.9595,     -999.2500,     -999.2500
      24.78279,       34.1530,        4.6814,     -999.2500,     -999.2500
      24.93519,       33.7766,        3.9729,     -999.2500,     -999.2500
      25.08759,       32.6920,        3.7254,     -999.2500,     -999.2500
      25.23999,       31.8893,        3.7628,     -999.2500,     -999.2500
      25.39239,       32.0310,        3.6177,     -999.2500,     -999.2500
      25.54479,       32.5026,        2.8878,     -999.2500,     -999.2500
      25.69719,       32.4735,        2.3611,     -999.2500,     -999.2500
      25.84959,       31.9605,        2.8830,     -999.2500,     -999.2500
      26.00199,       31.8579,        3.5205,     -999.2500,     -999.2500
      26.15439,       32.7472,        3.7945,     -999.2500,     -999.2500
      26.30679,       33.8834,        4.2379,     -999.2500,     -999.2500
      26.45919,       33.7846,        4.8892,     -999.2500,     -999.2500
