~Version
VERS  .             3.0                                 : CWLS LOG ASCII STANDARD - VERSION 3.0
WRAP  .             NO                                  : One line per depth step
DLM   .             COMMA                               : Delimiter character between data columns
#Delimiting character ( SPACE TAB OR COMMA ).

~Well
#MNEM.UNIT          DATA                                DESCRIPTION
#----- ----        -----------------                   -----------
STRT  .M                 10.30480                       : FIRST INDEX VALUE
STOP  .M               1434.78642                       : LAST INDEX VALUE
STEP  .M                  0.15240                       : STEP OF INDEX
NULL  .             -999.25                             : NULL VALUE
COMP  .                                                 : COMPANY
WELL  .             HEZE                                : WELL
FLD   .                                                 : FIELD
LOC   .                                                 : LOCATION
SRVC  .                                                 : SERVICE COMPANY
CTRY  .                                                 : COUNTRY
PROV  .                                                 : PROVINCE
UWI   .                                                 : UNIQUE WELL ID
LIC   .                                                 : LICENSE NUMBER
STAT  .                                                 : STATE
CNTY  .                                                 : COUNTY
API   .                                                 : API NUMBER
DATE  .                                                 : LOG DATE
X     .             653060.8816674                      : X OR EAST-WEST COORDINATE
Y     .             8157285.619841                      : Y OR NORTH-SOUTH COORDINATE
HZCS  .                                                 : HORIZONTAL CO-ORDINATE SYSTEM
LATI  .             -16.66194444444                     : LATITUDE
LONG  .             154.4352777778                      : LONGITUDE
GDAT  .                                                 : GEODETIC DATUM

~DEVIATION_PARAMETER 
#MNEM.UNIT                    VALUE                        DESCRIPTION
#--------------- ---         ------------                 -----------------

~DEVIATION_DEFINITION 
#MNEM.UNIT                 LOG CODE                  CURVE DESCRIPTION
#----------- ----         ------------              -----------------
DEPTH       .M                                      :     {F}
AZIMUTH     .DEG                                    :     {F}
DEVIATION   .DEG                                    : 90-DIP    {F}

~DEVIATION_DATA | DEVIATION_DEFINITION
       29.0000,        0.0000,        0.5000
       57.0000,        0.0000,        0.7500
       85.0000,        0.0000,        0.5000
      122.0000,        0.0000,        0.7500
      158.0000,        0.0000,        0.7500
      315.0000,        0.0000,        0.5000
      466.0000,        0.0000,        0.2500
      629.0000,        0.0000,        0.7500
      782.0000,        0.0000,        0.7500
      934.0000,        0.0000,        2.2500
     1086.0000,        0.0000,        1.0000
     1240.0000,        0.0000,        0.7500
     1422.0000,        0.0000,        0.7500

~TOPS_PARAMETER 
#MNEM.UNIT                    VALUE                        DESCRIPTION
#--------------- ---         ------------                 -----------------

~TOPS_DEFINITION 
#MNEM.UNIT                 LOG CODE                  CURVE DESCRIPTION
#----------- ----         ------------              -----------------
DEPTH       .M                                      :     {F}
TOPS        .                                       : Values changed using TEXT_EDIT    {S30}

~TOPS_DATA | TOPS_DEFINITION
        4.0000,Doyles Creek Subgroup         
      419.0000,Horseshoe Creek Subgroup      
      503.0000,Apple Tree Flat Subgroup      
      718.5000,Watts Sandstone               
      736.5000,Denman Fm                     
      862.0000,Mt Leonard Fm                 
      995.0000,Althorpe Fm                   
     1031.0000,Malabar Fm                    
     1080.0000,Mt Ogilvie Fm                 
     1149.0000,Mt Thorley Fm                 
     1199.0000,Burnamwood Fm                 
     1300.0000,Archerfield Sandstone         
     1322.0000,Mulbring Siltstone            
     1388.0000,Muree Sandstone               
     1410.0000,                              

~PARAMETER 
#MNEM.UNIT                    VALUE                        DESCRIPTION
#--------------- ---         ------------                 -----------------

~CURVE 
#MNEM.UNIT                 LOG CODE                  CURVE DESCRIPTION
#----------- ----         ------------              -----------------
DEPTH       .M                                      :     {F}
GR          .GAPI                                   :     {F}
LLD         .OHMM                                   :     {F}
NPHI        .V/V                                    :     {F}
RHOB        .K/M3                                   :     {F}

~ASCII | CURVE 
# ...
    1412.68843,      113.9200,       13.9495,        0.2275,     2417.9000
    1412.84083,      117.1840,       14.7040,        0.2209,     2423.6300
    1412.99323,      120.4380,       15.0344,        0.2181,     2437.0100
    1413.14563,      123.0140,       14.8848,        0.2191,     2451.6800
    1413.29803,      123.9030,       14.3127,        0.2230,     2465.4200
    1413.45043,      121.5520,       13.6322,        0.2284,     2479.0600
    1413.60283,      115.5100,       13.1793,        0.2337,     2485.0500
    1413.75523,      106.0580,       13.0335,        0.2366,     2474.0200
    1413.90763,       95.1288,       13.4088,        0.2359,     2444.0900
    1414.06003,       86.9980,       14.4581,        0.2319,     2403.7900
    1414.21243,       85.3057,       15.7092,        0.2272,     2364.9900
    1414.36483,       90.5616,       16.7338,        0.2242,     2337.6800
    1414.51723,       99.6078,       17.2515,        0.2238,     2332.6400
    1414.66963,      108.6370,       16.8554,        0.2251,     2350.1800
    1414.82203,      115.1610,       15.5845,        0.2276,     2386.5600
    1414.97443,      118.2670,       13.8919,        0.2304,     2434.1400
    1415.12683,      119.2960,       12.1462,        0.2331,     2478.2200
    1415.27923,      119.4500,       10.7271,        0.2363,     2504.8300
    1415.43163,      117.9820,        9.9081,        0.2419,     2513.6800
    1415.58403,      115.3030,        9.5582,        0.2486,     2507.6100
    1415.73643,      113.2650,        9.5087,        0.2546,     2495.4400
    1415.88883,      112.3510,        9.6386,        0.2580,     2486.3900
    1416.04123,      112.2000,        9.8021,        0.2580,     2480.8200
    1416.19363,      113.0420,        9.8316,        0.2550,     2476.1800
    1416.34603,      113.9620,        9.7406,        0.2521,     2471.9600
    1416.49843,      115.5350,        9.6332,        0.2504,     2467.6900
    1416.65083,      116.6800,        9.5572,        0.2498,     2469.3100
    1416.80323,      116.7250,        9.5194,        0.2514,     2476.0900
    1416.95563,      115.6390,        9.6891,        0.2544,     2481.1000
    1417.10803,      113.8920,       10.1493,        0.2553,     2481.1400
    1417.26043,      113.0600,       10.7910,        0.2529,     2470.9800
    1417.41283,      113.5560,       11.5664,        0.2484,     2450.0400
    1417.56523,      113.7310,       12.6968,        0.2429,     2430.9900
    1417.71763,      113.5800,       14.3366,        0.2362,     2415.7900
    1417.87003,      114.4940,       16.4803,        0.2270,     2398.9200
    1418.02243,      115.7740,       19.1781,        0.2146,     2381.8500
    1418.17483,      118.0400,       22.3381,        0.2011,     2362.1500
    1418.32723,      119.6800,       25.4375,        0.1900,     2340.3300
    1418.47963,      119.2280,       27.9767,        0.1829,     2325.6800
    1418.63203,      117.5780,       29.8267,        0.1797,     2319.8700
    1418.78443,      116.1430,       30.9583,        0.1787,     2316.4400
    1418.93683,      115.7980,       31.4675,        0.1782,     2312.5000
    1419.08923,      107.5180,       31.4841,        0.1767,     2308.3100
    1419.24163,       86.1587,       31.3049,        0.1739,     2305.8400
    1419.39403,       55.6025,       30.9865,        0.1706,     2309.4400
    1419.54643,       25.9037,       30.5573,        0.1681,     2325.4600
    1419.69883,        5.8864,       30.0970,        0.1671,     2350.1400
    1419.85123,        0.0000,       29.5980,        0.1682,     2374.8400
    1420.00363,        0.0000,       29.1129,        0.1719,     2389.7000
    1420.15603,        0.0000,       28.7012,        0.1769,     2390.4500
    1420.30843,        0.0000,       28.3495,        0.1823,     2381.2400
    1420.46083,        0.0000,       28.1472,        0.1873,     2374.1100
    1420.61323,        0.0000,       28.3983,        0.1914,     2370.8900
    1420.76563,        0.0000,       28.8956,        0.1947,     2368.1000
    1420.91803,        0.0000,       29.5264,        0.1972,     2361.3900
    1421.07043,        0.0000,       30.2570,        0.1984,     2350.7800
    1421.22283,        0.0000,       30.8610,        0.1989,     2342.1900
    1421.37523,        0.0000,       31.5809,        0.2091,     2338.5100
    1421.52763,        0.0000,       32.2622,        0.2439,     2336.2400
    1421.68003,        0.0000,       32.5137,        0.3472,     2330.8000
    1421.83243,        0.0000,       32.4450,        0.8067,     2322.3100
    1421.98483,        0.0000,       32.2058,        1.0722,     2315.3500
    1422.13723,        0.0000,       31.4795,        1.0802,     2310.3700
    1422.28963,        0.0000,       30.5530,        1.0802,     2307.1400
    1422.44203,        0.0000,       29.7902,        0.3960,     2303.3800
    1422.59443,        0.0000,       29.0202,       -0.0292,     2300.3300
    1422.74683,        0.0000,       28.3528,       -0.0292,     2299.1300
    1422.89923,        0.0000,       27.8896,       -0.0292,     2305.9100
    1423.05163,        0.0000,       27.6198,       -0.0292,     2317.4500
    1423.20402,        0.0000,       27.6084,       -0.0292,     2331.7900
    1423.35642,        0.0000,       27.9770,       -0.0292,     2341.5300
    1423.50882,        0.0000,       28.4699,       -0.0292,     2342.3200
    1423.66122,        0.0000,       28.8563,       -0.0292,     2335.0200
    1423.81362,        0.0000,       29.1094,       -0.0292,     2323.4300
    1423.96602,        0.0000,       29.1296,       -0.0292,     2312.6800
    1424.11842,        0.0000,       28.8651,       -0.0292,     2308.6900
    1424.27082,        0.0000,       28.4966,       -0.0292,     2312.2200
    1424.42322,        0.0000,       28.1570,       -0.0292,     2316.7800
    1424.57562,        0.0000,       27.8344,       -0.0292,     2321.3400
    1424.72802,        0.0000,       27.6300,       -0.0292,     2335.2800
    1424.88042,        0.0000,       27.5656,       -0.0292,     2367.4900
    1425.03282,        0.0000,       27.5494,       -0.0292,     2414.4800
    1425.18522,        0.0000,       27.5273,       -0.0292,     2460.7500
    1425.33762,        0.0000,       27.5230,       -0.0292,     2482.8900
    1425.49002,        0.0000,       27.5340,       -0.0292,     2471.4400
    1425.64242,        0.0000,       27.5606,       -0.0292,     2444.1400
    1425.79482,        0.0000,       27.5907,       -0.0292,     2411.7000
    1425.94722,        0.0000,       27.5970,       -0.0292,     2373.3100
    1426.09962,        0.0000,       27.5906,       -0.0292,     2332.8300
    1426.25202,        0.0000,       27.5780,       -0.0292,     2296.6700
    1426.40442,        0.0000,       27.5641,       -0.0292,     2273.1100
    1426.55682,        0.0000,       27.5552,       -0.0292,     2270.0800
    1426.70922,        0.0000,       27.5631,       -0.0292,     2279.6200
    1426.86162,        0.0000,       27.5692,       -0.0292,     2277.9900
    1427.01402,        0.0000,       27.5869,       -0.0292,     2257.0000
    1427.16642,        0.0000,       27.5968,       -0.0292,     2243.5900
    1427.31882,        0.0000,       27.5963,       -0.0292,     2254.8000
    1427.47122,        0.0000,       27.5879,       -0.0292,     2290.7500
    1427.62362,        0.0000,       27.6136,       -0.0292,     2338.5100
    1427.77602,        0.0000,       27.6177,       -0.0292,     2374.7200
    1427.92842,        0.0000,       27.6086,       -0.0292,     2385.9200
    1428.08082,        0.0000,       27.6008,       -0.0292,     2388.7700
    1428.23322,        0.0000,       27.6005,       -0.0292,      916.0260
    1428.38562,        0.0000,       27.5612,       -0.0292,        0.0000
    1428.53802,        0.0000,       27.5707,       -0.0292,        0.0000
    1428.69042,        0.0000,       27.5878,        0.1312,        0.0000
    1428.84282,        0.0000,       27.6309,        0.0884,        0.0000
