~Version
VERS  .             3.0                                 : CWLS LOG ASCII STANDARD - VERSION 3.0
WRAP  .             NO                                  : One line per depth step
DLM   .             COMMA                               : Delimiter character between data columns
#Delimiting character ( SPACE TAB OR COMMA ).

~Well
#MNEM.UNIT          DATA                                DESCRIPTION
#----- ----        -----------------                   -----------
STRT  .M                 10.30480                       : FIRST INDEX VALUE
STOP  .M               1434.78642                       : LAST INDEX VALUE
STEP  .M                  0.15240                       : STEP OF INDEX
NULL  .             -999.25                             : NULL VALUE
COMP  .                                                 : COMPANY
WELL  .             HEZE                                : WELL
FLD   .                                                 : FIELD
LOC   .                                                 : LOCATION
SRVC  .                                                 : SERVICE COMPANY
CTRY  .                                                 : COUNTRY
PROV  .                                                 : PROVINCE
UWI   .                                                 : UNIQUE WELL ID
LIC   .                                                 : LICENSE NUMBER
STAT  .                                                 : STATE
CNTY  .                                                 : COUNTY
API   .                                                 : API NUMBER
DATE  .                                                 : LOG DATE
X     .             653060.8816674                      : X OR EAST-WEST COORDINATE
Y     .             8157285.619841                      : Y OR NORTH-SOUTH COORDINATE
HZCS  .                                                 : HORIZONTAL CO-ORDINATE SYSTEM
LATI  .             -16.66194444444                     : LATITUDE
LONG  .             154.4352777778                      : LONGITUDE
GDAT  .                                                 : GEODETIC DATUM

~DEVIATION_PARAMETER 
#MNEM.UNIT                    VALUE                        DESCRIPTION
#--------------- ---         ------------                 -----------------

~DEVIATION_DEFINITION 
#MNEM.UNIT                 LOG CODE                  CURVE DESCRIPTION
#----------- ----         ------------              -----------------
DEPTH       .M                                      :     {F}
AZIMUTH     .DEG                                    :     {F}
DEVIATION   .DEG                                    : 90-DIP    {F}

~DEVIATION_DATA | DEVIATION_DEFINITION
       29.0000,        0.0000,        0.5000
       57.0000,        0.0000,        0.7500
       85.0000,        0.0000,        0.5000
      122.0000,        0.0000,        0.7500
      158.0000,        0.0000,        0.7500
      315.0000,        0.0000,        0.5000
      466.0000,        0.0000,        0.2500
      629.0000,        0.0000,        0.7500
      782.0000,        0.0000,        0.7500
      934.0000,        0.0000,        2.2500
     1086.0000,        0.0000,        1.0000
     1240.0000,        0.0000,        0.7500
     1422.0000,        0.0000,        0.7500

~TOPS_PARAMETER 
#MNEM.UNIT                    VALUE                        DESCRIPTION
#--------------- ---         ------------                 -----------------

~TOPS_DEFINITION 
#MNEM.UNIT                 LOG CODE                  CURVE DESCRIPTION
#----------- ----         ------------              -----------------
DEPTH       .M                                      :     {F}
TOPS        .                                       : Values changed using TEXT_EDIT    {S30}

~TOPS_DATA | TOPS_DEFINITION
        4.0000,Doyles Creek Subgroup         
      419.0000,Horseshoe Creek Subgroup      
      503.0000,Apple Tree Flat Subgroup      
      718.5000,Watts Sandstone               
      736.5000,Denman Fm                     
      862.0000,Mt Leonard Fm                 
      995.0000,Althorpe Fm                   
     1031.0000,Malabar Fm                    
     1080.0000,Mt Ogilvie Fm                 
     1149.0000,Mt Thorley Fm                 
     1199.0000,Burnamwood Fm                 
     1300.0000,Archerfield Sandstone         
     1322.0000,Mulbring Siltstone            
     1388.0000,Muree Sandstone               
     1410.0000,                              

~PARAMETER 
#MNEM.UNIT                    VALUE                        DESCRIPTION
#--------------- ---         ------------                 -----------------

~CURVE 
#MNEM.UNIT                 LOG CODE                  CURVE DESCRIPTION
#----------- ----         ------------              -----------------
DEPTH       .M                                      :     {F}
GR          .GAPI                                   :     {F}
LLD         .OHMM                                   :     {F}
NPHI        .V/V                                    :     {F}
RHOB        .K/M3                                   :     {F}

~ASCII | CURVE 
# ...
     858.25769,       83.5933,        1.6561,     -999.2500,     -999.2500
     858.41009,       84.5909,        1.7125,     -999.2500,     -999.2500
     858.56249,       84.5573,        1.7337,     -999.2500,     -999.2500
     858.71489,       83.9927,        1.7264,     -999.2500,     -999.2500
     858.86729,       84.1340,        1.6948,     -999.2500,     -999.2500
     859.01969,       84.2473,        1.6487,     -999.2500,     -999.2500
     859.17209,       83.7554,        1.6205,     -999.2500,     -999.2500
     859.32449,       84.8184,        1.6262,     -999.2500,     -999.2500
     859.47689,       86.1453,        1.6381,     -999.2500,     -999.2500
     859.62929,       87.0433,        1.6406,     -999.2500,     -999.2500
     859.78169,       87.8875,        1.6388,     -999.2500,     -999.2500
     859.93409,       88.6136,        1.6209,     -999.2500,     -999.2500
     860.08649,       88.7253,        1.5848,     -999.2500,     -999.2500
     860.23889,       89.5181,        1.5490,     -999.2500,     -999.2500
     860.39129,       90.2784,        1.5156,     -999.2500,     -999.2500
     860.54369,       90.1626,        1.4854,     -999.2500,     -999.2500
     860.69609,       90.0976,        1.4682,     -999.2500,     -999.2500
     860.84849,       90.9045,        1.4639,     -999.2500,     -999.2500
     861.00089,       92.2759,        1.4710,     -999.2500,     -999.2500
     861.15329,       93.6390,        1.4849,     -999.2500,     -999.2500
     861.30569,       94.6038,        1.4971,     -999.2500,     -999.2500
     861.45809,       94.4810,        1.5040,     -999.2500,     -999.2500
     861.61049,       93.9271,        1.5085,     -999.2500,     -999.2500
     861.76289,       93.8824,        1.5113,     -999.2500,     -999.2500
     861.91529,       94.0491,        1.5127,     -999.2500,     -999.2500
     862.06769,       94.2473,        1.5174,     -999.2500,     -999.2500
     862.22009,       94.7587,        1.5293,     -999.2500,     -999.2500
     862.37249,       95.0926,        1.5463,     -999.2500,     -999.2500
     862.52489,       95.3610,        1.5618,     -999.2500,     -999.2500
     862.67729,       95.2475,        1.5844,     -999.2500,     -999.2500
     862.82969,       94.6490,        1.6088,     -999.2500,     -999.2500
     862.98209,       94.4526,        1.6233,     -999.2500,     -999.2500
     863.13449,       95.6219,        1.6254,     -999.2500,     -999.2500
     863.28689,       97.2600,        1.6314,     -999.2500,     -999.2500
     863.43929,       98.5315,        1.6419,     -999.2500,     -999.2500
     863.59169,       98.3379,        1.6671,     -999.2500,     -999.2500
     863.74409,       96.4972,        1.7365,     -999.2500,     -999.2500
     863.89649,       94.3407,        1.8379,     -999.2500,     -999.2500
     864.04889,       92.7349,        1.9301,     -999.2500,     -999.2500
     864.20129,       91.5412,        1.9976,     -999.2500,     -999.2500
     864.35369,       90.7179,        2.0213,     -999.2500,     -999.2500
     864.50609,       90.9584,        1.9840,     -999.2500,     -999.2500
     864.65849,       91.0638,        1.9169,     -999.2500,     -999.2500
     864.81089,       90.3755,        1.8505,     -999.2500,     -999.2500
     864.96329,       88.8142,        1.7884,     -999.2500,     -999.2500
     865.11569,       87.0157,        1.7487,     -999.2500,     -999.2500
     865.26809,       85.7520,        1.7177,     -999.2500,     -999.2500
     865.42049,       86.3017,        1.6827,     -999.2500,     -999.2500
     865.57289,       86.7793,        1.6915,     -999.2500,     -999.2500
     865.72529,       85.4346,        1.7966,     -999.2500,     -999.2500
     865.87769,       81.4055,        1.9432,     -999.2500,     -999.2500
     866.03009,       75.2719,        2.0832,     -999.2500,     -999.2500
     866.18249,       70.1663,        2.1697,     -999.2500,     -999.2500
     866.33489,       68.9791,        2.1422,     -999.2500,     -999.2500
     866.48729,       72.3044,        1.9863,     -999.2500,     -999.2500
     866.63969,       79.0887,        1.8029,     -999.2500,     -999.2500
     866.79209,       85.7363,        1.6586,     -999.2500,     -999.2500
     866.94449,       89.2525,        1.5860,     -999.2500,     -999.2500
     867.09689,       90.4933,        1.5906,     -999.2500,     -999.2500
     867.24929,       90.6247,        1.6364,     -999.2500,     -999.2500
     867.40169,       91.7817,        1.6751,     -999.2500,     -999.2500
     867.55409,       94.1773,        1.6910,     -999.2500,     -999.2500
     867.70649,       95.2779,        1.6930,     -999.2500,     -999.2500
     867.85889,       94.7661,        1.6858,     -999.2500,     -999.2500
     868.01129,       93.9935,        1.6728,     -999.2500,     -999.2500
     868.16369,       93.7471,        1.6536,     -999.2500,     -999.2500
     868.31609,       93.9103,        1.6378,     -999.2500,     -999.2500
     868.46849,       94.2978,        1.6244,     -999.2500,     -999.2500
     868.62089,       94.1435,        1.6089,     -999.2500,     -999.2500
     868.77329,       94.0446,        1.5950,     -999.2500,     -999.2500
     868.92569,       94.5139,        1.5929,     -999.2500,     -999.2500
     869.07809,       95.5604,        1.5997,     -999.2500,     -999.2500
     869.23049,       96.4620,        1.6212,     -999.2500,     -999.2500
     869.38289,       96.4407,        1.6622,     -999.2500,     -999.2500
     869.53529,       95.5381,        1.7107,     -999.2500,     -999.2500
     869.68769,       93.9818,        1.7469,     -999.2500,     -999.2500
     869.84009,       92.4440,        1.7813,     -999.2500,     -999.2500
     869.99249,       91.9882,        1.8151,     -999.2500,     -999.2500
     870.14488,       92.5078,        1.8388,     -999.2500,     -999.2500
     870.29728,       92.6652,        1.8473,     -999.2500,     -999.2500
     870.44968,       91.9589,        1.8579,     -999.2500,     -999.2500
     870.60208,       90.8087,        1.8566,     -999.2500,     -999.2500
     870.75448,       89.4239,        1.8385,     -999.2500,     -999.2500
     870.90688,       89.2925,        1.8149,     -999.2500,     -999.2500
     871.05928,       90.1592,        1.7933,     -999.2500,     -999.2500
     871.21168,       91.8915,        1.7571,     -999.2500,     -999.2500
     871.36408,       93.9303,        1.7127,     -999.2500,     -999.2500
     871.51648,       95.5270,        1.6677,     -999.2500,     -999.2500
     871.66888,       96.0150,        1.6180,     -999.2500,     -999.2500
     871.82128,       95.4590,        1.5692,     -999.2500,     -999.2500
     871.97368,       94.2251,        1.5329,     -999.2500,     -999.2500
     872.12608,       93.4270,        1.5126,     -999.2500,     -999.2500
     872.27848,       93.4734,        1.4975,     -999.2500,     -999.2500
     872.43088,       93.7804,        1.4992,     -999.2500,     -999.2500
     872.58328,       93.8778,        1.5195,     -999.2500,     -999.2500
     872.73568,       92.8393,        1.5630,     -999.2500,     -999.2500
     872.88808,       91.2087,        1.6245,     -999.2500,     -999.2500
     873.04048,       89.5273,        1.7007,     -999.2500,     -999.2500
     873.19288,       88.5868,        1.7806,     -999.2500,     -999.2500
     873.34528,       88.0733,        1.8510,     -999.2500,     -999.2500
     873.49768,       88.0163,        1.8873,     -999.2500,     -999.2500
     873.65008,       88.7439,        1.8989,     -999.2500,     -999.2500
     873.80248,       90.3446,        1.8834,     -999.2500,     -999.2500
     873.95488,       91.7728,        1.8355,     -999.2500,     -999.2500
     874.10728,       92.5838,        1.7844,     -999.2500,     -999.2500
     874.25968,       92.6461,        1.7475,     -999.2500,     -999.2500
     874.41208,       92.0688,        1.7171,     -999.2500,     -999.2500
