~Version
VERS  .             3.0                                 : CWLS LOG ASCII STANDARD - VERSION 3.0
WRAP  .             NO                                  : One line per depth step
DLM   .             COMMA                               : Delimiter character between data columns
#Delimiting character ( SPACE TAB OR COMMA ).

~Well
#MNEM.UNIT          DATA                                DESCRIPTION
#----- ----        -----------------                   -----------
STRT  .M                 10.30480                       : FIRST INDEX VALUE
STOP  .M               1434.78642                       : LAST INDEX VALUE
STEP  .M                  0.15240                       : STEP OF INDEX
NULL  .             -999.25                             : NULL VALUE
COMP  .                                                 : COMPANY
WELL  .             HEZE                                : WELL
FLD   .                                                 : FIELD
LOC   .                                                 : LOCATION
SRVC  .                                                 : SERVICE COMPANY
CTRY  .                                                 : COUNTRY
PROV  .                                                 : PROVINCE
UWI   .                                                 : UNIQUE WELL ID
LIC   .                                                 : LICENSE NUMBER
STAT  .                                                 : STATE
CNTY  .                                                 : COUNTY
API   .                                                 : API NUMBER
DATE  .                                                 : LOG DATE
X     .             653060.8816674                      : X OR EAST-WEST COORDINATE
Y     .             8157285.619841                      : Y OR NORTH-SOUTH COORDINATE
HZCS  .                                                 : HORIZONTAL CO-ORDINATE SYSTEM
LATI  .             -16.66194444444                     : LATITUDE
LONG  .             154.4352777778                      : LONGITUDE
GDAT  .                                                 : GEODETIC DATUM

~DEVIATION_PARAMETER 
#MNEM.UNIT                    VALUE                        DESCRIPTION
#--------------- ---         ------------                 -----------------

~DEVIATION_DEFINITION 
#MNEM.UNIT                 LOG CODE                  CURVE DESCRIPTION
#----------- ----         ------------              -----------------
DEPTH       .M                                      :     {F}
AZIMUTH     .DEG                                    :     {F}
DEVIATION   .DEG                                    : 90-DIP    {F}

~DEVIATION_DATA | DEVIATION_DEFINITION
       29.0000,        0.0000,        0.5000
       57.0000,        0.0000,        0.7500
       85.0000,        0.0000,        0.5000
      122.0000,        0.0000,        0.7500
      158.0000,        0.0000,        0.7500
      315.0000,        0.0000,        0.5000
      466.0000,        0.0000,        0.2500
      629.0000,        0.0000,        0.7500
      782.0000,        0.0000,        0.7500
      934.0000,        0.0000,        2.2500
     1086.0000,        0.0000,        1.0000
     1240.0000,        0.0000,        0.7500
     1422.0000,        0.0000,        0.7500

~TOPS_PARAMETER 
#MNEM.UNIT                    VALUE                        DESCRIPTION
#--------------- ---         ------------                 -----------------

~TOPS_DEFINITION 
#MNEM.UNIT                 LOG CODE                  CURVE DESCRIPTION
#----------- ----         ------------              -----------------
DEPTH       .M                                      :     {F}
TOPS        .                                       : Values changed using TEXT_EDIT    {S30}

~TOPS_DATA | TOPS_DEFINITION
        4.0000,Doyles Creek Subgroup         
      419.0000,Horseshoe Creek Subgroup      
      503.0000,Apple Tree Flat Subgroup      
      718.5000,Watts Sandstone               
      736.5000,Denman Fm                     
      862.0000,Mt Leonard Fm                 
      995.0000,Althorpe Fm                   
     1031.0000,Malabar Fm                    
     1080.0000,Mt Ogilvie Fm                 
     1149.0000,Mt Thorley Fm                 
     1199.0000,Burnamwood Fm                 
     1300.0000,Archerfield Sandstone         
     1322.0000,Mulbring Siltstone            
     1388.0000,Muree Sandstone               
     1410.0000,                              

~PARAMETER 
#MNEM.UNIT                    VALUE                        DESCRIPTION
#--------------- ---         ------------                 -----------------

~CURVE 
#MNEM.UNIT                 LOG CODE                  CURVE DESCRIPTION
#----------- ----         ------------              -----------------
DEPTH       .M                                      :     {F}
GR          .GAPI                                   :     {F}
LLD         .OHMM                                   :     {F}
NPHI        .V/V                                    :     {F}
RHOB        .K/M3                                   :     {F}

~ASCII | CURVE 
# ...
     483.20161,       54.4726,        4.7038,     -999.2500,     -999.2500
     483.35401,       54.8748,        4.6463,     -999.2500,     -999.2500
     483.50641,       55.1754,        4.5774,     -999.2500,     -999.2500
     483.65881,       55.3658,        4.5229,     -999.2500,     -999.2500
     483.81121,       55.3776,        4.4820,     -999.2500,     -999.2500
     483.96361,       55.1726,        4.4500,     -999.2500,     -999.2500
     484.11601,       54.9619,        4.4046,     -999.2500,     -999.2500
     484.26841,       54.7389,        4.3630,     -999.2500,     -999.2500
     484.42081,       54.6942,        4.3385,     -999.2500,     -999.2500
     484.57321,       55.2056,        4.3310,     -999.2500,     -999.2500
     484.72561,       56.4793,        4.3795,     -999.2500,     -999.2500
     484.87801,       57.7169,        4.4755,     -999.2500,     -999.2500
     485.03041,       57.7226,        4.5592,     -999.2500,     -999.2500
     485.18281,       56.4533,        4.6321,     -999.2500,     -999.2500
     485.33520,       54.3523,        4.7035,     -999.2500,     -999.2500
     485.48760,       52.3725,        4.7463,     -999.2500,     -999.2500
     485.64000,       51.5757,        4.7749,     -999.2500,     -999.2500
     485.79240,       51.8351,        4.8111,     -999.2500,     -999.2500
     485.94480,       52.3910,        4.8323,     -999.2500,     -999.2500
     486.09720,       53.6797,        4.8168,     -999.2500,     -999.2500
     486.24960,       54.5042,        4.7703,     -999.2500,     -999.2500
     486.40200,       54.0900,        4.7012,     -999.2500,     -999.2500
     486.55440,       53.2059,        4.6260,     -999.2500,     -999.2500
     486.70680,       52.1848,        4.5599,     -999.2500,     -999.2500
     486.85920,       51.9380,        4.5114,     -999.2500,     -999.2500
     487.01160,       53.2549,        4.4750,     -999.2500,     -999.2500
     487.16400,       54.5618,        4.4441,     -999.2500,     -999.2500
     487.31640,       54.9297,        4.3880,     -999.2500,     -999.2500
     487.46880,       55.4155,        4.3001,     -999.2500,     -999.2500
     487.62120,       56.5135,        4.2098,     -999.2500,     -999.2500
     487.77360,       58.3758,        4.1241,     -999.2500,     -999.2500
     487.92600,       59.9220,        4.0484,     -999.2500,     -999.2500
     488.07840,       59.8754,        4.0171,     -999.2500,     -999.2500
     488.23080,       59.0025,        4.0445,     -999.2500,     -999.2500
     488.38320,       57.8304,        4.1006,     -999.2500,     -999.2500
     488.53560,       56.7519,        4.1752,     -999.2500,     -999.2500
     488.68800,       55.8179,        4.2566,     -999.2500,     -999.2500
     488.84040,       54.8874,        4.3316,     -999.2500,     -999.2500
     488.99280,       54.1166,        4.3978,     -999.2500,     -999.2500
     489.14520,       54.1248,        4.4657,     -999.2500,     -999.2500
     489.29760,       54.3773,        4.5399,     -999.2500,     -999.2500
     489.45000,       55.0965,        4.6022,     -999.2500,     -999.2500
     489.60240,       56.3205,        4.6360,     -999.2500,     -999.2500
     489.75480,       57.1857,        4.6191,     -999.2500,     -999.2500
     489.90720,       57.4067,        4.5599,     -999.2500,     -999.2500
     490.05960,       56.4625,        4.4741,     -999.2500,     -999.2500
     490.21200,       55.1539,        4.3909,     -999.2500,     -999.2500
     490.36440,       54.4866,        4.3192,     -999.2500,     -999.2500
     490.51680,       55.2876,        4.2702,     -999.2500,     -999.2500
     490.66920,       56.0884,        4.2406,     -999.2500,     -999.2500
     490.82160,       56.3907,        4.2397,     -999.2500,     -999.2500
     490.97400,       56.0121,        4.2709,     -999.2500,     -999.2500
     491.12640,       55.9215,        4.3638,     -999.2500,     -999.2500
     491.27880,       56.3006,        4.5294,     -999.2500,     -999.2500
     491.43120,       57.1509,        4.7417,     -999.2500,     -999.2500
     491.58360,       57.0124,        4.9492,     -999.2500,     -999.2500
     491.73600,       55.8984,        5.1310,     -999.2500,     -999.2500
     491.88840,       54.7114,        5.2701,     -999.2500,     -999.2500
     492.04080,       54.2640,        5.3502,     -999.2500,     -999.2500
     492.19320,       54.5932,        5.3848,     -999.2500,     -999.2500
     492.34560,       55.2290,        5.4033,     -999.2500,     -999.2500
     492.49800,       54.8122,        5.4193,     -999.2500,     -999.2500
     492.65040,       53.8632,        5.4305,     -999.2500,     -999.2500
     492.80280,       53.4610,        5.4448,     -999.2500,     -999.2500
     492.95520,       54.0339,        5.4673,     -999.2500,     -999.2500
     493.10760,       55.1117,        5.4886,     -999.2500,     -999.2500
     493.26000,       56.2078,        5.4980,     -999.2500,     -999.2500
     493.41240,       56.8449,        5.4849,     -999.2500,     -999.2500
     493.56480,       57.3587,        5.4519,     -999.2500,     -999.2500
     493.71720,       58.3106,        5.4025,     -999.2500,     -999.2500
     493.86960,       58.8848,        5.3313,     -999.2500,     -999.2500
     494.02200,       58.3792,        5.2188,     -999.2500,     -999.2500
     494.17440,       57.6991,        5.0528,     -999.2500,     -999.2500
     494.32680,       57.9623,        4.8293,     -999.2500,     -999.2500
     494.47920,       58.6699,        4.5552,     -999.2500,     -999.2500
     494.63160,       58.7334,        4.2701,     -999.2500,     -999.2500
     494.78400,       57.8183,        4.0144,     -999.2500,     -999.2500
     494.93640,       56.7603,        3.8264,     -999.2500,     -999.2500
     495.08880,       57.0155,        3.7193,     -999.2500,     -999.2500
     495.24120,       58.8365,        3.6823,     -999.2500,     -999.2500
     495.39360,       61.2632,        3.6953,     -999.2500,     -999.2500
     495.54600,       62.2894,        3.7199,     -999.2500,     -999.2500
     495.69840,       62.2734,        3.6913,     -999.2500,     -999.2500
     495.85080,       62.7770,        3.5930,     -999.2500,     -999.2500
     496.00320,       64.3744,        3.4607,     -999.2500,     -999.2500
     496.15560,       66.5790,        3.3137,     -999.2500,     -999.2500
     496.30800,       67.7272,        3.2172,     -999.2500,     -999.2500
     496.46040,       67.2547,        3.2497,     -999.2500,     -999.2500
     496.61280,       65.8969,        3.4120,     -999.2500,     -999.2500
     496.76520,       64.5187,        3.6464,     -999.2500,     -999.2500
     496.91760,       63.0164,        3.9085,     -999.2500,     -999.2500
     497.07000,       61.6960,        4.1524,     -999.2500,     -999.2500
     497.22240,       60.3204,        4.3524,     -999.2500,     -999.2500
     497.37479,       59.7704,        4.5070,     -999.2500,     -999.2500
     497.52719,       60.3346,        4.6151,     -999.2500,     -999.2500
     497.67959,       61.3395,        4.6850,     -999.2500,     -999.2500
     497.83199,       62.2848,        4.7100,     -999.2500,     -999.2500
     497.98439,       63.3919,        4.6937,     -999.2500,     -999.2500
     498.13679,       64.4282,        4.6392,     -999.2500,     -999.2500
     498.28919,       65.2870,        4.5745,     -999.2500,     -999.2500
     498.44159,       64.8884,        4.5324,     -999.2500,     -999.2500
     498.59399,       63.2688,        4.5338,     -999.2500,     -999.2500
     498.74639,       62.0274,        4.5591,     -999.2500,     -999.2500
     498.89879,       61.9434,        4.6167,     -999.2500,     -999.2500
     499.05119,       62.5383,        4.6943,     -999.2500,     -999.2500
     499.20359,       63.2898,        4.7351,     -999.2500,     -999.2500
     499.35599,       62.9500,        4.7326,     -999.2500,     -999.2500
