~Version
VERS  .             3.0                                 : CWLS LOG ASCII STANDARD - VERSION 3.0
WRAP  .             NO                                  : One line per depth step
DLM   .             COMMA                               : Delimiter character between data columns
#Delimiting character ( SPACE TAB OR COMMA ).

~Well
#MNEM.UNIT          DATA                                DESCRIPTION
#----- ----        -----------------                   -----------
STRT  .M                185.01353                       : FIRST INDEX VALUE
STOP  .M               1555.39373                       : LAST INDEX VALUE
STEP  .M                  0.30480                       : STEP OF INDEX
NULL  .             -999.25                             : NULL VALUE
COMP  .                                                 : COMPANY
WELL  .             IZAR                                : WELL
FLD   .                                                 : FIELD
LOC   .                                                 : LOCATION
SRVC  .                                                 : SERVICE COMPANY
CTRY  .                                                 : COUNTRY
PROV  .                                                 : PROVINCE
UWI   .                                                 : UNIQUE WELL ID
LIC   .                                                 : LICENSE NUMBER
STAT  .                                                 : STATE
CNTY  .                                                 : COUNTY
API   .                                                 : API NUMBER
DATE  .                                                 : LOG DATE
X     .             653634.4478536                      : X OR EAST-WEST COORDINATE
Y     .             8158756.916129                      : Y OR NORTH-SOUTH COORDINATE
HZCS  .                                                 : HORIZONTAL CO-ORDINATE SYSTEM
LATI  .             -16.64861111111                     : LATITUDE
LONG  .             154.4405555556                      : LONGITUDE
GDAT  .                                                 : GEODETIC DATUM

~DEVIATION_PARAMETER 
#MNEM.UNIT                    VALUE                        DESCRIPTION
#--------------- ---         ------------                 -----------------

~DEVIATION_DEFINITION 
#MNEM.UNIT                 LOG CODE                  CURVE DESCRIPTION
#----------- ----         ------------              -----------------
DEPTH       .M                                      :     {F}
AZIMUTH     .DEG                                    :     {F}
DEVIATION   .DEG                                    : 90-DIP    {F}

~DEVIATION_DATA | DEVIATION_DEFINITION
     1384.5000,        0.0000,        1.0000
     1547.0000,        0.0000,        1.0000

~TOPS_PARAMETER 
#MNEM.UNIT                    VALUE                        DESCRIPTION
#--------------- ---         ------------                 -----------------

~TOPS_DEFINITION 
#MNEM.UNIT                 LOG CODE                  CURVE DESCRIPTION
#----------- ----         ------------              -----------------
DEPTH       .M                                      :     {F}
TOPS        .                                       : Values changed using TEXT_EDIT    {S30}

~TOPS_DATA | TOPS_DEFINITION
        4.8000,Doyles Creek Subgroup         
      449.0000,Horseshoe Creek Subgroup      
      523.0000,Apple Tree Flat Subgroup      
      739.5000,Watts Sandstone               
      752.0000,Denman Fm                     
      857.5000,Mt Leonard Fm                 
     1009.5000,Althorpe Fm                   
     1056.0000,Malabar Fm                    
     1100.0000,Mt Ogilvie Fm                 
     1159.0000,Mt Thorley Fm                 
     1217.5000,Burnamwood Fm                 
     1309.5000,Archerfield Sandstone         
     1328.5000,Mulbring Siltstone            
     1401.0000,Muree Sandstone               
     1513.0000,Branxton Fm                   
     1542.0000,Greta Coal Measures           

~PARAMETER 
#MNEM.UNIT                    VALUE                        DESCRIPTION
#--------------- ---         ------------                 -----------------

~CURVE 
#MNEM.UNIT                 LOG CODE                  CURVE DESCRIPTION
#----------- ----         ------------              -----------------
DEPTH       .M                                      :     {F}
GR          .GAPI         -                         : Gamma ray corrected    {F}
LLD         .OHMM                                   : Resampled from old SR 0.4999997811314  anti-aliased    {F}
NPHI        .V/V          -                         :     {F}
RHOB        .K/M3         -                         : Evaluate log.    {F}

~ASCII | CURVE 
# ...
     935.12600,      103.4410,        1.7022,      0.414821,     1944.4000
     935.43080,      110.8640,        1.7018,      0.416298,     1944.1000
     935.73560,      111.8850,        1.7018,      0.402418,     1943.6000
     936.04040,      112.9500,        1.6635,      0.430962,     1943.4000
     936.34520,      113.7170,        1.7467,      0.434196,     1943.7000
     936.65000,      109.6970,        1.8082,      0.425012,     1943.5000
     936.95480,      109.6480,        1.8545,      0.438682,     1943.7000
     937.25960,      110.9850,        1.9326,      0.432009,     1943.5000
     937.56440,      112.4660,        2.0652,      0.442686,     1943.4000
     937.86920,      111.1550,        2.0646,      0.451289,     1942.8000
     938.17400,      109.0190,        1.8996,      0.439216,     1942.5000
     938.47880,      110.9710,        1.8056,      0.436504,     1942.0000
     938.78360,      113.1830,        1.7363,      0.443890,     1941.9000
     939.08840,      113.0450,        1.6324,      0.441403,     1942.1000
     939.39320,      113.9240,        1.6484,      0.426420,     1941.9000
     939.69800,      116.5600,        1.6707,      0.430594,     1942.6000
     940.00279,      115.6280,        1.7057,      0.430500,     1942.4000
     940.30759,      112.4640,        1.7947,      0.405433,     1942.6000
     940.61239,      109.0120,        1.7991,      0.395313,     1943.1000
     940.91719,      108.8410,        1.7175,      0.388909,     1943.2000
     941.22199,      106.1950,        1.6853,      0.396989,     1943.4000
     941.52679,      106.1080,        1.7863,      0.409583,     1943.2000
     941.83159,      104.5370,        2.0009,      0.409201,     1943.4000
     942.13639,      109.3060,        2.0149,      0.403607,     1943.7000
     942.44119,      111.8660,        1.8795,      0.403999,     1943.5000
     942.74599,      111.6080,        1.9133,      0.401304,     1943.3000
     943.05079,      111.3640,        1.8913,      0.395707,     1943.1000
     943.35559,      110.8860,        1.8916,      0.415773,     1942.9000
     943.66039,      110.1270,        1.8621,      0.425887,     1943.2000
     943.96519,      108.4490,        1.8882,      0.393443,     1943.0000
     944.26999,      105.6500,        1.8743,      0.384212,     1942.8000
     944.57479,      104.3020,        1.8654,      0.403974,     1942.7000
     944.87959,      108.1160,        1.7944,      0.395711,     1943.3000
     945.18439,      110.8030,        1.7343,      0.380820,     1943.6000
     945.48919,      112.1320,        1.7469,      0.391286,     1943.5000
     945.79399,      113.2350,        1.7872,      0.381413,     1943.7000
     946.09879,      114.2080,        1.6795,      0.378704,     1943.6000
     946.40359,      115.6580,        1.6639,      0.398673,     1943.4000
     946.70839,      116.0640,        1.6702,      0.394006,     1943.2000
     947.01319,      117.9860,        1.7606,      0.393201,     1943.5000
     947.31799,      121.5180,        2.0465,      0.405084,     1943.8000
     947.62279,      123.1110,        1.9029,      0.405599,     1944.1000
     947.92759,      120.7770,        1.6386,      0.414688,     1943.8000
     948.23239,      115.5130,        1.8029,      0.429680,     1944.1000
     948.53719,      112.8830,        1.9309,      0.421811,     1943.9000
     948.84199,      119.3270,        1.9050,      0.410315,     1943.8000
     949.14679,      123.2890,        1.8449,      0.420486,     1943.6000
     949.45159,      117.8820,        1.6984,      0.427590,     1943.9000
     949.75639,      110.3470,        1.6981,      0.412620,     1944.1000
     950.06119,      106.6740,        1.8402,      0.418392,     1944.4000
     950.36599,      105.2060,        1.8740,      0.428986,     1944.2000
     950.67079,      103.8690,        1.7406,      0.422209,     1944.0000
     950.97559,       97.1843,        1.7215,      0.443272,     1943.9000
     951.28039,       93.0065,        1.6951,      0.466269,     1943.7000
     951.58519,       93.9373,        1.6008,      0.466699,     1943.5000
     951.88999,       94.0577,        1.6229,      0.475588,     1943.2000
     952.19479,       97.6804,        1.6988,      0.489381,     1942.8000
     952.49959,      110.9320,        1.6568,      0.484207,     1942.6000
     952.80439,      123.9890,        1.6339,      0.489693,     1942.4000
     953.10919,      127.0570,        1.5635,      0.467530,     1942.3000
     953.41399,      139.3210,        1.4964,      0.448126,     1942.1000
     953.71879,      150.8100,        1.4523,      0.429525,     1940.5000
     954.02359,      162.3310,        1.5030,      0.415519,     1940.5000
     954.32839,      166.5770,        1.4922,      0.378949,     1940.5000
     954.63319,      152.6970,        1.4991,      0.363621,     1940.5000
     954.93799,      142.9180,        1.5306,      0.362502,     1940.5000
     955.24279,      139.6350,        1.4955,      0.380476,     1940.5000
     955.54759,      140.1050,        1.5164,      0.369115,     1940.5000
     955.85239,      140.0700,        1.4827,      0.359613,     1940.5000
     956.15719,      145.1500,        1.4730,      0.370785,     1940.5000
     956.46199,      149.3090,        1.5712,      0.365307,     1940.5000
     956.76679,      148.9590,        1.7183,      0.380579,     1940.5000
     957.07159,      153.6910,        1.6944,      0.369914,     1940.5000
     957.37639,      156.1500,        1.6361,      0.359614,     1940.5000
     957.68119,      158.3240,        1.6971,      0.372083,     1940.5000
     957.98599,      156.9740,        1.7574,      0.373099,     1940.5000
     958.29079,      159.6910,        1.8159,      0.365311,     1940.5000
     958.59559,      157.0570,        1.7796,      0.364301,     1940.5000
     958.90039,      156.8120,        1.7074,      0.377482,     1940.5000
     959.20519,      157.0360,        1.8457,      0.363120,     1940.5000
     959.50999,      156.4500,        1.7826,      0.366196,     1940.5000
     959.81479,      156.0240,        1.6409,      0.382478,     1940.5000
     960.11959,      156.3810,        1.6155,      0.368219,     1940.5000
     960.42439,      159.1340,        1.5718,      0.357315,     1940.5000
     960.72919,      159.6030,        1.5568,      0.360496,     1940.5000
     961.03399,      156.2300,        1.5637,      0.369488,     1940.5000
     961.33879,      155.2840,        1.5427,      0.363009,     1940.5000
     961.64359,      155.0440,        1.5399,      0.341130,     1940.5000
     961.94839,      155.2820,        1.5574,      0.346493,     1940.5000
     962.25319,      151.3870,        1.6448,      0.363277,     1940.5000
     962.55799,      151.9260,        1.8152,      0.370091,     1940.5000
     962.86278,      153.9410,        1.7528,      0.359814,     1940.5000
     963.16758,      160.5470,        1.5514,      0.353708,     1940.5000
     963.47238,      158.8990,        1.6938,      0.367481,     1940.5000
     963.77718,      161.8570,        1.8580,      0.380682,     1940.5000
     964.08198,      167.6470,        1.7466,      0.389688,     1940.5000
     964.38678,      171.7080,        1.6042,      0.370426,     1940.5000
     964.69158,      171.0580,        1.5315,      0.371498,     1940.5000
     964.99638,      171.5970,        1.5130,      0.358618,     1940.5000
     965.30118,      175.1850,        1.5405,      0.352808,     1940.5000
     965.60598,      175.1350,        1.6321,      0.379064,     1940.5000
     965.91078,      175.3630,        1.6897,      0.381696,     1940.5000
     966.21558,      174.1150,        1.8403,      0.387093,     1940.5000
     966.52038,      168.8360,        2.3285,      0.369324,     1940.5000
     966.82518,      166.7570,        2.2398,      0.362310,     1940.5000
     967.12998,      156.8440,        1.7466,      0.356808,     1940.5000
     967.43478,      151.3890,        1.7175,      0.348811,     1940.5000
