~Version
VERS  .             3.0                                 : CWLS LOG ASCII STANDARD - VERSION 3.0
WRAP  .             NO                                  : One line per depth step
DLM   .             COMMA                               : Delimiter character between data columns
#Delimiting character ( SPACE TAB OR COMMA ).

~Well
#MNEM.UNIT          DATA                                DESCRIPTION
#----- ----        -----------------                   -----------
STRT  .M                185.01353                       : FIRST INDEX VALUE
STOP  .M               1555.39373                       : LAST INDEX VALUE
STEP  .M                  0.30480                       : STEP OF INDEX
NULL  .             -999.25                             : NULL VALUE
COMP  .                                                 : COMPANY
WELL  .             IZAR                                : WELL
FLD   .                                                 : FIELD
LOC   .                                                 : LOCATION
SRVC  .                                                 : SERVICE COMPANY
CTRY  .                                                 : COUNTRY
PROV  .                                                 : PROVINCE
UWI   .                                                 : UNIQUE WELL ID
LIC   .                                                 : LICENSE NUMBER
STAT  .                                                 : STATE
CNTY  .                                                 : COUNTY
API   .                                                 : API NUMBER
DATE  .                                                 : LOG DATE
X     .             653634.4478536                      : X OR EAST-WEST COORDINATE
Y     .             8158756.916129                      : Y OR NORTH-SOUTH COORDINATE
HZCS  .                                                 : HORIZONTAL CO-ORDINATE SYSTEM
LATI  .             -16.64861111111                     : LATITUDE
LONG  .             154.4405555556                      : LONGITUDE
GDAT  .                                                 : GEODETIC DATUM

~DEVIATION_PARAMETER 
#MNEM.UNIT                    VALUE                        DESCRIPTION
#--------------- ---         ------------                 -----------------

~DEVIATION_DEFINITION 
#MNEM.UNIT                 LOG CODE                  CURVE DESCRIPTION
#----------- ----         ------------              -----------------
DEPTH       .M                                      :     {F}
AZIMUTH     .DEG                                    :     {F}
DEVIATION   .DEG                                    : 90-DIP    {F}

~DEVIATION_DATA | DEVIATION_DEFINITION
     1384.5000,        0.0000,        1.0000
     1547.0000,        0.0000,        1.0000

~TOPS_PARAMETER 
#MNEM.UNIT                    VALUE                        DESCRIPTION
#--------------- ---         ------------                 -----------------

~TOPS_DEFINITION 
#MNEM.UNIT                 LOG CODE                  CURVE DESCRIPTION
#----------- ----         ------------              -----------------
DEPTH       .M                                      :     {F}
TOPS        .                                       : Values changed using TEXT_EDIT    {S30}

~TOPS_DATA | TOPS_DEFINITION
        4.8000,Doyles Creek Subgroup         
      449.0000,Horseshoe Creek Subgroup      
      523.0000,Apple Tree Flat Subgroup      
      739.5000,Watts Sandstone               
      752.0000,Denman Fm                     
      857.5000,Mt Leonard Fm                 
     1009.5000,Althorpe Fm                   
     1056.0000,Malabar Fm                    
     1100.0000,Mt Ogilvie Fm                 
     1159.0000,Mt Thorley Fm                 
     1217.5000,Burnamwood Fm                 
     1309.5000,Archerfield Sandstone         
     1328.5000,Mulbring Siltstone            
     1401.0000,Muree Sandstone               
     1513.0000,Branxton Fm                   
     1542.0000,Greta Coal Measures           

~PARAMETER 
#MNEM.UNIT                    VALUE                        DESCRIPTION
#--------------- ---         ------------                 -----------------

~CURVE 
#MNEM.UNIT                 LOG CODE                  CURVE DESCRIPTION
#----------- ----         ------------              -----------------
DEPTH       .M                                      :     {F}
GR          .GAPI         -                         : Gamma ray corrected    {F}
LLD         .OHMM                                   : Resampled from old SR 0.4999997811314  anti-aliased    {F}
NPHI        .V/V          -                         :     {F}
RHOB        .K/M3         -                         : Evaluate log.    {F}

~ASCII | CURVE 
# ...
     902.51241,     -999.2500,        1.6718,   -999.250000,     -999.2500
     902.81721,     -999.2500,        1.5635,   -999.250000,     -999.2500
     903.12201,     -999.2500,        1.4027,   -999.250000,     -999.2500
     903.42681,     -999.2500,        1.3549,   -999.250000,     -999.2500
     903.73161,     -999.2500,        1.4058,   -999.250000,     -999.2500
     904.03641,     -999.2500,        1.5377,   -999.250000,     -999.2500
     904.34121,     -999.2500,        1.6026,   -999.250000,     -999.2500
     904.64601,     -999.2500,        1.5841,   -999.250000,     -999.2500
     904.95081,     -999.2500,        1.7017,   -999.250000,     -999.2500
     905.25561,     -999.2500,        1.8574,   -999.250000,     -999.2500
     905.56041,     -999.2500,        1.7819,   -999.250000,     -999.2500
     905.86521,     -999.2500,        1.7212,   -999.250000,     -999.2500
     906.17001,     -999.2500,        1.7132,   -999.250000,     -999.2500
     906.47481,     -999.2500,        1.6360,   -999.250000,     -999.2500
     906.77961,     -999.2500,        1.6473,   -999.250000,     -999.2500
     907.08441,     -999.2500,        1.6552,   -999.250000,     -999.2500
     907.38921,     -999.2500,        1.5777,   -999.250000,     -999.2500
     907.69401,     -999.2500,        1.5889,   -999.250000,     -999.2500
     907.99881,     -999.2500,        1.6870,   -999.250000,     -999.2500
     908.30361,     -999.2500,        1.7264,   -999.250000,     -999.2500
     908.60841,     -999.2500,        1.7833,   -999.250000,     -999.2500
     908.91321,     -999.2500,        1.9416,   -999.250000,     -999.2500
     909.21801,     -999.2500,        2.0182,   -999.250000,     -999.2500
     909.52281,     -999.2500,        2.0364,   -999.250000,     -999.2500
     909.82761,     -999.2500,        1.9224,   -999.250000,     -999.2500
     910.13241,     -999.2500,        1.8234,   -999.250000,     -999.2500
     910.43721,     -999.2500,        1.8363,   -999.250000,     -999.2500
     910.74201,     -999.2500,        1.9908,   -999.250000,     -999.2500
     911.04681,     -999.2500,        2.1479,   -999.250000,     -999.2500
     911.35161,     -999.2500,        2.0606,   -999.250000,     -999.2500
     911.65641,     -999.2500,        2.2278,   -999.250000,     -999.2500
     911.96121,     -999.2500,        2.3706,   -999.250000,     -999.2500
     912.26601,     -999.2500,        2.3767,   -999.250000,     -999.2500
     912.57081,     -999.2500,        2.4436,   -999.250000,     -999.2500
     912.87561,     -999.2500,        2.4714,   -999.250000,     -999.2500
     913.18041,     -999.2500,        2.4374,   -999.250000,     -999.2500
     913.48521,     -999.2500,        2.4828,   -999.250000,     -999.2500
     913.79001,     -999.2500,        2.3705,   -999.250000,     -999.2500
     914.09481,     -999.2500,        2.1565,   -999.250000,     -999.2500
     914.39961,      115.2680,        2.1767,   -999.250000,     -999.2500
     914.70441,      112.6040,        2.1428,      0.391965,     -999.2500
     915.00921,      112.3780,        1.9500,      0.389403,     1944.3000
     915.31401,      111.8330,        1.8706,      0.373321,     1944.6000
     915.61881,      114.4180,        1.9410,      0.361016,     1944.4000
     915.92361,      113.3870,        1.9275,      0.369988,     1944.2000
     916.22841,      104.7490,        1.8029,      0.384781,     1944.1000
     916.53321,      104.4340,        1.9322,      0.388395,     1943.9000
     916.83801,       97.8587,        1.9819,      0.410372,     1943.3000
     917.14281,       92.8468,        1.8882,      0.425281,     1942.7000
     917.44760,      100.6900,        1.9494,      0.314244,     1942.1000
     917.75240,      109.1710,        1.9579,      0.295125,     1941.5000
     918.05720,      114.9090,        2.0032,      0.326060,     1941.0000
     918.36200,      112.3500,        2.0169,      0.372839,     1940.6000
     918.66680,      108.9940,        2.0782,      0.385084,     1940.5000
     918.97160,      108.9920,        2.2481,      0.368422,     1940.5000
     919.27640,      108.8170,        2.2122,      0.354318,     1940.5000
     919.58120,      110.5570,        2.3059,      0.360292,     1940.5000
     919.88600,      103.6470,        2.3601,      0.396153,     1940.5000
     920.19080,      104.7280,        2.1572,      0.392505,     1940.5000
     920.49560,      104.5450,        2.0274,      0.367433,     1941.3000
     920.80040,      106.9650,        2.1039,      0.367999,     1941.5000
     921.10520,      112.0880,        2.2860,      0.400957,     1941.8000
     921.41000,      112.2860,        2.2287,      0.424969,     1941.6000
     921.71480,      112.4360,        2.0985,      0.420706,     1941.0000
     922.01960,      113.5220,        2.0790,      0.404122,     1940.8000
     922.32440,      111.7330,        2.0646,      0.385924,     1940.5000
     922.62920,      109.4890,        2.1026,      0.404676,     1940.5000
     922.93400,      110.3970,        2.2322,      0.417184,     1942.5000
     923.23880,      111.4140,        2.3491,      0.433978,     1943.5000
     923.54360,      115.4570,        2.2089,      0.437296,     1942.9000
     923.84840,      122.9880,        2.1343,      0.405442,     1941.9000
     924.15320,      134.7270,        2.1482,      0.371644,     1940.6000
     924.45800,      140.4720,        2.1322,      0.383684,     1940.5000
     924.76280,      134.3420,        2.0408,      0.395085,     1940.5000
     925.06760,      121.6030,        2.0792,      0.402990,     1940.8000
     925.37240,      116.4860,        2.2593,      0.417781,     1940.6000
     925.67720,      113.5830,        2.3543,      0.426289,     1940.5000
     925.98200,      106.6920,        2.2527,      0.439982,     1940.5000
     926.28680,      104.1950,        2.0125,      0.451585,     1940.5000
     926.59160,      102.5400,        1.9096,      0.476767,     1940.5000
     926.89640,       98.5343,        1.8630,      0.475202,     1940.5000
     927.20120,       95.5850,        1.7791,      0.454527,     1940.5000
     927.50600,       94.0881,        1.8196,      0.428534,     1941.1000
     927.81080,       96.0548,        1.9179,      0.397740,     1941.4000
     928.11560,       93.4559,        1.9311,      0.369038,     1940.5000
     928.42040,       85.1272,        1.9132,      0.360411,     1940.5000
     928.72520,       79.9187,        1.9317,      0.349814,     1977.1500
     929.03000,       88.4314,        2.0660,      0.368975,     1948.8400
     929.33480,       95.3345,        2.1927,      0.407350,     1943.4100
     929.63960,      102.1430,        2.1077,      0.441455,     1947.1000
     929.94440,      106.9480,        1.9666,      0.433511,     1946.9000
     930.24920,      107.9910,        1.8150,      0.425411,     1946.4000
     930.55400,      107.5730,        1.9004,      0.431192,     1945.5000
     930.85880,      106.7520,        1.9268,      0.443084,     1945.6000
     931.16360,      108.9930,        2.0562,      0.433613,     1945.4000
     931.46840,      108.3590,        2.4499,      0.419419,     1944.8000
     931.77320,      104.8050,        2.1487,      0.427489,     1944.2000
     932.07800,      103.8530,        1.7303,      0.412320,     1943.6000
     932.38280,      106.5170,        1.7745,      0.415396,     1943.5000
     932.68760,      108.3910,        1.8842,      0.400719,     1943.7000
     932.99240,      108.7140,        1.8461,      0.399601,     1944.0000
     933.29720,      110.0020,        1.7310,      0.409187,     1943.8000
     933.60200,      105.3030,        1.6989,      0.456138,     1943.6000
     933.90680,       99.5546,        1.6826,      0.460394,     1943.8000
     934.21160,       94.8269,        1.7099,      0.458103,     1944.1000
     934.51640,       96.6895,        1.7495,      0.445716,     1945.1000
     934.82120,      100.0690,        1.7377,      0.430920,     1945.0000
