~Version
VERS  .             3.0                                 : CWLS LOG ASCII STANDARD - VERSION 3.0
WRAP  .             NO                                  : One line per depth step
DLM   .             COMMA                               : Delimiter character between data columns
#Delimiting character ( SPACE TAB OR COMMA ).

~Well
#MNEM.UNIT          DATA                                DESCRIPTION
#----- ----        -----------------                   -----------
STRT  .M                185.01353                       : FIRST INDEX VALUE
STOP  .M               1555.39373                       : LAST INDEX VALUE
STEP  .M                  0.30480                       : STEP OF INDEX
NULL  .             -999.25                             : NULL VALUE
COMP  .                                                 : COMPANY
WELL  .             IZAR                                : WELL
FLD   .                                                 : FIELD
LOC   .                                                 : LOCATION
SRVC  .                                                 : SERVICE COMPANY
CTRY  .                                                 : COUNTRY
PROV  .                                                 : PROVINCE
UWI   .                                                 : UNIQUE WELL ID
LIC   .                                                 : LICENSE NUMBER
STAT  .                                                 : STATE
CNTY  .                                                 : COUNTY
API   .                                                 : API NUMBER
DATE  .                                                 : LOG DATE
X     .             653634.4478536                      : X OR EAST-WEST COORDINATE
Y     .             8158756.916129                      : Y OR NORTH-SOUTH COORDINATE
HZCS  .                                                 : HORIZONTAL CO-ORDINATE SYSTEM
LATI  .             -16.64861111111                     : LATITUDE
LONG  .             154.4405555556                      : LONGITUDE
GDAT  .                                                 : GEODETIC DATUM

~DEVIATION_PARAMETER 
#MNEM.UNIT                    VALUE                        DESCRIPTION
#--------------- ---         ------------                 -----------------

~DEVIATION_DEFINITION 
#MNEM.UNIT                 LOG CODE                  CURVE DESCRIPTION
#----------- ----         ------------              -----------------
DEPTH       .M                                      :     {F}
AZIMUTH     .DEG                                    :     {F}
DEVIATION   .DEG                                    : 90-DIP    {F}

~DEVIATION_DATA | DEVIATION_DEFINITION
     1384.5000,        0.0000,        1.0000
     1547.0000,        0.0000,        1.0000

~TOPS_PARAMETER 
#MNEM.UNIT                    VALUE                        DESCRIPTION
#--------------- ---         ------------                 -----------------

~TOPS_DEFINITION 
#MNEM.UNIT                 LOG CODE                  CURVE DESCRIPTION
#----------- ----         ------------              -----------------
DEPTH       .M                                      :     {F}
TOPS        .                                       : Values changed using TEXT_EDIT    {S30}

~TOPS_DATA | TOPS_DEFINITION
        4.8000,Doyles Creek Subgroup         
      449.0000,Horseshoe Creek Subgroup      
      523.0000,Apple Tree Flat Subgroup      
      739.5000,Watts Sandstone               
      752.0000,Denman Fm                     
      857.5000,Mt Leonard Fm                 
     1009.5000,Althorpe Fm                   
     1056.0000,Malabar Fm                    
     1100.0000,Mt Ogilvie Fm                 
     1159.0000,Mt Thorley Fm                 
     1217.5000,Burnamwood Fm                 
     1309.5000,Archerfield Sandstone         
     1328.5000,Mulbring Siltstone            
     1401.0000,Muree Sandstone               
     1513.0000,Branxton Fm                   
     1542.0000,Greta Coal Measures           

~PARAMETER 
#MNEM.UNIT                    VALUE                        DESCRIPTION
#--------------- ---         ------------                 -----------------

~CURVE 
#MNEM.UNIT                 LOG CODE                  CURVE DESCRIPTION
#----------- ----         ------------              -----------------
DEPTH       .M                                      :     {F}
GR          .GAPI         -                         : Gamma ray corrected    {F}
LLD         .OHMM                                   : Resampled from old SR 0.4999997811314  anti-aliased    {F}
NPHI        .V/V          -                         :     {F}
RHOB        .K/M3         -                         : Evaluate log.    {F}

~ASCII | CURVE 
# ...
    1163.42110,      163.7900,       11.2936,      0.126497,     2316.8900
    1163.72590,      162.5520,       10.4220,      0.139578,     2346.1500
    1164.03070,      163.8570,        9.6640,      0.159168,     2318.5500
    1164.33550,      162.8580,       10.5006,      0.176971,     2253.0100
    1164.64030,      158.3680,       10.9937,      0.194271,     2266.1800
    1164.94510,      154.1580,       10.2328,      0.206280,     2234.0500
    1165.24990,      163.7920,       11.1913,      0.197215,     2195.5600
    1165.55470,      167.2280,       11.5828,      0.183423,     2247.8100
    1165.85950,      167.8450,        9.9054,      0.192585,     2233.7200
    1166.16430,      173.0720,       10.0735,      0.197192,     2191.3700
    1166.46910,      174.5820,       11.0728,      0.186817,     2229.8400
    1166.77390,      171.7600,       10.6459,      0.177016,     2277.9200
    1167.07870,      168.7970,        9.6618,      0.170311,     2279.3000
    1167.38350,      166.8090,        9.0400,      0.160916,     2318.2400
    1167.68830,      165.5120,        9.1493,      0.149519,     2318.1000
    1167.99310,      165.8180,        8.9578,      0.148402,     2305.1200
    1168.29790,      165.3410,       11.0880,      0.155987,     2299.7100
    1168.60269,      168.5950,       12.4389,      0.156599,     2290.4200
    1168.90749,      167.8930,       11.5545,      0.150211,     2272.9300
    1169.21229,      166.9050,        9.7910,      0.155491,     2255.9300
    1169.51709,      165.3860,        8.8707,      0.168478,     2225.4500
    1169.82189,      169.8300,        9.7328,      0.164207,     2276.4200
    1170.12669,      169.3110,       10.9734,      0.148227,     2292.1700
    1170.43149,      168.5320,       10.7189,      0.140014,     2302.9800
    1170.73629,      172.6290,       12.0750,      0.143894,     2288.9200
    1171.04109,      172.5490,       10.4890,      0.146995,     2288.0000
    1171.34589,      170.3540,        7.4078,      0.151692,     2274.7200
    1171.65069,      171.6020,        8.5712,      0.157890,     2269.8100
    1171.95549,      173.7540,       11.0991,      0.165487,     2269.2000
    1172.26029,      173.7220,       10.7494,      0.175084,     2269.9000
    1172.56509,      172.0570,        9.8423,      0.166115,     2255.0200
    1172.86989,      171.4090,       10.4167,      0.157115,     2258.5900
    1173.17469,      171.5920,       10.4412,      0.152208,     2272.9800
    1173.47949,      170.9750,        8.5680,      0.154396,     2266.4100
    1173.78429,      170.5580,        7.6916,      0.162387,     2253.5200
    1174.08909,      176.4110,        9.4865,      0.164397,     2296.7300
    1174.39389,      179.3090,        9.4021,      0.156513,     2299.9900
    1174.69869,      175.7620,        8.0966,      0.149412,     2319.3700
    1175.00349,      171.2130,        8.8330,      0.143110,     2383.7900
    1175.30829,      171.3500,        9.0373,      0.139805,     2359.0400
    1175.61309,      174.2670,        9.4190,      0.141397,     2346.0200
    1175.91789,      175.2390,       10.7627,      0.140002,     2343.5000
    1176.22269,      175.5780,       10.9125,      0.136905,     2346.4000
    1176.52749,      176.2270,        9.9417,      0.134304,     2339.2100
    1176.83229,      173.2770,       11.1959,      0.141188,     2321.9300
    1177.13709,      169.6130,       11.5414,      0.139104,     2317.2100
    1177.44189,      165.9420,        9.1154,      0.146388,     2323.8900
    1177.74669,      163.2760,        7.8398,      0.154486,     2290.6600
    1178.05149,      166.8230,        7.4110,      0.154799,     2277.2200
    1178.35629,      170.3940,        6.6156,      0.152105,     2302.9600
    1178.66109,      169.7510,        6.2786,      0.146509,     2288.7200
    1178.96589,      167.8170,        5.8616,      0.145901,     2284.6100
    1179.27069,      165.3340,        5.5088,      0.146499,     2305.6600
    1179.57549,      167.5900,        5.4323,      0.140909,     2355.5200
    1179.88029,      166.9480,        5.3090,      0.138903,     2321.8600
    1180.18509,      164.9820,        5.1998,      0.140497,     2332.7800
    1180.48989,      166.0390,        5.1158,      0.144393,     2326.5100
    1180.79469,      166.1910,        5.1512,      0.142104,     2338.4800
    1181.09949,      164.7750,        5.6345,      0.138806,     2351.5800
    1181.40429,      163.3830,        5.7122,      0.135206,     2392.8300
    1181.70909,      159.7860,        5.8583,      0.152371,     2350.8700
    1182.01389,      158.3940,        5.8192,      0.176559,     2346.8100
    1182.31869,      150.8690,        5.3825,      0.171209,     2331.9200
    1182.62349,      152.0360,        5.6631,      0.165909,     2337.0900
    1182.92829,      152.4420,        6.0405,      0.161507,     2356.4700
    1183.23309,      149.5420,        5.9724,      0.162997,     2338.6300
    1183.53789,      148.1960,        6.3841,      0.178075,     2327.2200
    1183.84269,      149.7020,        7.0643,      0.185887,     2319.4100
    1184.14749,      154.7580,        6.9683,      0.192888,     2314.7100
    1184.45229,      159.1490,        6.7172,      0.198590,     2323.7800
    1184.75709,      159.9690,        6.7029,      0.174740,     2324.7000
    1185.06189,      159.3020,        6.7960,      0.177096,     2335.5800
    1185.36669,      157.9710,        6.8268,      0.169812,     2306.4500
    1185.67149,      156.8650,        6.9027,      0.146439,     2322.8700
    1185.97629,      156.5990,        6.6507,      0.133023,     2341.2700
    1186.28109,      157.9390,        6.4841,      0.123716,     2340.4000
    1186.58589,      156.0820,        7.5346,      0.118409,     2366.7600
    1186.89069,      154.0260,        8.7514,      0.129182,     2405.2400
    1187.19549,      156.0580,        9.4158,      0.155256,     2387.0300
    1187.50029,      156.4540,       10.3706,      0.166182,     2354.2600
    1187.80509,      154.9130,        8.9919,      0.162307,     2302.5900
    1188.10989,      153.9410,        6.2376,      0.154513,     2273.3500
    1188.41469,      153.6000,        5.3452,      0.153302,     2266.3100
    1188.71949,      156.6600,        6.3371,      0.156894,     2276.2800
    1189.02429,      158.2650,        7.5348,      0.147915,     2309.8400
    1189.32909,      163.2010,        7.0489,      0.140812,     2321.1800
    1189.63389,      160.9830,        8.0938,      0.145492,     2330.2800
    1189.93869,      156.4520,        9.5981,      0.151091,     2305.6400
    1190.24349,      155.6190,        9.5993,      0.148005,     2318.4800
    1190.54829,      154.9700,       11.8903,      0.140113,     2313.3100
    1190.85309,      155.1480,       13.9967,      0.142995,     2316.1000
    1191.15789,      155.3420,       11.9121,      0.140105,     2291.7400
    1191.46268,      156.2610,       11.5603,      0.140200,     2281.1200
    1191.76748,      157.5110,       13.8976,      0.143494,     2286.8900
    1192.07228,      159.1760,       12.7052,      0.144798,     2302.2700
    1192.37708,      161.8290,       11.2969,      0.153785,     2295.1100
    1192.68188,      168.3030,       11.6414,      0.151903,     2293.4000
    1192.98668,      173.3010,       11.8034,      0.158689,     2292.8000
    1193.29148,      170.1110,       11.7481,      0.166686,     2303.9800
    1193.59628,      166.6800,       13.3644,      0.166999,     2282.3400
    1193.90108,      164.6510,       13.4888,      0.165503,     2280.4000
    1194.20588,      164.2290,       12.6468,      0.156715,     2274.6100
    1194.51068,      166.0340,       15.5926,      0.149412,     2305.9500
    1194.81548,      165.9550,       15.2028,      0.157786,     2303.7000
    1195.12028,      162.4720,       12.8235,      0.166385,     2287.0300
    1195.42508,      159.9280,       11.5369,      0.171991,     2274.5200
    1195.72988,      158.4030,       10.8918,      0.165311,     2316.5300
