~Version
VERS  .             3.0                                 : CWLS LOG ASCII STANDARD - VERSION 3.0
WRAP  .             NO                                  : One line per depth step
DLM   .             COMMA                               : Delimiter character between data columns
#Delimiting character ( SPACE TAB OR COMMA ).

~Well
#MNEM.UNIT          DATA                                DESCRIPTION
#----- ----        -----------------                   -----------
STRT  .M                185.01353                       : FIRST INDEX VALUE
STOP  .M               1555.39373                       : LAST INDEX VALUE
STEP  .M                  0.30480                       : STEP OF INDEX
NULL  .             -999.25                             : NULL VALUE
COMP  .                                                 : COMPANY
WELL  .             IZAR                                : WELL
FLD   .                                                 : FIELD
LOC   .                                                 : LOCATION
SRVC  .                                                 : SERVICE COMPANY
CTRY  .                                                 : COUNTRY
PROV  .                                                 : PROVINCE
UWI   .                                                 : UNIQUE WELL ID
LIC   .                                                 : LICENSE NUMBER
STAT  .                                                 : STATE
CNTY  .                                                 : COUNTY
API   .                                                 : API NUMBER
DATE  .                                                 : LOG DATE
X     .             653634.4478536                      : X OR EAST-WEST COORDINATE
Y     .             8158756.916129                      : Y OR NORTH-SOUTH COORDINATE
HZCS  .                                                 : HORIZONTAL CO-ORDINATE SYSTEM
LATI  .             -16.64861111111                     : LATITUDE
LONG  .             154.4405555556                      : LONGITUDE
GDAT  .                                                 : GEODETIC DATUM

~DEVIATION_PARAMETER 
#MNEM.UNIT                    VALUE                        DESCRIPTION
#--------------- ---         ------------                 -----------------

~DEVIATION_DEFINITION 
#MNEM.UNIT                 LOG CODE                  CURVE DESCRIPTION
#----------- ----         ------------              -----------------
DEPTH       .M                                      :     {F}
AZIMUTH     .DEG                                    :     {F}
DEVIATION   .DEG                                    : 90-DIP    {F}

~DEVIATION_DATA | DEVIATION_DEFINITION
     1384.5000,        0.0000,        1.0000
     1547.0000,        0.0000,        1.0000

~TOPS_PARAMETER 
#MNEM.UNIT                    VALUE                        DESCRIPTION
#--------------- ---         ------------                 -----------------

~TOPS_DEFINITION 
#MNEM.UNIT                 LOG CODE                  CURVE DESCRIPTION
#----------- ----         ------------              -----------------
DEPTH       .M                                      :     {F}
TOPS        .                                       : Values changed using TEXT_EDIT    {S30}

~TOPS_DATA | TOPS_DEFINITION
        4.8000,Doyles Creek Subgroup         
      449.0000,Horseshoe Creek Subgroup      
      523.0000,Apple Tree Flat Subgroup      
      739.5000,Watts Sandstone               
      752.0000,Denman Fm                     
      857.5000,Mt Leonard Fm                 
     1009.5000,Althorpe Fm                   
     1056.0000,Malabar Fm                    
     1100.0000,Mt Ogilvie Fm                 
     1159.0000,Mt Thorley Fm                 
     1217.5000,Burnamwood Fm                 
     1309.5000,Archerfield Sandstone         
     1328.5000,Mulbring Siltstone            
     1401.0000,Muree Sandstone               
     1513.0000,Branxton Fm                   
     1542.0000,Greta Coal Measures           

~PARAMETER 
#MNEM.UNIT                    VALUE                        DESCRIPTION
#--------------- ---         ------------                 -----------------

~CURVE 
#MNEM.UNIT                 LOG CODE                  CURVE DESCRIPTION
#----------- ----         ------------              -----------------
DEPTH       .M                                      :     {F}
GR          .GAPI         -                         : Gamma ray corrected    {F}
LLD         .OHMM                                   : Resampled from old SR 0.4999997811314  anti-aliased    {F}
NPHI        .V/V          -                         :     {F}
RHOB        .K/M3         -                         : Evaluate log.    {F}

~ASCII | CURVE 
# ...
    1130.80751,      131.0070,        5.3470,      0.432896,     1941.3000
    1131.11231,      118.2230,        5.4093,      0.456762,     1941.1000
    1131.41711,      121.2690,        5.3229,      0.466884,     1941.3000
    1131.72191,      128.8420,        5.0939,      0.453222,     1941.5000
    1132.02671,      133.8910,        4.7852,      0.442218,     1941.7000
    1132.33151,      136.4610,        4.7738,      0.432316,     1942.3000
    1132.63631,      138.7620,        4.6554,      0.406941,     1942.5000
    1132.94111,      144.3770,        4.3648,      0.414887,     1941.9000
    1133.24591,      160.1750,        4.2568,      0.413303,     1941.3000
    1133.55071,      169.3330,        4.4678,      0.385245,     1941.1000
    1133.85551,      165.5260,        4.9435,      0.371123,     1941.4000
    1134.16031,      151.5080,        5.6877,      0.369902,     1942.8000
    1134.46511,      145.7020,        7.0623,      0.374892,     1943.3000
    1134.76991,      143.7370,        7.0790,      0.396066,     1944.0000
    1135.07471,      152.6540,        6.1785,      0.412374,     1944.2000
    1135.37951,      158.3790,        5.9138,      0.387939,     1944.0000
    1135.68431,      160.0300,        5.6616,      0.363739,     1943.0000
    1135.98911,      145.8230,        5.2482,      0.365397,     1942.0000
    1136.29391,      137.2830,        5.6486,      0.385667,     1941.7000
    1136.59871,      131.4290,        6.4706,      0.394486,     1941.5000
    1136.90351,      129.4230,        6.6085,      0.402986,     1940.8000
    1137.20831,      130.9090,        6.6525,      0.405596,     1940.6000
    1137.51311,      132.2320,        6.6521,      0.401706,     1940.5000
    1137.81791,      132.3770,        6.8398,      0.399004,     1940.7000
    1138.12271,      132.5090,        7.5834,      0.396504,     1941.3000
    1138.42751,      133.8070,        6.6646,      0.391808,     1941.4000
    1138.73231,      141.3660,        6.1891,      0.357056,     1941.9000
    1139.03711,      158.6000,        6.8508,      0.250672,     1942.7000
    1139.34191,      171.7630,        6.4376,      0.132092,     2027.0600
    1139.64671,      178.3940,        6.3504,      0.122715,     2256.2300
    1139.95151,      179.5380,        6.5486,      0.148059,     2221.2600
    1140.25631,      172.5750,        6.6264,      0.173758,     2227.4900
    1140.56111,      172.6860,        7.3114,      0.198061,     2194.5500
    1140.86591,      175.1880,        7.1293,      0.197401,     2167.5400
    1141.17071,      175.4120,        6.8754,      0.187616,     2175.1900
    1141.47551,      179.2980,        6.6685,      0.178814,     2141.6500
    1141.78031,      184.2580,        7.3238,      0.175605,     2175.8400
    1142.08511,      185.4610,        8.3698,      0.170908,     2219.1300
    1142.38991,      180.0780,        7.7440,      0.180385,     2270.7200
    1142.69471,      175.0520,        7.9447,      0.195775,     2193.7300
    1142.99951,      173.8300,        8.4527,      0.189410,     2183.5200
    1143.30431,      171.6070,        7.6400,      0.175822,     2230.9200
    1143.60911,      164.9760,        7.5025,      0.174103,     2233.8000
    1143.91391,      165.5310,        7.6391,      0.185681,     2181.0900
    1144.21871,      166.7400,        7.5172,      0.205069,     2080.6600
    1144.52351,      161.4340,        7.8739,      0.222472,     1973.0700
    1144.82831,      155.6220,        8.4731,      0.251153,     1943.3500
    1145.13311,      155.4600,       11.5880,      0.292034,     1944.3000
    1145.43791,      157.7620,       12.7921,      0.256158,     1944.7000
    1145.74270,      165.1530,        9.9793,      0.183219,     2112.6300
    1146.04750,      168.5310,        8.6926,      0.160637,     2223.7200
    1146.35230,      166.4950,        7.9810,      0.144926,     2264.1300
    1146.65710,      168.1930,        7.4488,      0.142105,     2304.4300
    1146.96190,      168.5070,        6.9349,      0.144995,     2323.3700
    1147.26670,      168.3190,        6.3118,      0.148794,     2306.4300
    1147.57150,      166.5860,        6.1235,      0.154291,     2286.8300
    1147.87630,      164.0780,        6.8534,      0.160091,     2263.0400
    1148.18110,      165.8810,        7.8850,      0.167188,     2232.6500
    1148.48590,      165.4140,        9.2223,      0.174788,     2201.4500
    1148.79070,      169.2330,        8.7900,      0.150540,     2241.2400
    1149.09550,      171.1150,        7.5880,      0.136922,     2291.3200
    1149.40030,      172.9610,        7.6600,      0.137000,     2287.2100
    1149.70510,      178.8250,        8.0498,      0.117332,     2287.9000
    1150.00990,      178.6830,        9.6488,      0.106018,     2306.7700
    1150.31470,      175.3190,        9.8765,      0.102606,     2302.3100
    1150.61950,      175.5590,        7.8507,      0.109589,     2329.8500
    1150.92430,      177.5280,        7.7251,      0.105007,     2329.3000
    1151.22910,      178.0140,        8.0873,      0.100807,     2314.0200
    1151.53390,      174.5290,        8.5083,      0.108188,     2314.7000
    1151.83870,      172.5630,        8.3375,      0.122377,     2326.4800
    1152.14350,      174.8070,        7.6748,      0.124197,     2323.9000
    1152.44830,      175.0890,        7.4090,      0.118609,     2323.6000
    1152.75310,      175.3580,        9.5414,      0.114107,     2303.5300
    1153.05790,      180.2740,       12.8405,      0.121588,     2270.3500
    1153.36270,      182.3060,       11.7429,      0.118904,     2264.5100
    1153.66750,      182.6330,        9.5727,      0.117402,     2280.4700
    1153.97230,      179.9630,        9.0568,      0.131577,     2302.1600
    1154.27710,      176.4790,        8.3713,      0.139687,     2316.8800
    1154.58190,      177.3950,        7.4461,      0.141996,     2289.1500
    1154.88670,      176.8470,        8.2449,      0.143298,     2279.5200
    1155.19150,      174.7240,        8.0197,      0.161670,     2239.6700
    1155.49630,      173.9400,        5.9176,      0.194147,     2176.0000
    1155.80110,      176.2080,        6.0943,      0.211172,     2126.1800
    1156.10590,      175.8210,        8.5330,      0.201616,     2121.1100
    1156.41070,      176.2560,        8.8339,      0.183929,     2172.3200
    1156.71550,      174.5850,        5.7448,      0.180206,     2186.3800
    1157.02030,      173.9700,        4.8556,      0.168220,     2193.6900
    1157.32510,      175.2740,        5.6126,      0.156120,     2241.4200
    1157.62990,      173.8930,        6.7944,      0.165584,     2253.7800
    1157.93470,      172.5770,        7.6917,      0.164801,     2213.5700
    1158.23950,      173.6040,        7.6589,      0.172687,     2206.2100
    1158.54430,      172.2030,        8.0764,      0.157525,     2154.6800
    1158.84910,      166.4910,        7.7505,      0.139530,     2277.8000
    1159.15390,      164.1240,        7.4822,      0.128917,     2362.7600
    1159.45870,      166.6290,        7.9058,      0.126005,     2347.5300
    1159.76350,      170.0360,        7.9046,      0.128596,     2342.5100
    1160.06830,      170.3360,        7.9010,      0.142976,     2327.4200
    1160.37310,      167.4320,        7.3247,      0.153383,     2292.3600
    1160.67790,      166.5680,        8.3394,      0.145513,     2268.5400
    1160.98270,      167.3510,        9.8476,      0.124435,     2289.9600
    1161.28750,      169.3760,        9.3372,      0.114816,     2325.8400
    1161.59230,      168.3360,        9.0953,      0.111505,     2302.7400
    1161.89710,      166.3930,       10.6571,      0.115394,     2273.3500
    1162.20190,      165.7070,       11.1108,      0.120991,     2277.8900
    1162.50670,      164.7210,        9.7260,      0.126591,     2293.5700
    1162.81150,      162.6450,        9.1227,      0.126800,     2306.6800
    1163.11630,      160.7730,       10.0211,      0.124903,     2312.5900
