~Version
VERS  .             3.0                                 : CWLS LOG ASCII STANDARD - VERSION 3.0
WRAP  .             NO                                  : One line per depth step
DLM   .             COMMA                               : Delimiter character between data columns
#Delimiting character ( SPACE TAB OR COMMA ).

~Well
#MNEM.UNIT          DATA                                DESCRIPTION
#----- ----        -----------------                   -----------
STRT  .M                185.01353                       : FIRST INDEX VALUE
STOP  .M               1555.39373                       : LAST INDEX VALUE
STEP  .M                  0.30480                       : STEP OF INDEX
NULL  .             -999.25                             : NULL VALUE
COMP  .                                                 : COMPANY
WELL  .             IZAR                                : WELL
FLD   .                                                 : FIELD
LOC   .                                                 : LOCATION
SRVC  .                                                 : SERVICE COMPANY
CTRY  .                                                 : COUNTRY
PROV  .                                                 : PROVINCE
UWI   .                                                 : UNIQUE WELL ID
LIC   .                                                 : LICENSE NUMBER
STAT  .                                                 : STATE
CNTY  .                                                 : COUNTY
API   .                                                 : API NUMBER
DATE  .                                                 : LOG DATE
X     .             653634.4478536                      : X OR EAST-WEST COORDINATE
Y     .             8158756.916129                      : Y OR NORTH-SOUTH COORDINATE
HZCS  .                                                 : HORIZONTAL CO-ORDINATE SYSTEM
LATI  .             -16.64861111111                     : LATITUDE
LONG  .             154.4405555556                      : LONGITUDE
GDAT  .                                                 : GEODETIC DATUM

~DEVIATION_PARAMETER 
#MNEM.UNIT                    VALUE                        DESCRIPTION
#--------------- ---         ------------                 -----------------

~DEVIATION_DEFINITION 
#MNEM.UNIT                 LOG CODE                  CURVE DESCRIPTION
#----------- ----         ------------              -----------------
DEPTH       .M                                      :     {F}
AZIMUTH     .DEG                                    :     {F}
DEVIATION   .DEG                                    : 90-DIP    {F}

~DEVIATION_DATA | DEVIATION_DEFINITION
     1384.5000,        0.0000,        1.0000
     1547.0000,        0.0000,        1.0000

~TOPS_PARAMETER 
#MNEM.UNIT                    VALUE                        DESCRIPTION
#--------------- ---         ------------                 -----------------

~TOPS_DEFINITION 
#MNEM.UNIT                 LOG CODE                  CURVE DESCRIPTION
#----------- ----         ------------              -----------------
DEPTH       .M                                      :     {F}
TOPS        .                                       : Values changed using TEXT_EDIT    {S30}

~TOPS_DATA | TOPS_DEFINITION
        4.8000,Doyles Creek Subgroup         
      449.0000,Horseshoe Creek Subgroup      
      523.0000,Apple Tree Flat Subgroup      
      739.5000,Watts Sandstone               
      752.0000,Denman Fm                     
      857.5000,Mt Leonard Fm                 
     1009.5000,Althorpe Fm                   
     1056.0000,Malabar Fm                    
     1100.0000,Mt Ogilvie Fm                 
     1159.0000,Mt Thorley Fm                 
     1217.5000,Burnamwood Fm                 
     1309.5000,Archerfield Sandstone         
     1328.5000,Mulbring Siltstone            
     1401.0000,Muree Sandstone               
     1513.0000,Branxton Fm                   
     1542.0000,Greta Coal Measures           

~PARAMETER 
#MNEM.UNIT                    VALUE                        DESCRIPTION
#--------------- ---         ------------                 -----------------

~CURVE 
#MNEM.UNIT                 LOG CODE                  CURVE DESCRIPTION
#----------- ----         ------------              -----------------
DEPTH       .M                                      :     {F}
GR          .GAPI         -                         : Gamma ray corrected    {F}
LLD         .OHMM                                   : Resampled from old SR 0.4999997811314  anti-aliased    {F}
NPHI        .V/V          -                         :     {F}
RHOB        .K/M3         -                         : Evaluate log.    {F}

~ASCII | CURVE 
# ...
    1098.19393,      177.3260,        4.7307,      0.295214,     1940.5000
    1098.49873,      175.8800,        5.3708,      0.289109,     1940.5000
    1098.80353,      172.5810,        5.9989,      0.310367,     1940.5000
    1099.10833,      170.5420,        5.8226,      0.334962,     1940.5000
    1099.41313,      171.9960,        5.8625,      0.346582,     1940.5000
    1099.71793,      174.4930,        5.8732,      0.336316,     1940.5000
    1100.02272,      172.8190,        5.9129,      0.328312,     1940.5000
    1100.32752,      174.7610,        6.4116,      0.331495,     1940.5000
    1100.63232,      176.9150,        6.2825,      0.334296,     1940.5000
    1100.93712,      170.3550,        5.6260,      0.324515,     1940.5000
    1101.24192,      171.6600,        5.5834,      0.326996,     1940.5000
    1101.54672,      169.7520,        5.6882,      0.339780,     1940.5000
    1101.85152,      169.3050,        7.0653,      0.327419,     1940.5000
    1102.15632,      172.5790,        9.7933,      0.323107,     1940.5000
    1102.46112,      173.8050,        8.7850,      0.336779,     1940.5000
    1102.76592,      172.8740,        7.0890,      0.332706,     1940.5000
    1103.07072,      173.6360,        6.8560,      0.326310,     1940.5000
    1103.37552,      176.0680,        7.0200,      0.326100,     1940.5000
    1103.68032,      178.2120,        7.2318,      0.315616,     1940.5000
    1103.98512,      177.0690,        7.0962,      0.297928,     1940.5000
    1104.28992,      175.4830,        6.9330,      0.281626,     1940.5000
    1104.59472,      176.4210,        7.3615,      0.279204,     1940.5000
    1104.89952,      175.8440,        8.1284,      0.283992,     1940.5000
    1105.20432,      175.8440,        8.2985,      0.287794,     1940.5000
    1105.50912,      178.0970,        7.6903,      0.261242,     1940.5000
    1105.81392,      181.4030,        7.4116,      0.257106,     1994.4200
    1106.11872,      181.9930,        7.9212,      0.262991,     1985.6100
    1106.42352,      179.8170,        8.9335,      0.273184,     1985.8000
    1106.72832,      177.4390,        9.5355,      0.269306,     1963.0400
    1107.03312,      185.9520,        9.9153,      0.266704,     1941.0300
    1107.33792,      196.9790,        9.7258,      0.282675,     1940.5000
    1107.64272,      222.0140,        8.9244,      0.307561,     1940.5000
    1107.94752,      237.4050,        9.0926,      0.326970,     1940.5000
    1108.25232,      255.9520,        9.5915,      0.344173,     1941.3000
    1108.55712,      186.6950,       10.0219,      0.362471,     1942.6000
    1108.86192,      169.8170,       10.3286,      0.366993,     1943.1000
    1109.16672,      163.8480,       10.4736,      0.371892,     1944.5000
    1109.47152,      158.0910,       10.1626,      0.377092,     1944.1000
    1109.77632,      151.4070,        9.9095,      0.388083,     1942.9000
    1110.08112,      152.0620,       10.4032,      0.396287,     1941.7000
    1110.38592,      154.5980,       10.9178,      0.407782,     1941.6000
    1110.69072,      156.1300,       10.1384,      0.435956,     1941.4000
    1110.99552,      150.0300,        9.4145,      0.440393,     1941.2000
    1111.30032,      147.4420,        9.6137,      0.371109,     1940.6000
    1111.60512,      151.3010,        9.1821,      0.356423,     1940.5000
    1111.90992,      146.8060,        8.5114,      0.381161,     1940.5000
    1112.21472,      136.3220,        8.4522,      0.420538,     1940.5000
    1112.51952,      129.6340,        8.4691,      0.456443,     1940.5000
    1112.82432,      129.7520,        8.2363,      0.448712,     1941.9000
    1113.12912,      133.1260,        7.6518,      0.441312,     1942.0000
    1113.43392,      135.8360,        8.9916,      0.433213,     1942.0000
    1113.73872,      139.8990,       12.2998,      0.420919,     1942.2000
    1114.04352,      142.3330,       13.6771,      0.414710,     1942.3000
    1114.34832,      142.5920,       13.9002,      0.403218,     1942.1000
    1114.65312,      142.1390,       14.6853,      0.394414,     1941.9000
    1114.95792,      139.9390,       16.1046,      0.389208,     1941.2000
    1115.26272,      133.6060,       14.3216,      0.377818,     1940.6000
    1115.56752,      121.6650,        7.8553,      0.368415,     1940.8000
    1115.87232,      123.2750,        5.2861,      0.365604,     1940.5000
    1116.17712,      125.2350,        5.3331,      0.384071,     1940.5000
    1116.48192,      126.6900,        5.4977,      0.397579,     1940.5000
    1116.78672,      131.5840,        5.1164,      0.397201,     1940.5000
    1117.09152,      142.2110,        5.1507,      0.383721,     1940.5000
    1117.39632,      151.9200,        6.4114,      0.380605,     1940.5000
    1117.70112,      157.2000,        6.5786,      0.368419,     1940.9000
    1118.00592,      157.1830,        5.4214,      0.357318,     1942.1000
    1118.31072,      171.8330,        4.9308,      0.370579,     1943.0000
    1118.61552,      187.8420,        4.7730,      0.371898,     1943.3000
    1118.92032,      193.6670,        4.8304,      0.377591,     1943.4000
    1119.22512,      178.8830,        4.7767,      0.395571,     1942.7000
    1119.52992,      164.1200,        4.8552,      0.382121,     1942.1000
    1119.83472,      145.5020,        5.1314,      0.385694,     1942.3000
    1120.13952,      136.2850,        5.3849,      0.406467,     1942.6000
    1120.44432,      137.0010,        5.7036,      0.419979,     1942.8000
    1120.74912,      136.1810,        5.8909,      0.403926,     1943.3000
    1121.05392,      131.3070,        5.6508,      0.392718,     1943.5000
    1121.35872,      128.0740,        5.7142,      0.423751,     1943.3000
    1121.66352,      122.9430,        6.0528,      0.451057,     1943.9000
    1121.96832,      118.2370,        6.0968,      0.458089,     1943.4000
    1122.27312,      121.5660,        5.9172,      0.429545,     1943.0000
    1122.57792,      131.9200,        5.7814,      0.397551,     1943.3000
    1122.88271,      149.7510,        5.4066,      0.360359,     1942.7000
    1123.18751,      173.9240,        4.9659,      0.347620,     1942.4000
    1123.49231,      184.9970,        5.1175,      0.358083,     1942.1000
    1123.79711,      163.7570,        5.9303,      0.384458,     1942.4000
    1124.10191,      127.6900,        6.1941,      0.389991,     1942.6000
    1124.40671,      122.6550,        5.9410,      0.366537,     1942.8000
    1124.71151,      121.8990,        5.7795,      0.359411,     1942.5000
    1125.01631,      121.2000,        5.7006,      0.394644,     1942.7000
    1125.32111,      127.7510,        5.7271,      0.378226,     1942.9000
    1125.62591,      143.4370,        5.7925,      0.364023,     1942.8000
    1125.93071,      163.3070,        5.4700,      0.364699,     1942.8000
    1126.23551,      193.2720,        5.6128,      0.384169,     1942.2000
    1126.54031,      208.9640,        5.7983,      0.363333,     1941.6000
    1126.84511,      183.9050,        5.1797,      0.362601,     1941.4000
    1127.14991,      141.3510,        5.2477,      0.383467,     1941.6000
    1127.45471,      128.5510,        5.9254,      0.382901,     1941.4000
    1127.75951,      128.7320,        6.3925,      0.376810,     1943.0000
    1128.06431,      133.4380,        6.8988,      0.370410,     1944.8000
    1128.36911,      145.6010,        6.8207,      0.394162,     1944.6000
    1128.67391,      153.4040,        6.0103,      0.385614,     1944.4000
    1128.97871,      148.8610,        5.6493,      0.421143,     1944.2000
    1129.28351,      126.2170,        5.4960,      0.447857,     1943.9000
    1129.58831,      122.2320,        5.2358,      0.455088,     1943.4000
    1129.89311,      125.3070,        4.7748,      0.407377,     1943.6000
    1130.19791,      132.6290,        4.8762,      0.370659,     1942.9000
    1130.50271,      136.6010,        5.2014,      0.367904,     1942.1000
