~Version
VERS  .             3.0                                 : CWLS LOG ASCII STANDARD - VERSION 3.0
WRAP  .             NO                                  : One line per depth step
DLM   .             COMMA                               : Delimiter character between data columns
#Delimiting character ( SPACE TAB OR COMMA ).

~Well
#MNEM.UNIT          DATA                                DESCRIPTION
#----- ----        -----------------                   -----------
STRT  .M                185.01353                       : FIRST INDEX VALUE
STOP  .M               1555.39373                       : LAST INDEX VALUE
STEP  .M                  0.30480                       : STEP OF INDEX
NULL  .             -999.25                             : NULL VALUE
COMP  .                                                 : COMPANY
WELL  .             IZAR                                : WELL
FLD   .                                                 : FIELD
LOC   .                                                 : LOCATION
SRVC  .                                                 : SERVICE COMPANY
CTRY  .                                                 : COUNTRY
PROV  .                                                 : PROVINCE
UWI   .                                                 : UNIQUE WELL ID
LIC   .                                                 : LICENSE NUMBER
STAT  .                                                 : STATE
CNTY  .                                                 : COUNTY
API   .                                                 : API NUMBER
DATE  .                                                 : LOG DATE
X     .             653634.4478536                      : X OR EAST-WEST COORDINATE
Y     .             8158756.916129                      : Y OR NORTH-SOUTH COORDINATE
HZCS  .                                                 : HORIZONTAL CO-ORDINATE SYSTEM
LATI  .             -16.64861111111                     : LATITUDE
LONG  .             154.4405555556                      : LONGITUDE
GDAT  .                                                 : GEODETIC DATUM

~DEVIATION_PARAMETER 
#MNEM.UNIT                    VALUE                        DESCRIPTION
#--------------- ---         ------------                 -----------------

~DEVIATION_DEFINITION 
#MNEM.UNIT                 LOG CODE                  CURVE DESCRIPTION
#----------- ----         ------------              -----------------
DEPTH       .M                                      :     {F}
AZIMUTH     .DEG                                    :     {F}
DEVIATION   .DEG                                    : 90-DIP    {F}

~DEVIATION_DATA | DEVIATION_DEFINITION
     1384.5000,        0.0000,        1.0000
     1547.0000,        0.0000,        1.0000

~TOPS_PARAMETER 
#MNEM.UNIT                    VALUE                        DESCRIPTION
#--------------- ---         ------------                 -----------------

~TOPS_DEFINITION 
#MNEM.UNIT                 LOG CODE                  CURVE DESCRIPTION
#----------- ----         ------------              -----------------
DEPTH       .M                                      :     {F}
TOPS        .                                       : Values changed using TEXT_EDIT    {S30}

~TOPS_DATA | TOPS_DEFINITION
        4.8000,Doyles Creek Subgroup         
      449.0000,Horseshoe Creek Subgroup      
      523.0000,Apple Tree Flat Subgroup      
      739.5000,Watts Sandstone               
      752.0000,Denman Fm                     
      857.5000,Mt Leonard Fm                 
     1009.5000,Althorpe Fm                   
     1056.0000,Malabar Fm                    
     1100.0000,Mt Ogilvie Fm                 
     1159.0000,Mt Thorley Fm                 
     1217.5000,Burnamwood Fm                 
     1309.5000,Archerfield Sandstone         
     1328.5000,Mulbring Siltstone            
     1401.0000,Muree Sandstone               
     1513.0000,Branxton Fm                   
     1542.0000,Greta Coal Measures           

~PARAMETER 
#MNEM.UNIT                    VALUE                        DESCRIPTION
#--------------- ---         ------------                 -----------------

~CURVE 
#MNEM.UNIT                 LOG CODE                  CURVE DESCRIPTION
#----------- ----         ------------              -----------------
DEPTH       .M                                      :     {F}
GR          .GAPI         -                         : Gamma ray corrected    {F}
LLD         .OHMM                                   : Resampled from old SR 0.4999997811314  anti-aliased    {F}
NPHI        .V/V          -                         :     {F}
RHOB        .K/M3         -                         : Evaluate log.    {F}

~ASCII | CURVE 
# ...
    1065.58034,      156.8620,        2.8582,      0.325914,     1940.5000
    1065.88514,      153.7690,        2.9244,      0.345171,     1940.5000
    1066.18994,      151.1650,        2.7667,      0.345999,     1940.5000
    1066.49474,      155.3730,        2.6055,      0.338012,     1940.5000
    1066.79954,      159.1570,        2.5292,      0.354076,     1940.5000
    1067.10434,      154.0910,        2.8054,      0.368279,     1940.5000
    1067.40914,      146.3590,        3.0892,      0.385574,     1940.5000
    1067.71394,      144.1070,        2.9226,      0.404372,     1940.5000
    1068.01874,      142.9060,        2.6538,      0.390421,     1940.5000
    1068.32354,      146.0950,        2.4956,      0.368833,     1940.5000
    1068.62834,      149.9650,        2.6502,      0.350827,     1940.5000
    1068.93314,      154.0130,        2.8260,      0.328434,     1940.5000
    1069.23794,      154.8950,        2.7167,      0.346672,     1940.5000
    1069.54274,      152.1340,        2.5702,      0.333520,     1940.5000
    1069.84754,      145.4490,        2.5176,      0.327309,     1940.5000
    1070.15234,      140.6910,        2.4492,      0.327999,     1940.5000
    1070.45714,      140.4980,        2.6735,      0.307032,     1940.5000
    1070.76194,      141.8810,        2.8458,      0.304604,     2012.1900
    1071.06674,      148.3940,        2.6316,      0.313686,     2022.9800
    1071.37154,      152.4260,        2.4721,      0.329975,     1967.6800
    1071.67634,      155.5180,        2.4153,      0.330499,     1970.2000
    1071.98114,      161.0060,        2.4258,      0.319417,     1940.5500
    1072.28594,      164.8740,        2.4599,      0.324592,     1940.5000
    1072.59074,      168.1730,        2.6059,      0.325698,     1940.5000
    1072.89554,      171.8810,        2.6415,      0.311522,     1940.5000
    1073.20034,      174.9500,        2.6046,      0.299818,     1940.5000
    1073.50514,      172.2120,        2.5813,      0.318172,     1940.5000
    1073.80994,      171.3600,        2.5591,      0.331979,     1940.5000
    1074.11474,      175.4080,        2.5600,      0.348974,     1940.5000
    1074.41954,      181.4910,        2.7367,      0.334921,     1940.5000
    1074.72434,      184.7690,        2.9046,      0.338694,     1940.5000
    1075.02914,      179.2750,        2.9649,      0.352679,     1940.5000
    1075.33394,      177.4930,        3.0407,      0.367178,     1940.5000
    1075.63874,      176.7150,        3.1328,      0.362108,     1940.5000
    1075.94354,      178.5960,        3.1547,      0.346424,     1940.5000
    1076.24834,      180.3970,        3.1402,      0.336315,     1940.5000
    1076.55314,      174.9930,        3.0562,      0.349280,     1940.5000
    1076.85794,      170.4360,        3.0587,      0.355491,     1940.5000
    1077.16273,      166.2400,        3.4541,      0.368380,     1940.5000
    1077.46753,      163.8250,        3.7325,      0.368700,     1940.5000
    1077.77233,      167.3930,        3.4590,      0.369698,     1940.5000
    1078.07713,      165.7930,        3.2747,      0.373394,     1940.5000
    1078.38193,      174.4920,        3.0998,      0.355727,     1940.5000
    1078.68673,      174.7320,        2.9247,      0.340623,     1940.5000
    1078.99153,      174.2120,        2.8768,      0.327220,     1940.5000
    1079.29633,      173.7580,        2.9785,      0.331493,     1940.5000
    1079.60113,      176.6150,        3.1261,      0.325909,     1940.5000
    1079.90593,      180.3210,        3.2367,      0.334287,     1940.5000
    1080.21073,      177.3440,        3.3275,      0.351174,     1940.5000
    1080.51553,      170.1220,        3.2742,      0.351000,     1940.5000
    1080.82033,      165.3610,        3.0834,      0.341714,     1940.5000
    1081.12513,      170.8620,        3.2201,      0.350387,     1940.5000
    1081.42993,      175.8160,        3.5473,      0.350700,     1940.5000
    1081.73473,      176.3670,        3.6222,      0.326138,     1940.5000
    1082.03953,      175.0920,        3.6147,      0.316615,     1940.5000
    1082.34433,      176.3060,        3.5327,      0.309311,     1940.5000
    1082.64913,      179.8640,        3.4991,      0.296719,     1940.5000
    1082.95393,      175.2520,        3.7142,      0.299795,     1940.5000
    1083.25873,      167.0970,        3.9078,      0.308387,     1940.5000
    1083.56353,      159.4850,        3.8909,      0.328769,     1940.5000
    1083.86833,      164.5920,        3.8913,      0.337786,     1940.5000
    1084.17313,      169.6010,        3.8552,      0.328215,     1940.5000
    1084.47793,      168.9790,        3.8547,      0.329798,     1940.5000
    1084.78273,      173.2670,        3.9711,      0.338387,     1940.5000
    1085.08753,      174.6230,        4.0080,      0.334506,     1940.5000
    1085.39233,      174.9490,        3.9347,      0.322219,     1940.5000
    1085.69713,      175.1000,        3.9803,      0.317607,     1940.5000
    1086.00193,      167.8640,        4.2655,      0.298430,     1940.5000
    1086.30673,      166.7060,        4.3855,      0.301096,     1940.5000
    1086.61153,      169.7000,        4.4061,      0.292513,     1940.5000
    1086.91633,      167.2790,        4.2565,      0.301187,     1940.5000
    1087.22113,      166.9910,        4.1691,      0.293412,     1940.5000
    1087.52593,      174.4100,        4.3054,      0.290305,     1940.5000
    1087.83073,      180.4340,        4.3957,      0.293196,     1940.5000
    1088.13553,      181.5900,        4.3952,      0.307578,     1940.5000
    1088.44033,      182.0440,        4.2551,      0.328667,     1940.5000
    1088.74513,      180.7590,        4.3240,      0.358055,     1940.5000
    1089.04993,      180.5400,        4.5709,      0.376272,     1940.5000
    1089.35473,      179.3280,        4.6670,      0.375701,     1940.5000
    1089.65953,      174.8040,        4.7752,      0.351338,     1940.5000
    1089.96433,      169.7840,        5.2494,      0.332729,     1940.5000
    1090.26913,      165.2930,        6.2682,      0.358061,     1940.5000
    1090.57393,      163.2140,        5.9446,      0.397140,     1940.5000
    1090.87873,      166.0910,        4.9767,      0.325112,     1940.5000
    1091.18353,      167.2080,        4.7413,      0.310922,     1940.5000
    1091.48833,      165.0650,        4.7087,      0.335063,     1940.5000
    1091.79313,      163.1920,        4.5604,      0.331106,     1940.5000
    1092.09793,      162.0870,        4.4986,      0.333396,     1940.5000
    1092.40273,      163.6810,        4.6780,      0.349675,     1940.5000
    1092.70753,      169.5010,        4.7980,      0.339116,     1940.5000
    1093.01233,      174.0860,        4.7970,      0.333209,     1940.5000
    1093.31713,      177.5490,        4.6765,      0.346180,     1940.5000
    1093.62193,      179.2940,        4.6336,      0.331822,     1940.5000
    1093.92673,      179.0900,        4.6988,      0.337691,     1940.5000
    1094.23153,      182.7340,        4.7316,      0.334405,     1940.5000
    1094.53633,      181.1220,        4.9654,      0.313233,     1940.5000
    1094.84113,      177.0410,        5.2956,      0.321787,     1940.5000
    1095.14593,      169.7480,        5.7543,      0.349757,     1940.5000
    1095.45073,      164.2130,        6.1966,      0.346705,     1940.5000
    1095.75553,      167.7620,        6.1983,      0.337714,     1940.5000
    1096.06033,      170.2320,        6.9846,      0.345588,     1940.5000
    1096.36513,      169.5910,        8.4150,      0.333619,     1940.5000
    1096.66993,      172.9980,        7.1613,      0.320121,     1940.5000
    1096.97473,      177.3600,        5.5460,      0.321298,     1940.5000
    1097.27953,      179.9240,        5.0465,      0.330486,     1940.5000
    1097.58433,      181.0520,        4.5905,      0.321015,     1940.5000
    1097.88913,      179.5310,        4.6122,      0.304426,     1940.5000
