~Version
VERS  .             3.0                                 : CWLS LOG ASCII STANDARD - VERSION 3.0
WRAP  .             NO                                  : One line per depth step
DLM   .             COMMA                               : Delimiter character between data columns
#Delimiting character ( SPACE TAB OR COMMA ).

~Well
#MNEM.UNIT          DATA                                DESCRIPTION
#----- ----        -----------------                   -----------
STRT  .M                185.01353                       : FIRST INDEX VALUE
STOP  .M               1555.39373                       : LAST INDEX VALUE
STEP  .M                  0.30480                       : STEP OF INDEX
NULL  .             -999.25                             : NULL VALUE
COMP  .                                                 : COMPANY
WELL  .             IZAR                                : WELL
FLD   .                                                 : FIELD
LOC   .                                                 : LOCATION
SRVC  .                                                 : SERVICE COMPANY
CTRY  .                                                 : COUNTRY
PROV  .                                                 : PROVINCE
UWI   .                                                 : UNIQUE WELL ID
LIC   .                                                 : LICENSE NUMBER
STAT  .                                                 : STATE
CNTY  .                                                 : COUNTY
API   .                                                 : API NUMBER
DATE  .                                                 : LOG DATE
X     .             653634.4478536                      : X OR EAST-WEST COORDINATE
Y     .             8158756.916129                      : Y OR NORTH-SOUTH COORDINATE
HZCS  .                                                 : HORIZONTAL CO-ORDINATE SYSTEM
LATI  .             -16.64861111111                     : LATITUDE
LONG  .             154.4405555556                      : LONGITUDE
GDAT  .                                                 : GEODETIC DATUM

~DEVIATION_PARAMETER 
#MNEM.UNIT                    VALUE                        DESCRIPTION
#--------------- ---         ------------                 -----------------

~DEVIATION_DEFINITION 
#MNEM.UNIT                 LOG CODE                  CURVE DESCRIPTION
#----------- ----         ------------              -----------------
DEPTH       .M                                      :     {F}
AZIMUTH     .DEG                                    :     {F}
DEVIATION   .DEG                                    : 90-DIP    {F}

~DEVIATION_DATA | DEVIATION_DEFINITION
     1384.5000,        0.0000,        1.0000
     1547.0000,        0.0000,        1.0000

~TOPS_PARAMETER 
#MNEM.UNIT                    VALUE                        DESCRIPTION
#--------------- ---         ------------                 -----------------

~TOPS_DEFINITION 
#MNEM.UNIT                 LOG CODE                  CURVE DESCRIPTION
#----------- ----         ------------              -----------------
DEPTH       .M                                      :     {F}
TOPS        .                                       : Values changed using TEXT_EDIT    {S30}

~TOPS_DATA | TOPS_DEFINITION
        4.8000,Doyles Creek Subgroup         
      449.0000,Horseshoe Creek Subgroup      
      523.0000,Apple Tree Flat Subgroup      
      739.5000,Watts Sandstone               
      752.0000,Denman Fm                     
      857.5000,Mt Leonard Fm                 
     1009.5000,Althorpe Fm                   
     1056.0000,Malabar Fm                    
     1100.0000,Mt Ogilvie Fm                 
     1159.0000,Mt Thorley Fm                 
     1217.5000,Burnamwood Fm                 
     1309.5000,Archerfield Sandstone         
     1328.5000,Mulbring Siltstone            
     1401.0000,Muree Sandstone               
     1513.0000,Branxton Fm                   
     1542.0000,Greta Coal Measures           

~PARAMETER 
#MNEM.UNIT                    VALUE                        DESCRIPTION
#--------------- ---         ------------                 -----------------

~CURVE 
#MNEM.UNIT                 LOG CODE                  CURVE DESCRIPTION
#----------- ----         ------------              -----------------
DEPTH       .M                                      :     {F}
GR          .GAPI         -                         : Gamma ray corrected    {F}
LLD         .OHMM                                   : Resampled from old SR 0.4999997811314  anti-aliased    {F}
NPHI        .V/V          -                         :     {F}
RHOB        .K/M3         -                         : Evaluate log.    {F}

~ASCII | CURVE 
# ...
     967.73958,      151.5050,        1.8029,      0.335818,     1940.5000
     968.04438,      151.3690,        1.9372,      0.340893,     1940.5000
     968.34918,      152.8710,        1.9068,      0.354581,     1940.5000
     968.65398,      150.5400,        1.9324,      0.370378,     1940.5000
     968.95878,      151.2580,        1.9404,      0.379587,     1940.5000
     969.26358,      152.2610,        1.8699,      0.364321,     1940.5000
     969.56838,      151.4280,        1.7819,      0.360905,     1940.5000
     969.87318,      148.6030,        1.8148,      0.361100,     1940.5000
     970.17798,      146.2360,        1.8353,      0.371885,     1940.5000
     970.48278,      146.7450,        1.7768,      0.366108,     1940.5000
     970.78758,      146.7000,        1.5983,      0.355115,     1940.5000
     971.09238,      143.5760,        1.6060,      0.355300,     1940.5000
     971.39718,      139.1030,        1.6980,      0.355200,     1940.5000
     971.70198,      135.6480,        1.6948,      0.345014,     1940.5000
     972.00678,      136.3130,        1.6374,      0.366470,     1940.5000
     972.31158,      137.8650,        1.7305,      0.374988,     1940.5000
     972.61638,      139.5030,        1.7588,      0.358922,     1940.5000
     972.92118,      141.7980,        1.6832,      0.356004,     1940.5000
     973.22598,      148.0410,        1.6669,      0.367384,     1940.5000
     973.53078,      151.5610,        1.7249,      0.369198,     1940.5000
     973.83558,      153.4300,        1.7450,      0.357516,     1940.5000
     974.14038,      155.0720,        1.6901,      0.359198,     1940.5000
     974.44518,      160.7900,        1.6788,      0.354806,     1940.5000
     974.74998,      164.7850,        1.7218,      0.346511,     1940.5000
     975.05478,      166.1860,        1.7335,      0.359482,     1940.5000
     975.35958,      161.2450,        1.7860,      0.349214,     1940.5000
     975.66438,      154.0490,        1.7578,      0.348102,     1940.5000
     975.96918,      153.2530,        1.7951,      0.363279,     1940.5000
     976.27398,      147.4940,        1.9282,      0.358806,     1940.5000
     976.57878,      144.9980,        1.9548,      0.356303,     1940.5000
     976.88358,      148.8920,        1.9052,      0.376772,     1940.5000
     977.18838,      149.8350,        1.9179,      0.383391,     1940.5000
     977.49318,      147.9480,        2.0706,      0.363727,     1940.5000
     977.79798,      146.9510,        2.6744,      0.358008,     1940.5000
     978.10278,      143.0270,        2.9319,      0.370483,     1940.5000
     978.40758,      146.8970,        2.3287,      0.374195,     1940.5000
     978.71238,      148.9580,        1.9910,      0.367909,     1940.5000
     979.01718,      146.4760,        1.9331,      0.369298,     1940.5000
     979.32198,      142.5770,        1.9778,      0.378887,     1940.5000
     979.62678,      143.6870,        1.8756,      0.369313,     1940.5000
     979.93158,      141.7360,        1.8884,      0.361611,     1940.5000
     980.23638,      143.9030,        1.9679,      0.359303,     1940.5000
     980.54118,      144.3710,        1.9097,      0.355306,     1940.5000
     980.84598,      146.7120,        1.8697,      0.361192,     1940.5000
     981.15078,      148.2100,        1.8486,      0.343425,     1940.5000
     981.45558,      148.4240,        1.7344,      0.350989,     1940.5000
     981.76038,      145.8660,        1.6535,      0.363383,     1940.5000
     982.06518,      149.7930,        1.6801,      0.362501,     1940.5000
     982.36998,      157.4920,        1.8241,      0.355909,     1940.5000
     982.67478,      163.4610,        1.8662,      0.350208,     1940.5000
     982.97958,      165.2890,        1.7537,      0.349401,     1940.5000
     983.28438,      166.1440,        1.7177,      0.360984,     1940.5000
     983.58918,      167.2190,        1.7416,      0.362298,     1940.5000
     983.89398,      168.0270,        1.7337,      0.347620,     1940.5000
     984.19878,      165.5400,        1.6707,      0.344904,     1940.5000
     984.50358,      157.5350,        1.5375,      0.349194,     1940.5000
     984.80838,      156.9110,        1.5521,      0.372368,     1940.5000
     985.11318,      157.3130,        1.5999,      0.364711,     1940.5000
     985.41798,      155.2890,        1.5891,      0.360206,     1940.5000
     985.72277,      152.9310,        1.6179,      0.368488,     1940.5000
     986.02757,      153.4890,        1.6629,      0.379584,     1940.5000
     986.33237,      151.0810,        1.7415,      0.388288,     1940.5000
     986.63717,      147.2040,        1.7948,      0.394092,     1940.5000
     986.94197,      140.6090,        1.8034,      0.387509,     1940.5000
     987.24677,      138.4380,        1.7663,      0.393591,     1940.5000
     987.55157,      136.2470,        1.7062,      0.386710,     1940.5000
     987.85637,      135.4910,        1.6439,      0.404974,     1940.5000
     988.16117,      137.2240,        1.8232,      0.428068,     1940.5000
     988.46597,      134.0540,        1.9810,      0.413121,     1940.5000
     988.77077,      136.1490,        1.8197,      0.400817,     1940.5000
     989.07557,      135.4400,        1.6829,      0.390514,     1940.5000
     989.38037,      141.5430,        1.7264,      0.361740,     1940.5000
     989.68517,      148.2100,        1.8040,      0.350316,     1940.5000
     989.98997,      156.5340,        1.8244,      0.365678,     1940.5000
     990.29477,      160.2130,        1.7340,      0.370493,     1940.5000
     990.59957,      157.9840,        1.6634,      0.369002,     1940.5000
     990.90437,      158.5520,        1.5636,      0.373693,     1940.5000
     991.20917,      160.5070,        1.5286,      0.366211,     1940.5000
     991.51397,      167.2890,        1.5606,      0.352619,     1940.5000
     991.81877,      174.1770,        1.7147,      0.338819,     1950.4900
     992.12357,      175.5490,        1.6487,      0.352281,     1942.3100
     992.42837,      173.9440,        1.5637,      0.374169,     1940.9000
     992.73317,      176.7450,        1.5075,      0.385484,     1940.7000
     993.03797,      169.5790,        1.4730,      0.360335,     1940.5000
     993.34277,      161.0070,        1.4693,      0.351113,     1940.8000
     993.64757,      155.3170,        1.5031,      0.344809,     1940.6000
     993.95237,      148.8000,        1.4859,      0.344700,     1940.5000
     994.25717,      146.1250,        1.4965,      0.345099,     1940.5000
     994.56197,      149.2060,        1.6405,      0.325128,     1940.5000
     994.86677,      151.3760,        1.7055,      0.299037,     1941.3000
     995.17157,      157.9880,        1.7090,      0.304392,     1950.2900
     995.47637,      165.6350,        1.6744,      0.289022,     1991.6400
     995.78117,      170.5580,        1.6987,      0.273422,     2042.0300
     996.08597,      173.5800,        1.7994,      0.275197,     2068.8600
     996.39077,      176.3660,        1.8623,      0.270407,     1991.5100
     996.69557,      180.3160,        1.9634,      0.285079,     1953.1500
     997.00037,      182.5120,        1.9673,      0.305871,     1944.5100
     997.30517,      184.7770,        1.8618,      0.328668,     1945.1000
     997.60997,      184.7440,        1.8624,      0.328700,     1945.4000
     997.91477,      182.2120,        1.9145,      0.315119,     1944.8000
     998.21957,      181.0070,        1.7779,      0.303616,     1944.5000
     998.52437,      183.4230,        1.5234,      0.324171,     1943.5000
     998.82917,      179.4070,        1.4232,      0.375527,     1943.8000
     999.13397,      174.2170,        1.3787,      0.427427,     1943.9000
     999.43877,      169.2470,        1.6078,      0.462151,     1943.7000
     999.74357,      161.5960,        1.7703,      0.487664,     1944.0000
    1000.04837,      143.5160,        1.6105,      0.517757,     1943.8000
