~Version
VERS  .             3.0                                 : CWLS LOG ASCII STANDARD - VERSION 3.0
WRAP  .             NO                                  : One line per depth step
DLM   .             COMMA                               : Delimiter character between data columns
#Delimiting character ( SPACE TAB OR COMMA ).

~Well
#MNEM.UNIT          DATA                                DESCRIPTION
#----- ----        -----------------                   -----------
STRT  .M                185.01353                       : FIRST INDEX VALUE
STOP  .M               1555.39373                       : LAST INDEX VALUE
STEP  .M                  0.30480                       : STEP OF INDEX
NULL  .             -999.25                             : NULL VALUE
COMP  .                                                 : COMPANY
WELL  .             IZAR                                : WELL
FLD   .                                                 : FIELD
LOC   .                                                 : LOCATION
SRVC  .                                                 : SERVICE COMPANY
CTRY  .                                                 : COUNTRY
PROV  .                                                 : PROVINCE
UWI   .                                                 : UNIQUE WELL ID
LIC   .                                                 : LICENSE NUMBER
STAT  .                                                 : STATE
CNTY  .                                                 : COUNTY
API   .                                                 : API NUMBER
DATE  .                                                 : LOG DATE
X     .             653634.4478536                      : X OR EAST-WEST COORDINATE
Y     .             8158756.916129                      : Y OR NORTH-SOUTH COORDINATE
HZCS  .                                                 : HORIZONTAL CO-ORDINATE SYSTEM
LATI  .             -16.64861111111                     : LATITUDE
LONG  .             154.4405555556                      : LONGITUDE
GDAT  .                                                 : GEODETIC DATUM

~DEVIATION_PARAMETER 
#MNEM.UNIT                    VALUE                        DESCRIPTION
#--------------- ---         ------------                 -----------------

~DEVIATION_DEFINITION 
#MNEM.UNIT                 LOG CODE                  CURVE DESCRIPTION
#----------- ----         ------------              -----------------
DEPTH       .M                                      :     {F}
AZIMUTH     .DEG                                    :     {F}
DEVIATION   .DEG                                    : 90-DIP    {F}

~DEVIATION_DATA | DEVIATION_DEFINITION
     1384.5000,        0.0000,        1.0000
     1547.0000,        0.0000,        1.0000

~TOPS_PARAMETER 
#MNEM.UNIT                    VALUE                        DESCRIPTION
#--------------- ---         ------------                 -----------------

~TOPS_DEFINITION 
#MNEM.UNIT                 LOG CODE                  CURVE DESCRIPTION
#----------- ----         ------------              -----------------
DEPTH       .M                                      :     {F}
TOPS        .                                       : Values changed using TEXT_EDIT    {S30}

~TOPS_DATA | TOPS_DEFINITION
        4.8000,Doyles Creek Subgroup         
      449.0000,Horseshoe Creek Subgroup      
      523.0000,Apple Tree Flat Subgroup      
      739.5000,Watts Sandstone               
      752.0000,Denman Fm                     
      857.5000,Mt Leonard Fm                 
     1009.5000,Althorpe Fm                   
     1056.0000,Malabar Fm                    
     1100.0000,Mt Ogilvie Fm                 
     1159.0000,Mt Thorley Fm                 
     1217.5000,Burnamwood Fm                 
     1309.5000,Archerfield Sandstone         
     1328.5000,Mulbring Siltstone            
     1401.0000,Muree Sandstone               
     1513.0000,Branxton Fm                   
     1542.0000,Greta Coal Measures           

~PARAMETER 
#MNEM.UNIT                    VALUE                        DESCRIPTION
#--------------- ---         ------------                 -----------------

~CURVE 
#MNEM.UNIT                 LOG CODE                  CURVE DESCRIPTION
#----------- ----         ------------              -----------------
DEPTH       .M                                      :     {F}
GR          .GAPI         -                         : Gamma ray corrected    {F}
LLD         .OHMM                                   : Resampled from old SR 0.4999997811314  anti-aliased    {F}
NPHI        .V/V          -                         :     {F}
RHOB        .K/M3         -                         : Evaluate log.    {F}

~ASCII | CURVE 
# ...
    1000.35317,      141.7900,        1.5238,      0.521095,     1943.6000
    1000.65797,      129.9460,        1.5843,      0.492041,     1943.4000
    1000.96277,      118.6480,        1.5517,      0.475723,     1943.8000
    1001.26757,      108.7890,        1.5408,      0.486884,     1944.7000
    1001.57237,      100.3250,        1.5199,      0.494190,     1945.6000
    1001.87717,      100.4570,        1.4517,      0.486411,     1945.9000
    1002.18197,       99.5216,        1.3833,      0.481507,     1945.7000
    1002.48677,       96.8307,        1.3177,      0.493183,     1945.1000
    1002.79157,       95.1250,        1.2642,      0.506881,     1944.5000
    1003.09637,       96.5846,        1.2673,      0.516187,     1944.2000
    1003.40117,      101.3580,        1.3034,      0.522990,     1944.0000
    1003.70597,      106.4160,        1.3217,      0.504426,     1943.8000
    1004.01077,      111.6360,        1.2914,      0.481732,     1943.6000
    1004.31557,      113.8050,        1.3735,      0.488091,     1943.4000
    1004.62037,      116.4430,        1.4849,      0.469427,     1943.2000
    1004.92517,      124.7500,        1.4607,      0.461411,     1943.4000
    1005.22997,      142.5210,        1.3665,      0.373725,     1943.7000
    1005.53477,      158.1730,        1.3268,      0.277637,     1944.2000
    1005.83957,      171.3660,        1.2906,      0.228370,     1943.1000
    1006.14437,      176.6220,        1.3351,      0.234791,     1944.0000
    1006.44917,      168.4250,        1.3324,      0.278737,     1945.9000
    1006.75397,      165.4220,        1.3034,      0.300369,     1946.2000
    1007.05877,      163.9260,        1.3564,      0.283924,     1945.1000
    1007.36357,      161.7790,        1.5565,      0.270319,     2005.1100
    1007.66837,      159.3810,        1.4163,      0.261712,     1971.7500
    1007.97317,      156.6820,        1.3538,      0.267891,     1994.6700
    1008.27797,      152.7890,        1.5015,      0.312037,     1988.3100
    1008.58276,      148.5210,        1.4673,      0.364226,     1952.8500
    1008.88756,      151.8090,        1.4401,      0.387067,     1947.0100
    1009.19236,      155.6380,        1.7943,      0.368527,     1947.9000
    1009.49716,      156.5720,        2.9343,      0.359014,     1947.7000
    1009.80196,      155.7390,        4.6410,      0.346218,     1947.5000
    1010.10676,      149.2500,        4.3646,      0.353589,     1946.6000
    1010.41156,      139.9070,        2.4876,      0.356396,     1945.7000
    1010.71636,      133.5010,        2.2831,      0.387455,     1944.4000
    1011.02116,      127.4200,        2.2966,      0.408270,     1942.4000
    1011.32596,      124.4800,        2.1138,      0.409299,     1941.4000
    1011.63076,      125.7260,        2.1323,      0.381140,     1940.5000
    1011.93556,      125.7530,        2.3990,      0.361928,     1941.6000
    1012.24036,      119.0660,        2.6140,      0.357806,     1942.1000
    1012.54516,      107.4090,        2.4457,      0.343021,     1942.0000
    1012.84996,       91.4637,        2.6967,      0.293671,     1947.6900
    1013.15476,       65.1997,        3.1743,      0.158594,     2225.8000
    1013.45956,       60.2900,        2.9644,      0.102380,     2237.7800
    1013.76436,       76.9678,        2.5433,      0.155923,     1978.8700
    1014.06916,       93.4249,        2.1193,      0.297597,     1944.7500
    1014.37396,       97.6036,        2.6023,      0.335546,     1943.7000
    1014.67876,       99.9443,        3.1144,      0.321820,     1943.5000
    1014.98356,      104.8410,        3.0096,      0.331586,     1943.7000
    1015.28836,      111.5740,        3.7310,      0.337591,     1943.1000
    1015.59316,      116.3890,        3.2875,      0.351380,     1942.9000
    1015.89796,      113.0350,        2.1666,      0.325937,     1942.3000
    1016.20276,      103.4900,        2.2595,      0.325401,     1941.7000
    1016.50756,       92.5516,        2.5108,      0.318909,     1972.1600
    1016.81236,       75.2075,        2.2533,      0.279856,     2103.2100
    1017.11716,       61.0067,        2.0131,      0.138504,     2335.6700
    1017.42196,       56.2573,        2.0692,      0.061710,     2378.3400
    1017.72676,       60.9300,        2.2637,      0.046023,     2248.9900
    1018.03156,       75.5081,        2.1183,      0.043803,     1980.5900
    1018.33636,       89.0797,        1.8639,      0.071161,     1941.1600
    1018.64116,      104.2780,        2.2761,      0.116535,     1941.4000
    1018.94596,      114.7920,        2.5473,      0.162833,     1942.0000
    1019.25076,      117.2480,        2.3119,      0.179376,     1957.5800
    1019.55556,      117.1240,        2.1326,      0.193180,     1995.4500
    1019.86036,      113.4970,        2.1414,      0.213071,     2004.2900
    1020.16516,      108.0730,        2.1811,      0.227080,     2067.1100
    1020.46996,      101.1300,        2.0124,      0.203734,     2193.0200
    1020.77476,       93.8886,        1.9237,      0.171147,     2248.7200
    1021.07956,       91.7596,        2.4462,      0.162812,     2262.3800
    1021.38436,      102.7320,        4.3868,      0.167593,     2115.3100
    1021.68916,      110.5490,        7.9361,      0.177586,     2103.3200
    1021.99396,      114.1960,       12.8739,      0.181295,     2154.2300
    1022.29876,      106.3760,       13.5702,      0.146051,     2211.0200
    1022.60356,      100.7580,       10.7241,      0.111151,     2243.2500
    1022.90836,      109.2550,       10.2417,      0.213052,     2075.5400
    1023.21316,      107.2540,       13.4954,      0.259732,     1984.9300
    1023.51796,       91.9621,       12.6512,      0.260799,     2089.5500
    1023.82276,       80.3487,        9.6590,      0.228147,     2047.2600
    1024.12756,       85.9462,        8.6078,      0.207430,     1945.7500
    1024.43236,      105.7190,        9.5255,      0.227471,     2054.5400
    1024.73716,      128.5470,       12.4113,      0.298297,     1945.7600
    1025.04196,      140.9280,       13.6080,      0.334847,     1952.9900
    1025.34676,      142.3270,       15.8167,      0.352474,     1940.5200
    1025.65156,      145.9150,       16.8383,      0.347507,     1940.5000
    1025.95636,      152.9750,       11.9544,      0.354690,     1940.5000
    1026.26116,      145.7420,        8.7760,      0.376668,     1940.5000
    1026.56596,      142.0410,        7.5314,      0.380994,     1940.5000
    1026.87076,      142.3690,        7.0943,      0.382598,     1940.5000
    1027.17556,      142.6390,        5.7515,      0.381402,     1940.5000
    1027.48036,      142.7900,        3.6556,      0.370216,     1940.5000
    1027.78516,      141.1750,        3.8408,      0.343439,     1940.5000
    1028.08996,      141.2850,        6.5518,      0.323130,     1940.5000
    1028.39476,      141.1320,        8.0069,      0.334384,     1940.5000
    1028.69956,      146.3270,        8.4272,      0.332103,     1940.5000
    1029.00436,      152.1910,        9.4197,      0.334497,     1940.5000
    1029.30916,      158.2480,        9.6401,      0.327111,     1940.5000
    1029.61396,      163.5440,        9.6169,      0.319411,     1940.5000
    1029.91876,      162.0890,       10.0256,      0.331183,     1940.5000
    1030.22356,      159.4900,       11.9739,      0.348175,     1940.5000
    1030.52836,      158.5400,       12.5369,      0.341110,     1940.5000
    1030.83316,      156.7130,       11.8300,      0.344395,     1940.5000
    1031.13796,      153.8030,       13.0283,      0.339807,     1940.5000
    1031.44275,      153.1900,       13.8991,      0.351183,     1940.5000
    1031.74755,      151.0200,       11.7232,      0.383952,     1940.5000
    1032.05235,      145.0810,       10.2554,      0.387894,     1940.5000
    1032.35715,      142.3990,        9.8177,      0.396388,     1940.5000
    1032.66195,      141.7880,        7.9582,      0.422462,     1940.5000
