~Version
VERS  .             3.0                                 : CWLS LOG ASCII STANDARD - VERSION 3.0
WRAP  .             NO                                  : One line per depth step
DLM   .             COMMA                               : Delimiter character between data columns
#Delimiting character ( SPACE TAB OR COMMA ).

~Well
#MNEM.UNIT          DATA                                DESCRIPTION
#----- ----        -----------------                   -----------
STRT  .M                185.01353                       : FIRST INDEX VALUE
STOP  .M               1555.39373                       : LAST INDEX VALUE
STEP  .M                  0.30480                       : STEP OF INDEX
NULL  .             -999.25                             : NULL VALUE
COMP  .                                                 : COMPANY
WELL  .             IZAR                                : WELL
FLD   .                                                 : FIELD
LOC   .                                                 : LOCATION
SRVC  .                                                 : SERVICE COMPANY
CTRY  .                                                 : COUNTRY
PROV  .                                                 : PROVINCE
UWI   .                                                 : UNIQUE WELL ID
LIC   .                                                 : LICENSE NUMBER
STAT  .                                                 : STATE
CNTY  .                                                 : COUNTY
API   .                                                 : API NUMBER
DATE  .                                                 : LOG DATE
X     .             653634.4478536                      : X OR EAST-WEST COORDINATE
Y     .             8158756.916129                      : Y OR NORTH-SOUTH COORDINATE
HZCS  .                                                 : HORIZONTAL CO-ORDINATE SYSTEM
LATI  .             -16.64861111111                     : LATITUDE
LONG  .             154.4405555556                      : LONGITUDE
GDAT  .                                                 : GEODETIC DATUM

~DEVIATION_PARAMETER 
#MNEM.UNIT                    VALUE                        DESCRIPTION
#--------------- ---         ------------                 -----------------

~DEVIATION_DEFINITION 
#MNEM.UNIT                 LOG CODE                  CURVE DESCRIPTION
#----------- ----         ------------              -----------------
DEPTH       .M                                      :     {F}
AZIMUTH     .DEG                                    :     {F}
DEVIATION   .DEG                                    : 90-DIP    {F}

~DEVIATION_DATA | DEVIATION_DEFINITION
     1384.5000,        0.0000,        1.0000
     1547.0000,        0.0000,        1.0000

~TOPS_PARAMETER 
#MNEM.UNIT                    VALUE                        DESCRIPTION
#--------------- ---         ------------                 -----------------

~TOPS_DEFINITION 
#MNEM.UNIT                 LOG CODE                  CURVE DESCRIPTION
#----------- ----         ------------              -----------------
DEPTH       .M                                      :     {F}
TOPS        .                                       : Values changed using TEXT_EDIT    {S30}

~TOPS_DATA | TOPS_DEFINITION
        4.8000,Doyles Creek Subgroup         
      449.0000,Horseshoe Creek Subgroup      
      523.0000,Apple Tree Flat Subgroup      
      739.5000,Watts Sandstone               
      752.0000,Denman Fm                     
      857.5000,Mt Leonard Fm                 
     1009.5000,Althorpe Fm                   
     1056.0000,Malabar Fm                    
     1100.0000,Mt Ogilvie Fm                 
     1159.0000,Mt Thorley Fm                 
     1217.5000,Burnamwood Fm                 
     1309.5000,Archerfield Sandstone         
     1328.5000,Mulbring Siltstone            
     1401.0000,Muree Sandstone               
     1513.0000,Branxton Fm                   
     1542.0000,Greta Coal Measures           

~PARAMETER 
#MNEM.UNIT                    VALUE                        DESCRIPTION
#--------------- ---         ------------                 -----------------

~CURVE 
#MNEM.UNIT                 LOG CODE                  CURVE DESCRIPTION
#----------- ----         ------------              -----------------
DEPTH       .M                                      :     {F}
GR          .GAPI         -                         : Gamma ray corrected    {F}
LLD         .OHMM                                   : Resampled from old SR 0.4999997811314  anti-aliased    {F}
NPHI        .V/V          -                         :     {F}
RHOB        .K/M3         -                         : Evaluate log.    {F}

~ASCII | CURVE 
# ...
    1032.96675,      144.1650,        6.5726,      0.419305,     1940.5000
    1033.27155,      146.8290,        5.2327,      0.394237,     1940.5000
    1033.57635,      149.5090,        3.1535,      0.375228,     1940.5000
    1033.88115,      150.7590,        2.5364,      0.356228,     1940.5000
    1034.18595,      152.0840,        3.1551,      0.346814,     1940.5000
    1034.49075,      152.9320,        3.4050,      0.355188,     1940.5000
    1034.79555,      158.1100,        2.9107,      0.343517,     1940.5000
    1035.10035,      168.6210,        3.0403,      0.302660,     1940.5000
    1035.40515,      172.3190,        3.1256,      0.286524,     1982.9400
    1035.70995,      168.5740,        2.9579,      0.314159,     1995.3800
    1036.01475,      165.2510,        3.3180,      0.337066,     1959.9500
    1036.31955,      163.7490,        4.0533,      0.350980,     1940.5300
    1036.62435,      149.7340,        3.9797,      0.351200,     1940.5000
    1036.92915,      154.1290,        3.1542,      0.337221,     1940.5000
    1037.23395,      155.7960,        2.8833,      0.359467,     1940.5000
    1037.53875,      151.1620,        2.7473,      0.385462,     1940.5000
    1037.84355,      152.0710,        2.5886,      0.369324,     1940.5000
    1038.14835,      151.8910,        2.5943,      0.346933,     1940.5000
    1038.45315,      155.2430,        2.6305,      0.357884,     1940.5000
    1038.75795,      157.5970,        2.7027,      0.334335,     1940.5000
    1039.06275,      158.0060,        2.8944,      0.323716,     1940.5000
    1039.36755,      154.1740,        3.6913,      0.318408,     1940.5000
    1039.67235,      149.5190,        4.7367,      0.315005,     1940.5000
    1039.97715,      145.2020,        3.7215,      0.333273,     1940.5000
    1040.28195,      144.1190,        2.7305,      0.343086,     1940.5000
    1040.58675,      146.3900,        2.5764,      0.359775,     1940.5000
    1040.89155,      152.7940,        2.5595,      0.362696,     1940.5000
    1041.19635,      153.3750,        2.6683,      0.351916,     1940.5000
    1041.50115,      151.5410,        2.5653,      0.355994,     1940.5000
    1041.80595,      157.7840,        2.6140,      0.357398,     1940.5000
    1042.11075,      157.9190,        4.1692,      0.371080,     1940.5000
    1042.41555,      153.0020,        6.4236,      0.384281,     1940.5000
    1042.72035,      148.9930,        4.8721,      0.381304,     1940.5000
    1043.02515,      145.5170,        3.4714,      0.374510,     1940.5000
    1043.32995,      152.1370,        3.5723,      0.373501,     1940.5000
    1043.63475,      148.8330,        4.0542,      0.374698,     1940.5000
    1043.93955,      144.7220,        3.6567,      0.365913,     1940.5000
    1044.24435,      149.4340,        3.5636,      0.357413,     1940.5000
    1044.54915,      148.0310,        3.8341,      0.346516,     1940.5000
    1044.85395,      152.8880,        3.8257,      0.333519,     1940.5000
    1045.15875,      160.3320,        3.4421,      0.330804,     1940.5000
    1045.46355,      172.1570,        3.3713,      0.310430,     1940.5000
    1045.76835,      178.5800,        3.4887,      0.286635,     1940.5000
    1046.07315,      178.3330,        3.2788,      0.276615,     1996.9200
    1046.37795,      177.7550,        3.8345,      0.282192,     1995.7000
    1046.68275,      177.5680,        3.5377,      0.273113,     2010.6800
    1046.98755,      177.1900,        2.3593,      0.264113,     2028.3700
    1047.29235,      178.9400,        2.0847,      0.287865,     2006.4300
    1047.59715,      186.1090,        2.2758,      0.300481,     1945.4900
    1047.90195,      186.7860,        2.4266,      0.277534,     1944.4000
    1048.20675,      187.2260,        2.8116,      0.284490,     1943.7000
    1048.51155,      186.0710,        3.6210,      0.277910,     2017.8900
    1048.81635,      197.7820,        4.3344,      0.266816,     1961.0800
    1049.12115,      203.5520,        5.2255,      0.243934,     1962.0000
    1049.42595,      202.5740,        6.2820,      0.233815,     2071.9400
    1049.73075,      193.9950,        6.5320,      0.242687,     2135.1100
    1050.03555,      186.6400,        6.5003,      0.234213,     2125.5100
    1050.34035,      179.4670,        5.5356,      0.278534,     2080.3700
    1050.64515,      173.7560,        5.4113,      0.335016,     1981.4500
    1050.94995,      170.6840,        8.1901,      0.379534,     1940.5600
    1051.25475,      169.0270,        8.7931,      0.396475,     1940.5000
    1051.55955,      159.1210,        5.5836,      0.416370,     1940.5000
    1051.86435,      150.5190,        4.1201,      0.438567,     1940.5000
    1052.16915,      147.7050,        4.0736,      0.439798,     1940.5000
    1052.47395,      149.7190,        4.8422,      0.418032,     1940.5000
    1052.77875,      146.9640,        4.1293,      0.395733,     1940.5000
    1053.08355,      142.6840,        2.6961,      0.410278,     1940.5000
    1053.38835,      145.1600,        2.3226,      0.409301,     1940.5000
    1053.69315,      144.4390,        2.8629,      0.413594,     1940.5000
    1053.99795,      142.1170,        4.3224,      0.399521,     1940.5000
    1054.30274,      144.9030,        5.3070,      0.382825,     1940.5000
    1054.60754,      145.1770,        4.9535,      0.415152,     1940.5000
    1054.91234,      142.6100,        4.5608,      0.434271,     1940.5000
    1055.21714,      143.2330,        4.7653,      0.440790,     1940.5000
    1055.52194,      144.0450,        5.4832,      0.449088,     1940.5000
    1055.82674,      145.8600,        5.9021,      0.387392,     1940.5000
    1056.13154,      143.0650,        4.9424,      0.383006,     1940.5000
    1056.43634,      139.5650,        3.7580,      0.425936,     1940.5000
    1056.74114,      141.7400,        3.0756,      0.432490,     1940.5000
    1057.04594,      141.0710,        2.6290,      0.420518,     1940.5000
    1057.35074,      141.7400,        2.6907,      0.412612,     1940.5000
    1057.65554,      145.7660,        2.5054,      0.389535,     1940.5000
    1057.96034,      143.5970,        2.1527,      0.366335,     1940.5000
    1058.26514,      146.0580,        2.2033,      0.354318,     1940.5000
    1058.56994,      153.7190,        2.4548,      0.346711,     1940.5000
    1058.87474,      160.6980,        2.6056,      0.340709,     1940.5000
    1059.17954,      161.6050,        2.4880,      0.333211,     1940.5000
    1059.48434,      161.3050,        2.4437,      0.324114,     1940.5000
    1059.78914,      164.7540,        2.8451,      0.346666,     1940.5000
    1060.09394,      166.8740,        2.9312,      0.366370,     1940.5000
    1060.39874,      164.8950,        2.7481,      0.351522,     1940.5000
    1060.70354,      169.2120,        2.4545,      0.338120,     1940.5000
    1061.00834,      172.8430,        2.1130,      0.344490,     1940.5000
    1061.31314,      171.1200,        2.2591,      0.329722,     1940.5000
    1061.61794,      171.8930,        2.2496,      0.318916,     1940.5000
    1061.92274,      174.5690,        2.1052,      0.313109,     1940.5000
    1062.22754,      173.2040,        2.3030,      0.316096,     1940.5000
    1062.53234,      170.9760,        2.2404,      0.308312,     1940.5000
    1062.83714,      169.3480,        1.9468,      0.308699,     1940.5000
    1063.14194,      166.4750,        1.8720,      0.308101,     1940.5000
    1063.44674,      163.5520,        1.9823,      0.322878,     1940.5000
    1063.75154,      159.7630,        2.2956,      0.350059,     1940.5000
    1064.05634,      156.4590,        2.6842,      0.368971,     1940.5000
    1064.36114,      152.5810,        2.6910,      0.355321,     1940.5000
    1064.66594,      149.2260,        2.3888,      0.342020,     1940.5000
    1064.97074,      151.7390,        2.3727,      0.331017,     1940.5000
    1065.27554,      154.8910,        2.4727,      0.335493,     1940.5000
