~Version
VERS  .             3.0                                 : CWLS LOG ASCII STANDARD - VERSION 3.0
WRAP  .             NO                                  : One line per depth step
DLM   .             COMMA                               : Delimiter character between data columns
#Delimiting character ( SPACE TAB OR COMMA ).

~Well
#MNEM.UNIT          DATA                                DESCRIPTION
#----- ----        -----------------                   -----------
STRT  .M                185.01353                       : FIRST INDEX VALUE
STOP  .M               1555.39373                       : LAST INDEX VALUE
STEP  .M                  0.30480                       : STEP OF INDEX
NULL  .             -999.25                             : NULL VALUE
COMP  .                                                 : COMPANY
WELL  .             IZAR                                : WELL
FLD   .                                                 : FIELD
LOC   .                                                 : LOCATION
SRVC  .                                                 : SERVICE COMPANY
CTRY  .                                                 : COUNTRY
PROV  .                                                 : PROVINCE
UWI   .                                                 : UNIQUE WELL ID
LIC   .                                                 : LICENSE NUMBER
STAT  .                                                 : STATE
CNTY  .                                                 : COUNTY
API   .                                                 : API NUMBER
DATE  .                                                 : LOG DATE
X     .             653634.4478536                      : X OR EAST-WEST COORDINATE
Y     .             8158756.916129                      : Y OR NORTH-SOUTH COORDINATE
HZCS  .                                                 : HORIZONTAL CO-ORDINATE SYSTEM
LATI  .             -16.64861111111                     : LATITUDE
LONG  .             154.4405555556                      : LONGITUDE
GDAT  .                                                 : GEODETIC DATUM

~DEVIATION_PARAMETER 
#MNEM.UNIT                    VALUE                        DESCRIPTION
#--------------- ---         ------------                 -----------------

~DEVIATION_DEFINITION 
#MNEM.UNIT                 LOG CODE                  CURVE DESCRIPTION
#----------- ----         ------------              -----------------
DEPTH       .M                                      :     {F}
AZIMUTH     .DEG                                    :     {F}
DEVIATION   .DEG                                    : 90-DIP    {F}

~DEVIATION_DATA | DEVIATION_DEFINITION
     1384.5000,        0.0000,        1.0000
     1547.0000,        0.0000,        1.0000

~TOPS_PARAMETER 
#MNEM.UNIT                    VALUE                        DESCRIPTION
#--------------- ---         ------------                 -----------------

~TOPS_DEFINITION 
#MNEM.UNIT                 LOG CODE                  CURVE DESCRIPTION
#----------- ----         ------------              -----------------
DEPTH       .M                                      :     {F}
TOPS        .                                       : Values changed using TEXT_EDIT    {S30}

~TOPS_DATA | TOPS_DEFINITION
        4.8000,Doyles Creek Subgroup         
      449.0000,Horseshoe Creek Subgroup      
      523.0000,Apple Tree Flat Subgroup      
      739.5000,Watts Sandstone               
      752.0000,Denman Fm                     
      857.5000,Mt Leonard Fm                 
     1009.5000,Althorpe Fm                   
     1056.0000,Malabar Fm                    
     1100.0000,Mt Ogilvie Fm                 
     1159.0000,Mt Thorley Fm                 
     1217.5000,Burnamwood Fm                 
     1309.5000,Archerfield Sandstone         
     1328.5000,Mulbring Siltstone            
     1401.0000,Muree Sandstone               
     1513.0000,Branxton Fm                   
     1542.0000,Greta Coal Measures           

~PARAMETER 
#MNEM.UNIT                    VALUE                        DESCRIPTION
#--------------- ---         ------------                 -----------------

~CURVE 
#MNEM.UNIT                 LOG CODE                  CURVE DESCRIPTION
#----------- ----         ------------              -----------------
DEPTH       .M                                      :     {F}
GR          .GAPI         -                         : Gamma ray corrected    {F}
LLD         .OHMM                                   : Resampled from old SR 0.4999997811314  anti-aliased    {F}
NPHI        .V/V          -                         :     {F}
RHOB        .K/M3         -                         : Evaluate log.    {F}

~ASCII | CURVE 
# ...
    1228.64827,      166.3570,       13.1817,      0.111915,     2403.0600
    1228.95307,      168.0690,       12.4454,      0.104313,     2393.0200
    1229.25787,      170.4030,       10.3517,      0.102803,     2393.2000
    1229.56267,      171.7930,        9.1186,      0.106294,     2361.1600
    1229.86747,      172.1490,       10.2513,      0.109994,     2343.3300
    1230.17227,      173.0370,       11.9894,      0.116489,     2323.8300
    1230.47707,      173.9520,       11.8536,      0.132971,     2303.0400
    1230.78187,      174.9180,       11.0397,      0.141585,     2274.3500
    1231.08667,      172.9080,       11.4027,      0.142998,     2259.7300
    1231.39147,      172.5800,       12.7352,      0.147692,     2302.9200
    1231.69627,      173.4910,       13.8097,      0.143408,     2325.7600
    1232.00107,      173.8360,       14.3581,      0.126629,     2327.7000
    1232.30587,      171.2140,       13.5164,      0.113024,     2353.7500
    1232.61067,      174.1990,       14.0196,      0.119089,     2378.3600
    1232.91547,      176.7630,       16.0255,      0.128184,     2347.5500
    1233.22027,      173.5090,       15.8901,      0.137783,     2306.3700
    1233.52507,      174.5680,       15.6052,      0.146585,     2278.1500
    1233.82987,      175.9850,       14.3714,      0.155185,     2260.5300
    1234.13467,      172.0070,       14.5047,      0.162088,     2263.9900
    1234.43947,      173.1960,       24.0465,      0.168688,     2269.6900
    1234.74427,      177.4760,       26.3053,      0.179681,     2231.3700
    1235.04907,      178.3840,       18.2590,      0.184891,     2216.2300
    1235.35387,      175.0390,       16.4203,      0.187795,     2224.5900
    1235.65867,      168.6780,       16.6057,      0.197383,     2219.3100
    1235.96347,      166.6360,       16.2954,      0.212474,     2205.3200
    1236.26827,      163.1510,       16.4368,      0.222782,     2149.1000
    1236.57307,      167.5870,       16.1034,      0.228789,     2130.5300
    1236.87787,      166.4300,       15.5572,      0.239481,     2128.1000
    1237.18266,      162.5740,       14.8918,      0.247985,     2094.8600
    1237.48746,      162.1750,       13.9001,      0.241312,     2079.6300
    1237.79226,      162.0460,       13.5215,      0.232615,     2101.6600
    1238.09706,      161.2090,       13.8352,      0.231003,     2101.6000
    1238.40186,      167.3510,       13.6134,      0.218722,     2106.2900
    1238.70666,      179.0940,       12.4444,      0.204126,     2159.7100
    1239.01146,      184.6230,       11.3271,      0.187928,     2129.0500
    1239.31626,      187.9040,       10.9937,      0.151364,     2160.3400
    1239.62106,      183.6200,       11.3531,      0.129039,     2214.6000
    1239.92586,      181.0300,       11.7231,      0.109734,     2267.1100
    1240.23066,      183.0700,       13.2773,      0.097521,     2315.8100
    1240.53546,      181.0350,       20.3815,      0.089314,     2339.4600
    1240.84026,      181.1870,       26.5553,      0.095289,     2311.6500
    1241.14506,      182.3400,       19.1094,      0.097496,     2336.3600
    1241.44986,      184.2770,       14.0352,      0.097700,     2334.7000
    1241.75466,      184.7600,       15.0025,      0.093807,     2308.4500
    1242.05946,      183.6520,       16.5956,      0.087811,     2320.4800
    1242.36426,      183.6820,       15.9573,      0.083008,     2340.7600
    1242.66906,      184.6410,       13.9003,      0.078708,     2335.2100
    1242.97386,      181.0080,       12.0554,      0.077302,     2356.2600
    1243.27866,      176.9570,       13.4984,      0.078997,     2337.5300
    1243.58346,      179.0670,       17.8775,      0.079998,     2334.6000
    1243.88826,      184.0240,       16.1541,      0.075308,     2343.2800
    1244.19306,      180.9170,       12.0515,      0.073303,     2357.9700
    1244.49786,      178.2860,       12.6734,      0.072102,     2329.0500
    1244.80266,      178.4540,       16.9423,      0.070004,     2339.6800
    1245.10746,      172.9500,       16.6387,      0.082178,     2321.9300
    1245.41226,      157.4940,       13.5781,      0.107355,     2242.5400
    1245.71706,      141.4240,       14.3997,      0.164998,     2116.9200
    1246.02186,      114.8630,       17.0787,      0.332204,     1944.3100
    1246.32666,      100.9780,       17.6595,      0.459475,     1945.2000
    1246.63146,       99.4789,       16.9117,      0.484356,     1945.1000
    1246.93626,      122.6740,       17.2248,      0.470824,     1944.1000
    1247.24106,      126.6020,       18.6309,      0.454130,     1943.2000
    1247.54586,      128.1150,       20.8171,      0.460089,     1942.4000
    1247.85066,      131.7740,       18.8453,      0.462895,     1941.9000
    1248.15546,      138.2200,       17.0103,      0.453517,     1942.3000
    1248.46026,      137.0470,       17.0620,      0.452302,     1942.2000
    1248.76506,      136.8550,       16.3799,      0.457790,     1941.7000
    1249.06986,      128.3720,       16.5945,      0.443525,     1942.2000
    1249.37466,      124.4240,       17.4837,      0.427429,     1944.9000
    1249.67946,      122.2180,       16.8560,      0.418316,     1943.8000
    1249.98426,     -999.2500,       16.2982,   -999.250000,     -999.2500
    1250.28906,     -999.2500,       16.6692,   -999.250000,     -999.2500
    1250.59386,     -999.2500,       17.3654,   -999.250000,     -999.2500
    1250.89866,     -999.2500,       17.9021,   -999.250000,     -999.2500
    1251.20346,     -999.2500,       17.4244,   -999.250000,     -999.2500
    1251.50826,     -999.2500,       17.1049,   -999.250000,     -999.2500
    1251.81306,     -999.2500,       16.9758,   -999.250000,     -999.2500
    1252.11786,     -999.2500,       17.0491,   -999.250000,     -999.2500
    1252.42266,     -999.2500,       16.0252,   -999.250000,     -999.2500
    1252.72746,     -999.2500,       16.7050,   -999.250000,     -999.2500
    1253.03226,     -999.2500,       18.0707,   -999.250000,     -999.2500
    1253.33706,     -999.2500,       17.9059,   -999.250000,     -999.2500
    1253.64186,     -999.2500,       18.4076,   -999.250000,     -999.2500
    1253.94666,     -999.2500,       17.6596,   -999.250000,     -999.2500
    1254.25146,     -999.2500,       16.4011,   -999.250000,     -999.2500
    1254.55626,     -999.2500,       15.7740,   -999.250000,     -999.2500
    1254.86106,     -999.2500,       17.4590,   -999.250000,     -999.2500
    1255.16586,     -999.2500,       19.1490,   -999.250000,     -999.2500
    1255.47066,     -999.2500,       17.3828,   -999.250000,     -999.2500
    1255.77546,     -999.2500,       14.8939,   -999.250000,     -999.2500
    1256.08026,     -999.2500,       14.8555,   -999.250000,     -999.2500
    1256.38506,     -999.2500,       15.2341,   -999.250000,     -999.2500
    1256.68986,     -999.2500,       15.8528,   -999.250000,     -999.2500
    1256.99466,     -999.2500,       16.9494,   -999.250000,     -999.2500
    1257.29946,     -999.2500,       15.8928,   -999.250000,     -999.2500
    1257.60426,     -999.2500,       15.4530,   -999.250000,     -999.2500
    1257.90906,     -999.2500,       16.2896,   -999.250000,     -999.2500
    1258.21386,     -999.2500,       15.3765,   -999.250000,     -999.2500
    1258.51866,     -999.2500,       14.0270,   -999.250000,     -999.2500
    1258.82346,     -999.2500,       15.0526,   -999.250000,     -999.2500
    1259.12826,     -999.2500,       19.8897,   -999.250000,     -999.2500
    1259.43306,     -999.2500,       25.9108,   -999.250000,     -999.2500
    1259.73786,     -999.2500,       29.7769,   -999.250000,     -999.2500
    1260.04265,     -999.2500,       23.9775,   -999.250000,     -999.2500
    1260.34745,     -999.2500,       23.8547,   -999.250000,     -999.2500
    1260.65225,     -999.2500,       17.4678,   -999.250000,     -999.2500
    1260.95705,     -999.2500,       13.0581,   -999.250000,     -999.2500
