~Version
VERS  .             3.0                                 : CWLS LOG ASCII STANDARD - VERSION 3.0
WRAP  .             NO                                  : One line per depth step
DLM   .             COMMA                               : Delimiter character between data columns
#Delimiting character ( SPACE TAB OR COMMA ).

~Well
#MNEM.UNIT          DATA                                DESCRIPTION
#----- ----        -----------------                   -----------
STRT  .M                185.01353                       : FIRST INDEX VALUE
STOP  .M               1555.39373                       : LAST INDEX VALUE
STEP  .M                  0.30480                       : STEP OF INDEX
NULL  .             -999.25                             : NULL VALUE
COMP  .                                                 : COMPANY
WELL  .             IZAR                                : WELL
FLD   .                                                 : FIELD
LOC   .                                                 : LOCATION
SRVC  .                                                 : SERVICE COMPANY
CTRY  .                                                 : COUNTRY
PROV  .                                                 : PROVINCE
UWI   .                                                 : UNIQUE WELL ID
LIC   .                                                 : LICENSE NUMBER
STAT  .                                                 : STATE
CNTY  .                                                 : COUNTY
API   .                                                 : API NUMBER
DATE  .                                                 : LOG DATE
X     .             653634.4478536                      : X OR EAST-WEST COORDINATE
Y     .             8158756.916129                      : Y OR NORTH-SOUTH COORDINATE
HZCS  .                                                 : HORIZONTAL CO-ORDINATE SYSTEM
LATI  .             -16.64861111111                     : LATITUDE
LONG  .             154.4405555556                      : LONGITUDE
GDAT  .                                                 : GEODETIC DATUM

~DEVIATION_PARAMETER 
#MNEM.UNIT                    VALUE                        DESCRIPTION
#--------------- ---         ------------                 -----------------

~DEVIATION_DEFINITION 
#MNEM.UNIT                 LOG CODE                  CURVE DESCRIPTION
#----------- ----         ------------              -----------------
DEPTH       .M                                      :     {F}
AZIMUTH     .DEG                                    :     {F}
DEVIATION   .DEG                                    : 90-DIP    {F}

~DEVIATION_DATA | DEVIATION_DEFINITION
     1384.5000,        0.0000,        1.0000
     1547.0000,        0.0000,        1.0000

~TOPS_PARAMETER 
#MNEM.UNIT                    VALUE                        DESCRIPTION
#--------------- ---         ------------                 -----------------

~TOPS_DEFINITION 
#MNEM.UNIT                 LOG CODE                  CURVE DESCRIPTION
#----------- ----         ------------              -----------------
DEPTH       .M                                      :     {F}
TOPS        .                                       : Values changed using TEXT_EDIT    {S30}

~TOPS_DATA | TOPS_DEFINITION
        4.8000,Doyles Creek Subgroup         
      449.0000,Horseshoe Creek Subgroup      
      523.0000,Apple Tree Flat Subgroup      
      739.5000,Watts Sandstone               
      752.0000,Denman Fm                     
      857.5000,Mt Leonard Fm                 
     1009.5000,Althorpe Fm                   
     1056.0000,Malabar Fm                    
     1100.0000,Mt Ogilvie Fm                 
     1159.0000,Mt Thorley Fm                 
     1217.5000,Burnamwood Fm                 
     1309.5000,Archerfield Sandstone         
     1328.5000,Mulbring Siltstone            
     1401.0000,Muree Sandstone               
     1513.0000,Branxton Fm                   
     1542.0000,Greta Coal Measures           

~PARAMETER 
#MNEM.UNIT                    VALUE                        DESCRIPTION
#--------------- ---         ------------                 -----------------

~CURVE 
#MNEM.UNIT                 LOG CODE                  CURVE DESCRIPTION
#----------- ----         ------------              -----------------
DEPTH       .M                                      :     {F}
GR          .GAPI         -                         : Gamma ray corrected    {F}
LLD         .OHMM                                   : Resampled from old SR 0.4999997811314  anti-aliased    {F}
NPHI        .V/V          -                         :     {F}
RHOB        .K/M3         -                         : Evaluate log.    {F}

~ASCII | CURVE 
# ...
    1196.03468,      160.3540,       11.3256,      0.156914,     2322.5900
    1196.33948,      162.7030,       12.6197,      0.157000,     2335.9800
    1196.64428,      158.4020,       13.3072,      0.162191,     2313.6400
    1196.94908,      158.5290,       11.8601,      0.158406,     2312.2000
    1197.25388,      163.7790,       12.6700,      0.163591,     2295.8300
    1197.55868,      165.0410,       13.7919,      0.163400,     2293.8000
    1197.86348,      164.3100,       15.5243,      0.174281,     2289.1100
    1198.16828,      168.2140,       17.2314,      0.177395,     2305.4700
    1198.47308,      167.3930,       12.4290,      0.166319,     2297.9100
    1198.77788,      164.1200,        9.8387,      0.160909,     2285.0200
    1199.08268,      162.3700,       11.7452,      0.160601,     2294.3800
    1199.38748,      163.0160,       15.4880,      0.160201,     2276.3300
    1199.69228,      162.7750,       15.5606,      0.154110,     2286.6800
    1199.99708,      158.6240,       14.5893,      0.150406,     2267.1300
    1200.30188,      156.5640,       16.1455,      0.147106,     2258.8100
    1200.60668,      155.8380,       15.9985,      0.143506,     2270.5800
    1200.91148,      156.9870,       14.5573,      0.152185,     2267.2100
    1201.21628,      157.9350,       13.9345,      0.145012,     2290.4600
    1201.52108,      158.2390,       13.1837,      0.152487,     2291.9000
    1201.82588,      159.6650,       10.5936,      0.160087,     2278.8200
    1202.13068,      160.9110,        9.4799,      0.151515,     2297.8700
    1202.43548,      160.3600,       13.6089,      0.150602,     2326.4500
    1202.74028,      158.6790,       16.4377,      0.148504,     2323.7000
    1203.04508,      157.2150,       13.6139,      0.151595,     2326.7900
    1203.34988,      157.9780,       13.1538,      0.150502,     2333.8900
    1203.65468,      162.2250,       14.1253,      0.147106,     2324.9200
    1203.95948,      166.3690,       14.2239,      0.144205,     2312.5200
    1204.26428,      165.1400,       14.5215,      0.139608,     2327.8700
    1204.56908,      165.6650,       14.8575,      0.143394,     2319.1100
    1204.87388,      167.1840,       14.9622,      0.135513,     2328.1800
    1205.17868,      163.4730,       16.0362,      0.140991,     2345.4700
    1205.48348,      154.9480,       16.3328,      0.142797,     2337.5100
    1205.78828,      152.3150,       15.5584,      0.138008,     2325.6200
    1206.09308,      153.7810,       15.4841,      0.138799,     2322.7100
    1206.39788,      157.7660,       15.2375,      0.132511,     2321.8000
    1206.70268,      157.1580,       14.6198,      0.128707,     2334.1800
    1207.00748,      156.1600,       14.2876,      0.129399,     2330.4100
    1207.31228,      158.5940,       14.2231,      0.130698,     2343.7800
    1207.61708,      160.5300,       13.6778,      0.131299,     2349.6900
    1207.92188,      160.6110,       13.2424,      0.126009,     2335.5200
    1208.22668,      158.8180,       13.2116,      0.119112,     2334.7000
    1208.53148,      161.6060,       14.0916,      0.108718,     2338.0900
    1208.83628,      163.8360,       15.3472,      0.100115,     2361.7600
    1209.14108,      166.1070,       15.1710,      0.093911,     2374.2800
    1209.44588,      167.4290,       14.0593,      0.087611,     2373.8000
    1209.75068,      168.8250,       13.3944,      0.081211,     2402.9500
    1210.05548,      164.1960,       13.7369,      0.075809,     2412.2800
    1210.36028,      163.8420,       15.0628,      0.072406,     2408.0100
    1210.66508,      163.0810,       14.9587,      0.080087,     2422.8700
    1210.96988,      161.7570,       13.8007,      0.082795,     2398.6400
    1211.27468,      160.9860,       13.2417,      0.073217,     2410.1800
    1211.57948,      162.3870,       13.6443,      0.066811,     2406.3100
    1211.88428,      165.3930,       14.4854,      0.067100,     2396.7200
    1212.18908,      166.5440,       14.5538,      0.068298,     2399.9900
    1212.49388,      165.6690,       14.1267,      0.070696,     2381.5300
    1212.79868,      161.8710,       13.7421,      0.072996,     2414.6400
    1213.10348,      159.4400,       13.6791,      0.076893,     2412.3000
    1213.40828,      161.8390,       13.0030,      0.094170,     2363.0800
    1213.71308,      161.2930,       12.5044,      0.108675,     2337.2400
    1214.01788,      157.2210,       13.7752,      0.115987,     2340.5900
    1214.32267,      156.0920,       14.9655,      0.120193,     2344.5900
    1214.62747,      154.5460,       14.5564,      0.128386,     2342.5000
    1214.93227,      151.4000,       14.1580,      0.147866,     2329.0200
    1215.23707,      154.5240,       13.8985,      0.161077,     2298.7500
    1215.54187,      157.8140,       14.3856,      0.168288,     2271.9500
    1215.84667,      160.0830,       15.1670,      0.166503,     2287.4700
    1216.15147,      155.5310,       14.8564,      0.153522,     2332.2200
    1216.45627,      158.9560,       14.0897,      0.148808,     2308.4400
    1216.76107,      162.0480,       11.9386,      0.153791,     2264.8800
    1217.06587,      159.0910,        9.9096,      0.150506,     2267.2000
    1217.37067,      158.7480,       12.0270,      0.135326,     2296.8500
    1217.67547,      158.7340,       12.3928,      0.125916,     2351.4100
    1217.98027,      162.1520,        9.5063,      0.120210,     2346.1100
    1218.28507,      161.9560,        8.4481,      0.106923,     2356.3800
    1218.58987,      161.1940,        9.9936,      0.088232,     2368.3800
    1218.89467,      159.8000,       10.9612,      0.076720,     2386.9700
    1219.19947,      163.3280,       10.4230,      0.073306,     2377.3200
    1219.50427,      165.9590,       11.5891,      0.089073,     2422.4200
    1219.80907,      167.9780,       11.0689,      0.094990,     2414.3100
    1220.11387,      164.0040,        9.2496,      0.091905,     2368.2800
    1220.41867,      163.7040,        8.8924,      0.079422,     2378.2800
    1220.72347,      168.2240,        8.0900,      0.066422,     2404.0600
    1221.02827,      165.2790,        7.8498,      0.062207,     2419.7700
    1221.33307,      165.3150,        9.8136,      0.066792,     2388.3500
    1221.63787,      167.1710,       11.7747,      0.069495,     2392.3900
    1221.94267,      167.3520,       11.1430,      0.071796,     2427.3400
    1222.24747,      166.5370,        8.2814,      0.075593,     2435.2900
    1222.55227,      167.0280,        6.6963,      0.076898,     2404.1500
    1222.85707,      167.4680,        7.2794,      0.075003,     2377.1500
    1223.16187,      168.4960,        9.4060,      0.072804,     2385.5900
    1223.46667,      174.0010,       13.1590,      0.082283,     2395.8800
    1223.77147,      174.9370,       10.4480,      0.090086,     2380.9300
    1224.07627,      170.6330,        6.3608,      0.090200,     2390.5800
    1224.38107,      166.0510,        5.4914,      0.080317,     2396.0900
    1224.68587,      166.4010,        5.6223,      0.081099,     2396.0000
    1224.99067,      166.6810,        5.9817,      0.091682,     2382.4200
    1225.29547,      164.7000,        7.0941,      0.100585,     2368.2200
    1225.60027,      168.3460,       11.6152,      0.107887,     2336.7500
    1225.90507,      173.9460,       17.3365,      0.111693,     2351.5700
    1226.20987,      171.4240,       15.7715,      0.105211,     2364.4800
    1226.51467,      169.8350,       13.8303,      0.099111,     2374.9800
    1226.81947,      168.0880,       12.9424,      0.099699,     2397.1600
    1227.12427,      162.0200,       11.6946,      0.113077,     2368.9500
    1227.42907,      159.1710,       12.1589,      0.129871,     2389.4600
    1227.73387,      159.7420,       12.9395,      0.131797,     2412.6600
    1228.03867,      164.0820,       13.0602,      0.126609,     2432.9600
    1228.34347,      166.5860,       13.2416,      0.120311,     2380.7900
