~Version
VERS  .             3.0                                 : CWLS LOG ASCII STANDARD - VERSION 3.0
WRAP  .             NO                                  : One line per depth step
DLM   .             COMMA                               : Delimiter character between data columns
#Delimiting character ( SPACE TAB OR COMMA ).

~Well
#MNEM.UNIT          DATA                                DESCRIPTION
#----- ----        -----------------                   -----------
STRT  .M                 10.97280                       : FIRST INDEX VALUE
STOP  .M               1459.68607                       : LAST INDEX VALUE
STEP  .M                  0.15240                       : STEP OF INDEX
NULL  .             -999.25                             : NULL VALUE
COMP  .                                                 : COMPANY
WELL  .             KRAZ                                : WELL
FLD   .                                                 : FIELD
LOC   .                                                 : LOCATION
SRVC  .                                                 : SERVICE COMPANY
CTRY  .                                                 : COUNTRY
PROV  .                                                 : PROVINCE
UWI   .                                                 : UNIQUE WELL ID
LIC   .                                                 : LICENSE NUMBER
STAT  .                                                 : STATE
CNTY  .                                                 : COUNTY
API   .                                                 : API NUMBER
DATE  .                                                 : LOG DATE
X     .             653929.1957502                      : X OR EAST-WEST COORDINATE
Y     .             8158539.624245                      : Y OR NORTH-SOUTH COORDINATE
HZCS  .                                                 : HORIZONTAL CO-ORDINATE SYSTEM
LATI  .             -16.65055555556                     : LATITUDE
LONG  .             154.4433333333                      : LONGITUDE
GDAT  .                                                 : GEODETIC DATUM

~DEVIATION_PARAMETER 
#MNEM.UNIT                    VALUE                        DESCRIPTION
#--------------- ---         ------------                 -----------------

~DEVIATION_DEFINITION 
#MNEM.UNIT                 LOG CODE                  CURVE DESCRIPTION
#----------- ----         ------------              -----------------
DEPTH       .M                                      :     {F}
AZIMUTH     .DEG                                    :     {F}
DEVIATION   .DEG                                    : 90-DIP    {F}

~DEVIATION_DATA | DEVIATION_DEFINITION
       31.0000,        0.0000,        0.2500
       91.0000,        0.0000,        0.2500
      158.0000,        0.0000,        0.5000
      308.0000,        0.0000,        0.5000
      460.0000,        0.0000,        0.2500
      614.0000,        0.0000,        1.0000
      787.0000,        0.0000,        2.0000
      873.0000,        0.0000,        2.0000
      984.0000,        0.0000,        1.2500
     1146.0000,        0.0000,        1.5000
     1298.0000,        0.0000,        0.7500
     1454.0000,        0.0000,        0.7500

~TOPS_PARAMETER 
#MNEM.UNIT                    VALUE                        DESCRIPTION
#--------------- ---         ------------                 -----------------

~TOPS_DEFINITION 
#MNEM.UNIT                 LOG CODE                  CURVE DESCRIPTION
#----------- ----         ------------              -----------------
DEPTH       .M                                      :     {F}
TOPS        .                                       : Created by PICKS COMMAND    {S32}

~TOPS_DATA | TOPS_DEFINITION
        7.3245,Doyles Creek Subgroup           
      418.1828,Horseshoe Creek Subgroup        
      489.9400,Apple Tree Flat Subgroup        
      747.8995,Watts Sandstone                 
      770.7885,Denman Fm                       
      893.5882,Mt Leonard Fm                   
     1010.7801,Althorpe Fm                     
     1070.0628,Malabar Fm                      
     1106.6852,Mt Ogilvie Fm                   
     1195.3803,Mt Thorley Fm                   
     1223.0760,Burnamwood Fm                   
     1326.0767,Archerfield Sandstone           
     1336.0334,Mulbring Siltstone              
     1401.7250,Muree Sandstone                 
     1458.2609,Branxton Fm                     

~PARAMETER 
#MNEM.UNIT                    VALUE                        DESCRIPTION
#--------------- ---         ------------                 -----------------

~CURVE 
#MNEM.UNIT                 LOG CODE                  CURVE DESCRIPTION
#----------- ----         ------------              -----------------
MD          .M                                      :     {F}
GR          .GAPI         94054010                  : GR_1 (Cleared: Bottom)    {F}
LLD         .OHMM         94220100                  :     {F}
NPHI        .V/V                                    :     {F}
RHOB        .K/M3         94094010                  :     {F}

~ASCII | CURVE 
# ...
    1103.52755,      112.3000,        5.5590,      0.404700,     2469.0000
    1103.67995,      114.4000,        5.6885,      0.400100,     2483.0000
    1103.83235,      116.5000,        5.7280,      0.400100,     2491.0000
    1103.98475,      117.3000,        5.7943,      0.400500,     2490.0000
    1104.13715,      116.8000,        5.8345,      0.400000,     2487.0000
    1104.28955,      117.1000,        5.8210,      0.398900,     2487.0000
    1104.44195,      117.5000,        5.8479,      0.395800,     2490.0000
    1104.59435,      115.9000,        6.0534,      0.393800,     2492.0000
    1104.74675,      113.1000,        6.3533,      0.395800,     2491.0000
    1104.89915,      110.8000,        6.7298,      0.400400,     2496.0000
    1105.05155,      109.8000,        6.9984,      0.404000,     2503.0000
    1105.20395,      108.2000,        6.9823,      0.404500,     2501.0000
    1105.35635,      106.6000,        6.7920,      0.405500,     2487.0000
    1105.50875,      107.2000,        6.3974,      0.411000,     2472.0000
    1105.66115,      108.8000,        6.1094,      0.420400,     2459.0000
    1105.81355,      110.1000,        5.9292,      0.428100,     2450.0000
    1105.96595,      110.4000,        6.0117,      0.428100,     2446.0000
    1106.11835,      110.3000,        6.1094,      0.419400,     2451.0000
    1106.27075,      109.3000,        6.1376,      0.405500,     2458.0000
    1106.42315,      107.2000,        6.2230,      0.389700,     2462.0000
    1106.57555,      104.5000,        6.4565,      0.373900,     2462.0000
    1106.72795,      100.4000,        6.9343,      0.359400,     2459.0000
    1106.88035,       95.8000,        7.6384,      0.346900,     2452.0000
    1107.03275,       92.5000,        8.1846,      0.336400,     2441.0000
    1107.18515,       89.7000,        8.4918,      0.327000,     2424.0000
    1107.33755,       85.4000,        8.3176,      0.318400,     2402.0000
    1107.48995,       80.6000,        8.2035,      0.316200,     2377.0000
    1107.64235,       79.9000,        8.2224,      0.321700,     2357.0000
    1107.79475,       82.9000,        8.3368,      0.329400,     2343.0000
    1107.94715,       85.4000,        8.5310,      0.331600,     2338.0000
    1108.09955,       86.5000,        8.8920,      0.328200,     2343.0000
    1108.25195,       87.8000,        9.4842,      0.324900,     2363.0000
    1108.40435,       90.0000,       10.0693,      0.331500,     2398.0000
    1108.55675,       91.6000,       10.2802,      0.355400,     2432.0000
    1108.70915,       93.6000,        9.8401,      0.390900,     2449.0000
    1108.86155,       98.3000,        8.8105,      0.423400,     2450.0000
    1109.01395,      103.8000,        7.7983,      0.438500,     2448.0000
    1109.16635,      106.5000,        7.1945,      0.437600,     2451.0000
    1109.31875,      105.0000,        7.2277,      0.425800,     2455.0000
    1109.47115,      101.8000,        7.6033,      0.403500,     2454.0000
    1109.62355,      100.7000,        8.0353,      0.377300,     2448.0000
    1109.77595,      102.4000,        8.2414,      0.361300,     2436.0000
    1109.92835,      105.2000,        8.1470,      0.359700,     2422.0000
    1110.08075,      107.0000,        7.9068,      0.361300,     2412.0000
    1110.23315,      106.3000,        7.8343,      0.354300,     2411.0000
    1110.38555,      104.0000,        7.9250,      0.341400,     2415.0000
    1110.53795,      101.5000,        8.2414,      0.331000,     2414.0000
    1110.69035,      100.7000,        8.5310,      0.329300,     2409.0000
    1110.84274,      102.4000,        8.6298,      0.335400,     2406.0000
    1110.99514,      105.1000,        8.4333,      0.346300,     2414.0000
    1111.14754,      106.9000,        8.2224,      0.352300,     2429.0000
    1111.29994,      105.3000,        8.2604,      0.345700,     2441.0000
    1111.45234,       99.9000,        8.9536,      0.326000,     2442.0000
    1111.60474,       91.0000,        9.9312,      0.298500,     2431.0000
    1111.75714,       80.8000,       11.2202,      0.272800,     2416.0000
    1111.90954,       73.6000,       12.6474,      0.259600,     2408.0000
    1112.06194,       71.2000,       13.2129,      0.255300,     2405.0000
    1112.21434,       72.8000,       12.3880,      0.256600,     2396.0000
    1112.36674,       75.3000,       10.4713,      0.260800,     2373.0000
    1112.51914,       76.9000,        8.7096,      0.268100,     2345.0000
    1112.67154,       78.5000,        7.9068,      0.282700,     2327.0000
    1112.82394,       80.6000,        7.6033,      0.304000,     2329.0000
    1112.97634,       82.4000,        7.7090,      0.326200,     2349.0000
    1113.12874,       83.6000,        7.4817,      0.347600,     2373.0000
    1113.28114,       84.8000,        6.7764,      0.364800,     2384.0000
    1113.43354,       85.8000,        5.7943,      0.375000,     2382.0000
    1113.58594,       86.4000,        4.6452,      0.381800,     2381.0000
    1113.73834,       87.8000,        3.8459,      0.388600,     2390.0000
    1113.89074,       89.7000,        3.2285,      0.387000,     2398.0000
    1114.04314,       89.4000,        3.2137,      0.372300,     2395.0000
    1114.19554,       86.9000,        3.5318,      0.351300,     2393.0000
    1114.34794,       84.1000,        4.1400,      0.338700,     2398.0000
    1114.50034,       82.5000,        4.7206,      0.336200,     2403.0000
    1114.65274,       82.0000,        5.0234,      0.336700,     2400.0000
    1114.80514,       82.9000,        5.0816,      0.336600,     2398.0000
    1114.95754,       84.3000,        5.0350,      0.341100,     2405.0000
    1115.10994,       85.3000,        4.9091,      0.354200,     2412.0000
    1115.26234,       86.8000,        4.7643,      0.368100,     2403.0000
    1115.41474,       88.5000,        4.7315,      0.369200,     2372.0000
    1115.56714,       87.9000,        4.8865,      0.351500,     2335.0000
    1115.71954,       84.1000,        5.2723,      0.322300,     2319.0000
    1115.87194,       79.4000,        6.0395,      0.294400,     2332.0000
    1116.02434,       74.3000,        7.5162,      0.272600,     2361.0000
    1116.17674,       67.7000,       10.6660,      0.255400,     2387.0000
    1116.32914,       60.6000,       16.2555,      0.237500,     2418.0000
    1116.48154,       56.2000,       23.3884,      0.224300,     2470.0000
    1116.63394,       57.0000,       24.1546,      0.221700,     2525.0000
    1116.78634,       62.9000,       20.2302,      0.229800,     2548.0000
    1116.93874,       72.9000,       13.0617,      0.245500,     2522.0000
    1117.09114,       84.8000,        9.9541,      0.266400,     2471.0000
    1117.24354,       95.6000,        8.6099,      0.290500,     2428.0000
    1117.39594,      103.3000,        8.0168,      0.309900,     2408.0000
    1117.54834,      106.4000,        7.6384,      0.320400,     2409.0000
    1117.70074,      105.1000,        7.1945,      0.328000,     2415.0000
    1117.85314,      101.2000,        6.7298,      0.339000,     2418.0000
    1118.00554,       97.0000,        6.4714,      0.345400,     2415.0000
    1118.15794,       94.3000,        6.2373,      0.337700,     2407.0000
    1118.31034,       93.6000,        6.0954,      0.317900,     2399.0000
    1118.46274,       93.7000,        6.0117,      0.303800,     2399.0000
    1118.61514,       93.4000,        6.0256,      0.307100,     2401.0000
    1118.76754,       92.5000,        6.0256,      0.321000,     2397.0000
    1118.91994,       92.0000,        5.9292,      0.330300,     2384.0000
    1119.07234,       92.1000,        5.6885,      0.330700,     2372.0000
    1119.22474,       91.5000,        5.4576,      0.329600,     2375.0000
    1119.37714,       90.6000,        5.2119,      0.328000,     2393.0000
    1119.52954,       91.1000,        5.0119,      0.321800,     2414.0000
    1119.68194,       92.4000,        4.8529,      0.312900,     2426.0000
