~Version
VERS  .             3.0                                 : CWLS LOG ASCII STANDARD - VERSION 3.0
WRAP  .             NO                                  : One line per depth step
DLM   .             COMMA                               : Delimiter character between data columns
#Delimiting character ( SPACE TAB OR COMMA ).

~Well
#MNEM.UNIT          DATA                                DESCRIPTION
#----- ----        -----------------                   -----------
STRT  .M                 10.97280                       : FIRST INDEX VALUE
STOP  .M               1459.68607                       : LAST INDEX VALUE
STEP  .M                  0.15240                       : STEP OF INDEX
NULL  .             -999.25                             : NULL VALUE
COMP  .                                                 : COMPANY
WELL  .             KRAZ                                : WELL
FLD   .                                                 : FIELD
LOC   .                                                 : LOCATION
SRVC  .                                                 : SERVICE COMPANY
CTRY  .                                                 : COUNTRY
PROV  .                                                 : PROVINCE
UWI   .                                                 : UNIQUE WELL ID
LIC   .                                                 : LICENSE NUMBER
STAT  .                                                 : STATE
CNTY  .                                                 : COUNTY
API   .                                                 : API NUMBER
DATE  .                                                 : LOG DATE
X     .             653929.1957502                      : X OR EAST-WEST COORDINATE
Y     .             8158539.624245                      : Y OR NORTH-SOUTH COORDINATE
HZCS  .                                                 : HORIZONTAL CO-ORDINATE SYSTEM
LATI  .             -16.65055555556                     : LATITUDE
LONG  .             154.4433333333                      : LONGITUDE
GDAT  .                                                 : GEODETIC DATUM

~DEVIATION_PARAMETER 
#MNEM.UNIT                    VALUE                        DESCRIPTION
#--------------- ---         ------------                 -----------------

~DEVIATION_DEFINITION 
#MNEM.UNIT                 LOG CODE                  CURVE DESCRIPTION
#----------- ----         ------------              -----------------
DEPTH       .M                                      :     {F}
AZIMUTH     .DEG                                    :     {F}
DEVIATION   .DEG                                    : 90-DIP    {F}

~DEVIATION_DATA | DEVIATION_DEFINITION
       31.0000,        0.0000,        0.2500
       91.0000,        0.0000,        0.2500
      158.0000,        0.0000,        0.5000
      308.0000,        0.0000,        0.5000
      460.0000,        0.0000,        0.2500
      614.0000,        0.0000,        1.0000
      787.0000,        0.0000,        2.0000
      873.0000,        0.0000,        2.0000
      984.0000,        0.0000,        1.2500
     1146.0000,        0.0000,        1.5000
     1298.0000,        0.0000,        0.7500
     1454.0000,        0.0000,        0.7500

~TOPS_PARAMETER 
#MNEM.UNIT                    VALUE                        DESCRIPTION
#--------------- ---         ------------                 -----------------

~TOPS_DEFINITION 
#MNEM.UNIT                 LOG CODE                  CURVE DESCRIPTION
#----------- ----         ------------              -----------------
DEPTH       .M                                      :     {F}
TOPS        .                                       : Created by PICKS COMMAND    {S32}

~TOPS_DATA | TOPS_DEFINITION
        7.3245,Doyles Creek Subgroup           
      418.1828,Horseshoe Creek Subgroup        
      489.9400,Apple Tree Flat Subgroup        
      747.8995,Watts Sandstone                 
      770.7885,Denman Fm                       
      893.5882,Mt Leonard Fm                   
     1010.7801,Althorpe Fm                     
     1070.0628,Malabar Fm                      
     1106.6852,Mt Ogilvie Fm                   
     1195.3803,Mt Thorley Fm                   
     1223.0760,Burnamwood Fm                   
     1326.0767,Archerfield Sandstone           
     1336.0334,Mulbring Siltstone              
     1401.7250,Muree Sandstone                 
     1458.2609,Branxton Fm                     

~PARAMETER 
#MNEM.UNIT                    VALUE                        DESCRIPTION
#--------------- ---         ------------                 -----------------

~CURVE 
#MNEM.UNIT                 LOG CODE                  CURVE DESCRIPTION
#----------- ----         ------------              -----------------
MD          .M                                      :     {F}
GR          .GAPI         94054010                  : GR_1 (Cleared: Bottom)    {F}
LLD         .OHMM         94220100                  :     {F}
NPHI        .V/V                                    :     {F}
RHOB        .K/M3         94094010                  :     {F}

~ASCII | CURVE 
# ...
     924.15289,       61.4000,        2.2080,   -999.250000,     -999.2500
     924.30529,       61.2000,        2.2336,   -999.250000,     -999.2500
     924.45769,       60.6000,        2.3121,   -999.250000,     -999.2500
     924.61009,       59.5000,        2.4099,   -999.250000,     -999.2500
     924.76249,       58.2000,        2.4547,   -999.250000,     -999.2500
     924.91489,       58.4000,        2.4491,   -999.250000,     -999.2500
     925.06729,       60.3000,        2.4099,   -999.250000,     -999.2500
     925.21969,       62.1000,        2.3605,   -999.250000,     -999.2500
     925.37209,       61.8000,        2.3174,   -999.250000,     -999.2500
     925.52449,       60.0000,        2.2699,   -999.250000,     -999.2500
     925.67689,       58.4000,        2.2131,   -999.250000,     -999.2500
     925.82929,       57.5000,        2.2182,   -999.250000,     -999.2500
     925.98169,       56.5000,        2.2439,   -999.250000,     -999.2500
     926.13409,       55.3000,        2.2594,   -999.250000,     -999.2500
     926.28649,       55.1000,        2.2284,   -999.250000,     -999.2500
     926.43889,       55.5000,        2.2080,   -999.250000,     -999.2500
     926.59129,       55.3000,        2.1878,   -999.250000,     -999.2500
     926.74369,       54.7000,        2.2080,   -999.250000,     -999.2500
     926.89609,       55.3000,        2.2594,   -999.250000,     -999.2500
     927.04849,       57.9000,        2.3227,   -999.250000,     -999.2500
     927.20089,       60.6000,        2.3442,   -999.250000,     -999.2500
     927.35329,       62.3000,        2.2751,   -999.250000,     -999.2500
     927.50569,       62.7000,        2.1777,   -999.250000,     -999.2500
     927.65809,       62.5000,        2.0893,   -999.250000,     -999.2500
     927.81049,       63.0000,        2.0559,   -999.250000,     -999.2500
     927.96289,       63.9000,        2.0654,   -999.250000,     -999.2500
     928.11529,       64.4000,        2.0654,   -999.250000,     -999.2500
     928.26769,       64.3000,        2.0512,   -999.250000,     -999.2500
     928.42009,       64.1000,        1.9815,   -999.250000,     -999.2500
     928.57249,       65.0000,        1.9099,   -999.250000,     -999.2500
     928.72489,       66.1000,        1.8578,   -999.250000,     -999.2500
     928.87729,       66.2000,        1.8621,   -999.250000,     -999.2500
     929.02969,       65.9000,        1.9187,   -999.250000,     -999.2500
     929.18209,       65.7000,        1.9724,   -999.250000,     -999.2500
     929.33449,       65.6000,        2.0417,   -999.250000,     -999.2500
     929.48689,       65.2000,        2.0091,   -999.250000,     -999.2500
     929.63929,       64.5000,        1.9724,   -999.250000,     -999.2500
     929.79169,       64.7000,        1.8793,   -999.250000,     -999.2500
     929.94409,       65.5000,        1.8750,   -999.250000,     -999.2500
     930.09649,       66.5000,        1.9099,   -999.250000,     -999.2500
     930.24889,       67.7000,        1.9634,   -999.250000,     -999.2500
     930.40129,       68.6000,        1.9999,   -999.250000,     -999.2500
     930.55369,       68.5000,        1.9815,   -999.250000,     -999.2500
     930.70608,       66.9000,        1.9143,   -999.250000,     -999.2500
     930.85848,       65.7000,        1.8578,   -999.250000,     -999.2500
     931.01088,       66.1000,        1.8281,   -999.250000,     -999.2500
     931.16328,       66.7000,        1.9099,   -999.250000,     -999.2500
     931.31568,       66.1000,        1.9679,   -999.250000,     -999.2500
     931.46808,       65.0000,        2.0749,   -999.250000,     -999.2500
     931.62048,       65.0000,        2.1478,   -999.250000,     -999.2500
     931.77288,       65.7000,        2.2233,   -999.250000,     -999.2500
     931.92528,       65.9000,        2.2233,   -999.250000,     -999.2500
     932.07768,       65.8000,        2.1627,   -999.250000,     -999.2500
     932.23008,       65.4000,        2.1135,   -999.250000,     -999.2500
     932.38248,       64.7000,        2.0893,   -999.250000,     -999.2500
     932.53488,       64.6000,        2.0749,   -999.250000,     -999.2500
     932.68728,       65.3000,        2.0417,   -999.250000,     -999.2500
     932.83968,       67.0000,        1.9999,   -999.250000,     -999.2500
     932.99208,       68.7000,        1.9907,   -999.250000,     -999.2500
     933.14448,       70.0000,        2.0137,   -999.250000,     -999.2500
     933.29688,       70.2000,        2.0559,   -999.250000,     -999.2500
     933.44928,       69.3000,        2.0464,   -999.250000,     -999.2500
     933.60168,       67.9000,        1.9861,   -999.250000,     -999.2500
     933.75408,       67.9000,        1.9320,   -999.250000,     -999.2500
     933.90648,       66.4000,        1.9231,   -999.250000,     -999.2500
     934.05888,       64.7000,        1.9498,   -999.250000,     -999.2500
     934.21128,       63.4000,        2.0277,   -999.250000,     -999.2500
     934.36368,       63.6000,        2.0230,   -999.250000,     -999.2500
     934.51608,       64.7000,        2.0091,   -999.250000,     -999.2500
     934.66848,       64.8000,        1.9498,   -999.250000,     -999.2500
     934.82088,       63.6000,        1.9724,   -999.250000,     -999.2500
     934.97328,       62.3000,        2.0137,   -999.250000,     -999.2500
     935.12568,       62.7000,        2.1330,   -999.250000,     -999.2500
     935.27808,       64.8000,        2.3068,   -999.250000,     -999.2500
     935.43048,       66.4000,        2.4547,   -999.250000,     -999.2500
     935.58288,       66.2000,        2.5410,   -999.250000,     -999.2500
     935.73528,       64.7000,        2.5645,   -999.250000,     -999.2500
     935.88768,       63.0000,        2.5882,   -999.250000,     -999.2500
     936.04008,       61.9000,        2.6061,   -999.250000,     -999.2500
     936.19248,       60.2000,        2.6915,   -999.250000,     -999.2500
     936.34488,       59.1000,        2.7797,   -999.250000,     -999.2500
     936.49728,       60.8000,        2.7925,   -999.250000,     -999.2500
     936.64968,       64.8000,        2.6546,   -999.250000,     -999.2500
     936.80208,       68.3000,        2.4889,   -999.250000,     -999.2500
     936.95448,       69.2000,        2.3988,   -999.250000,     -999.2500
     937.10688,       68.1000,        2.4491,   -999.250000,     -999.2500
     937.25928,       66.2000,        2.6061,   -999.250000,     -999.2500
     937.41168,       64.3000,        2.6854,   -999.250000,     -999.2500
     937.56408,       63.1000,        2.6363,   -999.250000,     -999.2500
     937.71648,       62.6000,        2.4491,   -999.250000,     -999.2500
     937.86888,       63.0000,        2.2646,   -999.250000,     -999.2500
     938.02128,       64.5000,        2.1135,   -999.250000,     -999.2500
     938.17368,       66.5000,        2.0512,   -999.250000,     -999.2500
     938.32608,       67.5000,        2.0277,   -999.250000,     -999.2500
     938.47848,       67.6000,        2.0512,   -999.250000,     -999.2500
     938.63088,       69.0000,        2.0559,   -999.250000,     -999.2500
     938.78328,       71.8000,        2.0941,   -999.250000,     -999.2500
     938.93568,       73.0000,        2.1330,   -999.250000,     -999.2500
     939.08808,       71.5000,        2.1627,   -999.250000,     -999.2500
     939.24048,       68.5000,        2.2336,   -999.250000,     -999.2500
     939.39288,       66.6000,        2.2490,   -999.250000,     -999.2500
     939.54528,       65.8000,        2.2646,   -999.250000,     -999.2500
     939.69768,       65.3000,        2.2029,   -999.250000,     -999.2500
     939.85008,       65.5000,        2.1627,   -999.250000,     -999.2500
     940.00248,       66.3000,        2.0845,   -999.250000,     -999.2500
     940.15488,       66.7000,        2.0230,   -999.250000,     -999.2500
     940.30728,       65.6000,        1.9907,   -999.250000,     -999.2500
