~Version
VERS  .             3.0                                 : CWLS LOG ASCII STANDARD - VERSION 3.0
WRAP  .             NO                                  : One line per depth step
DLM   .             COMMA                               : Delimiter character between data columns
#Delimiting character ( SPACE TAB OR COMMA ).

~Well
#MNEM.UNIT          DATA                                DESCRIPTION
#----- ----        -----------------                   -----------
STRT  .M                 10.97280                       : FIRST INDEX VALUE
STOP  .M               1459.68607                       : LAST INDEX VALUE
STEP  .M                  0.15240                       : STEP OF INDEX
NULL  .             -999.25                             : NULL VALUE
COMP  .                                                 : COMPANY
WELL  .             KRAZ                                : WELL
FLD   .                                                 : FIELD
LOC   .                                                 : LOCATION
SRVC  .                                                 : SERVICE COMPANY
CTRY  .                                                 : COUNTRY
PROV  .                                                 : PROVINCE
UWI   .                                                 : UNIQUE WELL ID
LIC   .                                                 : LICENSE NUMBER
STAT  .                                                 : STATE
CNTY  .                                                 : COUNTY
API   .                                                 : API NUMBER
DATE  .                                                 : LOG DATE
X     .             653929.1957502                      : X OR EAST-WEST COORDINATE
Y     .             8158539.624245                      : Y OR NORTH-SOUTH COORDINATE
HZCS  .                                                 : HORIZONTAL CO-ORDINATE SYSTEM
LATI  .             -16.65055555556                     : LATITUDE
LONG  .             154.4433333333                      : LONGITUDE
GDAT  .                                                 : GEODETIC DATUM

~DEVIATION_PARAMETER 
#MNEM.UNIT                    VALUE                        DESCRIPTION
#--------------- ---         ------------                 -----------------

~DEVIATION_DEFINITION 
#MNEM.UNIT                 LOG CODE                  CURVE DESCRIPTION
#----------- ----         ------------              -----------------
DEPTH       .M                                      :     {F}
AZIMUTH     .DEG                                    :     {F}
DEVIATION   .DEG                                    : 90-DIP    {F}

~DEVIATION_DATA | DEVIATION_DEFINITION
       31.0000,        0.0000,        0.2500
       91.0000,        0.0000,        0.2500
      158.0000,        0.0000,        0.5000
      308.0000,        0.0000,        0.5000
      460.0000,        0.0000,        0.2500
      614.0000,        0.0000,        1.0000
      787.0000,        0.0000,        2.0000
      873.0000,        0.0000,        2.0000
      984.0000,        0.0000,        1.2500
     1146.0000,        0.0000,        1.5000
     1298.0000,        0.0000,        0.7500
     1454.0000,        0.0000,        0.7500

~TOPS_PARAMETER 
#MNEM.UNIT                    VALUE                        DESCRIPTION
#--------------- ---         ------------                 -----------------

~TOPS_DEFINITION 
#MNEM.UNIT                 LOG CODE                  CURVE DESCRIPTION
#----------- ----         ------------              -----------------
DEPTH       .M                                      :     {F}
TOPS        .                                       : Created by PICKS COMMAND    {S32}

~TOPS_DATA | TOPS_DEFINITION
        7.3245,Doyles Creek Subgroup           
      418.1828,Horseshoe Creek Subgroup        
      489.9400,Apple Tree Flat Subgroup        
      747.8995,Watts Sandstone                 
      770.7885,Denman Fm                       
      893.5882,Mt Leonard Fm                   
     1010.7801,Althorpe Fm                     
     1070.0628,Malabar Fm                      
     1106.6852,Mt Ogilvie Fm                   
     1195.3803,Mt Thorley Fm                   
     1223.0760,Burnamwood Fm                   
     1326.0767,Archerfield Sandstone           
     1336.0334,Mulbring Siltstone              
     1401.7250,Muree Sandstone                 
     1458.2609,Branxton Fm                     

~PARAMETER 
#MNEM.UNIT                    VALUE                        DESCRIPTION
#--------------- ---         ------------                 -----------------

~CURVE 
#MNEM.UNIT                 LOG CODE                  CURVE DESCRIPTION
#----------- ----         ------------              -----------------
MD          .M                                      :     {F}
GR          .GAPI         94054010                  : GR_1 (Cleared: Bottom)    {F}
LLD         .OHMM         94220100                  :     {F}
NPHI        .V/V                                    :     {F}
RHOB        .K/M3         94094010                  :     {F}

~ASCII | CURVE 
# ...
     483.86963,       58.7000,        3.9355,   -999.250000,     -999.2500
     484.02203,       57.1000,        3.7757,   -999.250000,     -999.2500
     484.17443,       55.7000,        3.4674,   -999.250000,     -999.2500
     484.32683,       55.4000,        3.1696,   -999.250000,     -999.2500
     484.47923,       55.5000,        3.1842,   -999.250000,     -999.2500
     484.63163,       55.4000,        3.4994,   -999.250000,     -999.2500
     484.78403,       54.7000,        3.9994,   -999.250000,     -999.2500
     484.93643,       54.4000,        4.4874,   -999.250000,     -999.2500
     485.08883,       55.3000,        4.7643,   -999.250000,     -999.2500
     485.24123,       56.2000,        4.8865,   -999.250000,     -999.2500
     485.39363,       56.7000,        4.9317,   -999.250000,     -999.2500
     485.54603,       56.5000,        4.8978,   -999.250000,     -999.2500
     485.69843,       56.3000,        4.8529,   -999.250000,     -999.2500
     485.85083,       56.3000,        4.7973,   -999.250000,     -999.2500
     486.00323,       56.2000,        4.8529,   -999.250000,     -999.2500
     486.15563,       55.5000,        4.8753,   -999.250000,     -999.2500
     486.30803,       54.2000,        4.8529,   -999.250000,     -999.2500
     486.46043,       54.3000,        4.7315,   -999.250000,     -999.2500
     486.61283,       56.1000,        4.4978,   -999.250000,     -999.2500
     486.76523,       58.6000,        4.3351,   -999.250000,     -999.2500
     486.91763,       60.8000,        4.2560,   -999.250000,     -999.2500
     487.07003,       61.5000,        4.4259,   -999.250000,     -999.2500
     487.22243,       60.7000,        4.6773,   -999.250000,     -999.2500
     487.37483,       58.1000,        4.9774,   -999.250000,     -999.2500
     487.52723,       55.7000,        5.2000,   -999.250000,     -999.2500
     487.67963,       54.6000,        5.3088,   -999.250000,     -999.2500
     487.83203,       54.2000,        5.2481,   -999.250000,     -999.2500
     487.98443,       54.1000,        5.1880,   -999.250000,     -999.2500
     488.13683,       52.9000,        5.3827,   -999.250000,     -999.2500
     488.28923,       50.3000,        6.0256,   -999.250000,     -999.2500
     488.44163,       47.3000,        6.8391,   -999.250000,     -999.2500
     488.59403,       44.8000,        7.8524,   -999.250000,     -999.2500
     488.74643,       43.0000,        9.1411,   -999.250000,     -999.2500
     488.89883,       41.7000,       11.0917,   -999.250000,     -999.2500
     489.05123,       41.8000,       15.2055,   -999.250000,     -999.2500
     489.20363,       44.4000,       18.5353,   -999.250000,     -999.2500
     489.35603,       49.0000,       17.6604,   -999.250000,     -999.2500
     489.50843,       53.9000,       12.7938,   -999.250000,     -999.2500
     489.66083,       56.5000,        7.4989,   -999.250000,     -999.2500
     489.81323,       56.2000,        5.4200,   -999.250000,     -999.2500
     489.96563,       54.5000,        4.7098,   -999.250000,     -999.2500
     490.11803,       53.5000,        4.6238,   -999.250000,     -999.2500
     490.27043,       53.6000,        4.7753,   -999.250000,     -999.2500
     490.42283,       54.2000,        4.9431,   -999.250000,     -999.2500
     490.57523,       54.4000,        5.0816,   -999.250000,     -999.2500
     490.72763,       53.4000,        5.1404,   -999.250000,     -999.2500
     490.88003,       52.2000,        5.0816,   -999.250000,     -999.2500
     491.03243,       51.9000,        4.9774,   -999.250000,     -999.2500
     491.18483,       52.3000,        4.8865,   -999.250000,     -999.2500
     491.33723,       53.1000,        4.8529,   -999.250000,     -999.2500
     491.48963,       54.4000,        4.8978,   -999.250000,     -999.2500
     491.64203,       55.5000,        4.9431,   -999.250000,     -999.2500
     491.79443,       56.2000,        5.0119,   -999.250000,     -999.2500
     491.94683,       56.8000,        5.1404,   -999.250000,     -999.2500
     492.09923,       58.1000,        5.2723,   -999.250000,     -999.2500
     492.25163,       58.9000,        5.4450,   -999.250000,     -999.2500
     492.40403,       57.5000,        5.5719,   -999.250000,     -999.2500
     492.55643,       56.1000,        5.5081,   -999.250000,     -999.2500
     492.70883,       56.8000,        5.3211,   -999.250000,     -999.2500
     492.86123,       58.8000,        4.9774,   -999.250000,     -999.2500
     493.01363,       59.7000,        4.6559,   -999.250000,     -999.2500
     493.16603,       58.8000,        4.3853,   -999.250000,     -999.2500
     493.31843,       58.5000,        4.2073,   -999.250000,     -999.2500
     493.47082,       59.3000,        4.2364,   -999.250000,     -999.2500
     493.62322,       58.8000,        4.2658,   -999.250000,     -999.2500
     493.77562,       57.2000,        4.3251,   -999.250000,     -999.2500
     493.92802,       57.1000,        4.3351,   -999.250000,     -999.2500
     494.08042,       59.6000,        4.3853,   -999.250000,     -999.2500
     494.23282,       61.6000,        4.4055,   -999.250000,     -999.2500
     494.38522,       60.3000,        4.4055,   -999.250000,     -999.2500
     494.53762,       58.8000,        4.4978,   -999.250000,     -999.2500
     494.69002,       59.8000,        4.6132,   -999.250000,     -999.2500
     494.84242,       62.2000,        4.7206,   -999.250000,     -999.2500
     494.99482,       63.9000,        4.7643,   -999.250000,     -999.2500
     495.14722,       64.0000,        4.7643,   -999.250000,     -999.2500
     495.29962,       63.5000,        4.6666,   -999.250000,     -999.2500
     495.45202,       62.4000,        4.4566,   -999.250000,     -999.2500
     495.60442,       60.8000,        4.2364,   -999.250000,     -999.2500
     495.75682,       59.2000,        4.1210,   -999.250000,     -999.2500
     495.90922,       58.8000,        4.0551,   -999.250000,     -999.2500
     496.06162,       60.4000,        3.9719,   -999.250000,     -999.2500
     496.21402,       63.0000,        3.8548,   -999.250000,     -999.2500
     496.36642,       65.4000,        3.6224,   -999.250000,     -999.2500
     496.51882,       66.9000,        3.3497,   -999.250000,     -999.2500
     496.67122,       67.6000,        3.0620,   -999.250000,     -999.2500
     496.82362,       67.9000,        2.8708,   -999.250000,     -999.2500
     496.97602,       68.1000,        2.7479,   -999.250000,     -999.2500
     497.12842,       68.1000,        2.7040,   -999.250000,     -999.2500
     497.28082,       67.4000,        2.7542,   -999.250000,     -999.2500
     497.43322,       66.3000,        2.8379,   -999.250000,     -999.2500
     497.58562,       66.1000,        2.9040,   -999.250000,     -999.2500
     497.73802,       66.2000,        2.8840,   -999.250000,     -999.2500
     497.89042,       65.2000,        2.8054,   -999.250000,     -999.2500
     498.04282,       63.5000,        2.6669,   -999.250000,     -999.2500
     498.19522,       63.2000,        2.5823,   -999.250000,     -999.2500
     498.34762,       65.0000,        2.5763,   -999.250000,     -999.2500
     498.50002,       67.5000,        2.6424,   -999.250000,     -999.2500
     498.65242,       68.8000,        2.7797,   -999.250000,     -999.2500
     498.80482,       68.2000,        2.9377,   -999.250000,     -999.2500
     498.95722,       65.9000,        3.1046,   -999.250000,     -999.2500
     499.10962,       64.1000,        3.1989,   -999.250000,     -999.2500
     499.26202,       63.5000,        3.2961,   -999.250000,     -999.2500
     499.41442,       64.4000,        3.4119,   -999.250000,     -999.2500
     499.56682,       65.1000,        3.5727,   -999.250000,     -999.2500
     499.71922,       64.7000,        3.8194,   -999.250000,     -999.2500
     499.87162,       63.6000,        4.0458,   -999.250000,     -999.2500
     500.02402,       62.0000,        4.2073,   -999.250000,     -999.2500
