~Version
VERS  .             3.0                                 : CWLS LOG ASCII STANDARD - VERSION 3.0
WRAP  .             NO                                  : One line per depth step
DLM   .             COMMA                               : Delimiter character between data columns
#Delimiting character ( SPACE TAB OR COMMA ).

~Well
#MNEM.UNIT          DATA                                DESCRIPTION
#----- ----        -----------------                   -----------
STRT  .M                 10.97280                       : FIRST INDEX VALUE
STOP  .M               1459.68607                       : LAST INDEX VALUE
STEP  .M                  0.15240                       : STEP OF INDEX
NULL  .             -999.25                             : NULL VALUE
COMP  .                                                 : COMPANY
WELL  .             KRAZ                                : WELL
FLD   .                                                 : FIELD
LOC   .                                                 : LOCATION
SRVC  .                                                 : SERVICE COMPANY
CTRY  .                                                 : COUNTRY
PROV  .                                                 : PROVINCE
UWI   .                                                 : UNIQUE WELL ID
LIC   .                                                 : LICENSE NUMBER
STAT  .                                                 : STATE
CNTY  .                                                 : COUNTY
API   .                                                 : API NUMBER
DATE  .                                                 : LOG DATE
X     .             653929.1957502                      : X OR EAST-WEST COORDINATE
Y     .             8158539.624245                      : Y OR NORTH-SOUTH COORDINATE
HZCS  .                                                 : HORIZONTAL CO-ORDINATE SYSTEM
LATI  .             -16.65055555556                     : LATITUDE
LONG  .             154.4433333333                      : LONGITUDE
GDAT  .                                                 : GEODETIC DATUM

~DEVIATION_PARAMETER 
#MNEM.UNIT                    VALUE                        DESCRIPTION
#--------------- ---         ------------                 -----------------

~DEVIATION_DEFINITION 
#MNEM.UNIT                 LOG CODE                  CURVE DESCRIPTION
#----------- ----         ------------              -----------------
DEPTH       .M                                      :     {F}
AZIMUTH     .DEG                                    :     {F}
DEVIATION   .DEG                                    : 90-DIP    {F}

~DEVIATION_DATA | DEVIATION_DEFINITION
       31.0000,        0.0000,        0.2500
       91.0000,        0.0000,        0.2500
      158.0000,        0.0000,        0.5000
      308.0000,        0.0000,        0.5000
      460.0000,        0.0000,        0.2500
      614.0000,        0.0000,        1.0000
      787.0000,        0.0000,        2.0000
      873.0000,        0.0000,        2.0000
      984.0000,        0.0000,        1.2500
     1146.0000,        0.0000,        1.5000
     1298.0000,        0.0000,        0.7500
     1454.0000,        0.0000,        0.7500

~TOPS_PARAMETER 
#MNEM.UNIT                    VALUE                        DESCRIPTION
#--------------- ---         ------------                 -----------------

~TOPS_DEFINITION 
#MNEM.UNIT                 LOG CODE                  CURVE DESCRIPTION
#----------- ----         ------------              -----------------
DEPTH       .M                                      :     {F}
TOPS        .                                       : Created by PICKS COMMAND    {S32}

~TOPS_DATA | TOPS_DEFINITION
        7.3245,Doyles Creek Subgroup           
      418.1828,Horseshoe Creek Subgroup        
      489.9400,Apple Tree Flat Subgroup        
      747.8995,Watts Sandstone                 
      770.7885,Denman Fm                       
      893.5882,Mt Leonard Fm                   
     1010.7801,Althorpe Fm                     
     1070.0628,Malabar Fm                      
     1106.6852,Mt Ogilvie Fm                   
     1195.3803,Mt Thorley Fm                   
     1223.0760,Burnamwood Fm                   
     1326.0767,Archerfield Sandstone           
     1336.0334,Mulbring Siltstone              
     1401.7250,Muree Sandstone                 
     1458.2609,Branxton Fm                     

~PARAMETER 
#MNEM.UNIT                    VALUE                        DESCRIPTION
#--------------- ---         ------------                 -----------------

~CURVE 
#MNEM.UNIT                 LOG CODE                  CURVE DESCRIPTION
#----------- ----         ------------              -----------------
MD          .M                                      :     {F}
GR          .GAPI         94054010                  : GR_1 (Cleared: Bottom)    {F}
LLD         .OHMM         94220100                  :     {F}
NPHI        .V/V                                    :     {F}
RHOB        .K/M3         94094010                  :     {F}

~ASCII | CURVE 
# ...
     222.96104,       48.0000,        1.9143,   -999.250000,     -999.2500
     223.11344,       46.0000,        1.7022,   -999.250000,     -999.2500
     223.26583,       48.6000,        1.5849,   -999.250000,     -999.2500
     223.41823,       52.5000,        1.5240,   -999.250000,     -999.2500
     223.57063,       55.1000,        1.5885,   -999.250000,     -999.2500
     223.72303,       55.8000,        1.6368,   -999.250000,     -999.2500
     223.87543,       56.7000,        1.6596,   -999.250000,     -999.2500
     224.02783,       59.0000,        1.6596,   -999.250000,     -999.2500
     224.18023,       61.2000,        1.6596,   -999.250000,     -999.2500
     224.33263,       62.4000,        1.7418,   -999.250000,     -999.2500
     224.48503,       62.1000,        1.8072,   -999.250000,     -999.2500
     224.63743,       60.8000,        1.8408,   -999.250000,     -999.2500
     224.78983,       58.3000,        1.7579,   -999.250000,     -999.2500
     224.94223,       54.3000,        1.6033,   -999.250000,     -999.2500
     225.09463,       50.5000,        1.4962,   -999.250000,     -999.2500
     225.24703,       49.6000,        1.4825,   -999.250000,     -999.2500
     225.39943,       52.4000,        1.6033,   -999.250000,     -999.2500
     225.55183,       56.4000,        1.7140,   -999.250000,     -999.2500
     225.70423,       59.0000,        1.7865,   -999.250000,     -999.2500
     225.85663,       60.3000,        1.7783,   -999.250000,     -999.2500
     226.00903,       61.2000,        1.7498,   -999.250000,     -999.2500
     226.16143,       61.8000,        1.7100,   -999.250000,     -999.2500
     226.31383,       62.2000,        1.6865,   -999.250000,     -999.2500
     226.46623,       62.7000,        1.6634,   -999.250000,     -999.2500
     226.61863,       63.2000,        1.6558,   -999.250000,     -999.2500
     226.77103,       64.1000,        1.6672,   -999.250000,     -999.2500
     226.92343,       64.6000,        1.6749,   -999.250000,     -999.2500
     227.07583,       64.3000,        1.6982,   -999.250000,     -999.2500
     227.22823,       63.2000,        1.6596,   -999.250000,     -999.2500
     227.38063,       62.1000,        1.6596,   -999.250000,     -999.2500
     227.53303,       62.3000,        1.6368,   -999.250000,     -999.2500
     227.68543,       63.1000,        1.6634,   -999.250000,     -999.2500
     227.83783,       63.0000,        1.7418,   -999.250000,     -999.2500
     227.99023,       61.0000,        1.7989,   -999.250000,     -999.2500
     228.14263,       58.0000,        1.8493,   -999.250000,     -999.2500
     228.29503,       55.6000,        1.7783,   -999.250000,     -999.2500
     228.44743,       54.7000,        1.6749,   -999.250000,     -999.2500
     228.59983,       55.9000,        1.5922,   -999.250000,     -999.2500
     228.75223,       58.5000,        1.5632,   -999.250000,     -999.2500
     228.90463,       60.5000,        1.6520,   -999.250000,     -999.2500
     229.05703,       61.4000,        1.7219,   -999.250000,     -999.2500
     229.20943,       62.0000,        1.7579,   -999.250000,     -999.2500
     229.36183,       63.0000,        1.7061,   -999.250000,     -999.2500
     229.51423,       63.1000,        1.6558,   -999.250000,     -999.2500
     229.66663,       62.1000,        1.6368,   -999.250000,     -999.2500
     229.81903,       61.5000,        1.6444,   -999.250000,     -999.2500
     229.97143,       61.2000,        1.6672,   -999.250000,     -999.2500
     230.12383,       59.9000,        1.6827,   -999.250000,     -999.2500
     230.27623,       58.4000,        1.6788,   -999.250000,     -999.2500
     230.42863,       57.8000,        1.6558,   -999.250000,     -999.2500
     230.58103,       57.9000,        1.5849,   -999.250000,     -999.2500
     230.73343,       57.6000,        1.5311,   -999.250000,     -999.2500
     230.88583,       56.2000,        1.5066,   -999.250000,     -999.2500
     231.03823,       54.6000,        1.5101,   -999.250000,     -999.2500
     231.19063,       54.0000,        1.5488,   -999.250000,     -999.2500
     231.34303,       54.8000,        1.5668,   -999.250000,     -999.2500
     231.49543,       56.2000,        1.6033,   -999.250000,     -999.2500
     231.64783,       56.1000,        1.5595,   -999.250000,     -999.2500
     231.80023,       55.0000,        1.5240,   -999.250000,     -999.2500
     231.95263,       54.3000,        1.4757,   -999.250000,     -999.2500
     232.10503,       54.8000,        1.4689,   -999.250000,     -999.2500
     232.25743,       55.2000,        1.3900,   -999.250000,     -999.2500
     232.40983,       53.6000,        1.2853,   -999.250000,     -999.2500
     232.56223,       50.4000,        1.2106,   -999.250000,     -999.2500
     232.71463,       47.3000,        1.2023,   -999.250000,     -999.2500
     232.86703,       45.9000,        1.2416,   -999.250000,     -999.2500
     233.01943,       45.8000,        1.3092,   -999.250000,     -999.2500
     233.17183,       46.3000,        1.4061,   -999.250000,     -999.2500
     233.32423,       48.7000,        1.5171,   -999.250000,     -999.2500
     233.47663,       52.9000,        1.6069,   -999.250000,     -999.2500
     233.62903,       56.1000,        1.6069,   -999.250000,     -999.2500
     233.78143,       56.1000,        1.6144,   -999.250000,     -999.2500
     233.93383,       53.8000,        1.8030,   -999.250000,     -999.2500
     234.08623,       50.8000,        2.5586,   -999.250000,     -999.2500
     234.23863,       47.2000,        4.9317,   -999.250000,     -999.2500
     234.39103,       43.5000,        9.5940,   -999.250000,     -999.2500
     234.54343,       41.7000,       11.5878,   -999.250000,     -999.2500
     234.69583,       42.4000,        9.8855,   -999.250000,     -999.2500
     234.84823,       44.5000,        5.1286,   -999.250000,     -999.2500
     235.00063,       46.8000,        2.3605,   -999.250000,     -999.2500
     235.15303,       48.4000,        1.6144,   -999.250000,     -999.2500
     235.30543,       49.6000,        1.4555,   -999.250000,     -999.2500
     235.45783,       51.1000,        1.5136,   -999.250000,     -999.2500
     235.61023,       52.8000,        1.5704,   -999.250000,     -999.2500
     235.76263,       54.1000,        1.5488,   -999.250000,     -999.2500
     235.91503,       54.3000,        1.4894,   -999.250000,     -999.2500
     236.06742,       54.1000,        1.4093,   -999.250000,     -999.2500
     236.21982,       53.9000,        1.4825,   -999.250000,     -999.2500
     236.37222,       52.9000,        1.8880,   -999.250000,     -999.2500
     236.52462,       51.0000,        2.4155,   -999.250000,     -999.2500
     236.67702,       49.0000,        2.7925,   -999.250000,     -999.2500
     236.82942,       49.1000,        2.6485,   -999.250000,     -999.2500
     236.98182,       51.3000,        2.1232,   -999.250000,     -999.2500
     237.13422,       53.8000,        1.6368,   -999.250000,     -999.2500
     237.28662,       55.8000,        1.3868,   -999.250000,     -999.2500
     237.43902,       57.4000,        1.4521,   -999.250000,     -999.2500
     237.59142,       58.9000,        1.4859,   -999.250000,     -999.2500
     237.74382,       59.3000,        1.4997,   -999.250000,     -999.2500
     237.89622,       58.2000,        1.4355,   -999.250000,     -999.2500
     238.04862,       56.9000,        1.4061,   -999.250000,     -999.2500
     238.20102,       55.7000,        1.3868,   -999.250000,     -999.2500
     238.35342,       54.8000,        1.3677,   -999.250000,     -999.2500
     238.50582,       54.1000,        1.3335,   -999.250000,     -999.2500
     238.65822,       53.2000,        1.3032,   -999.250000,     -999.2500
     238.81062,       53.0000,        1.3152,   -999.250000,     -999.2500
     238.96302,       55.2000,        1.3552,   -999.250000,     -999.2500
     239.11542,       58.8000,        1.3964,   -999.250000,     -999.2500
