~Version
VERS  .             3.0                                 : CWLS LOG ASCII STANDARD - VERSION 3.0
WRAP  .             NO                                  : One line per depth step
DLM   .             COMMA                               : Delimiter character between data columns
#Delimiting character ( SPACE TAB OR COMMA ).

~Well
#MNEM.UNIT          DATA                                DESCRIPTION
#----- ----        -----------------                   -----------
STRT  .M                 10.97280                       : FIRST INDEX VALUE
STOP  .M               1459.68607                       : LAST INDEX VALUE
STEP  .M                  0.15240                       : STEP OF INDEX
NULL  .             -999.25                             : NULL VALUE
COMP  .                                                 : COMPANY
WELL  .             KRAZ                                : WELL
FLD   .                                                 : FIELD
LOC   .                                                 : LOCATION
SRVC  .                                                 : SERVICE COMPANY
CTRY  .                                                 : COUNTRY
PROV  .                                                 : PROVINCE
UWI   .                                                 : UNIQUE WELL ID
LIC   .                                                 : LICENSE NUMBER
STAT  .                                                 : STATE
CNTY  .                                                 : COUNTY
API   .                                                 : API NUMBER
DATE  .                                                 : LOG DATE
X     .             653929.1957502                      : X OR EAST-WEST COORDINATE
Y     .             8158539.624245                      : Y OR NORTH-SOUTH COORDINATE
HZCS  .                                                 : HORIZONTAL CO-ORDINATE SYSTEM
LATI  .             -16.65055555556                     : LATITUDE
LONG  .             154.4433333333                      : LONGITUDE
GDAT  .                                                 : GEODETIC DATUM

~DEVIATION_PARAMETER 
#MNEM.UNIT                    VALUE                        DESCRIPTION
#--------------- ---         ------------                 -----------------

~DEVIATION_DEFINITION 
#MNEM.UNIT                 LOG CODE                  CURVE DESCRIPTION
#----------- ----         ------------              -----------------
DEPTH       .M                                      :     {F}
AZIMUTH     .DEG                                    :     {F}
DEVIATION   .DEG                                    : 90-DIP    {F}

~DEVIATION_DATA | DEVIATION_DEFINITION
       31.0000,        0.0000,        0.2500
       91.0000,        0.0000,        0.2500
      158.0000,        0.0000,        0.5000
      308.0000,        0.0000,        0.5000
      460.0000,        0.0000,        0.2500
      614.0000,        0.0000,        1.0000
      787.0000,        0.0000,        2.0000
      873.0000,        0.0000,        2.0000
      984.0000,        0.0000,        1.2500
     1146.0000,        0.0000,        1.5000
     1298.0000,        0.0000,        0.7500
     1454.0000,        0.0000,        0.7500

~TOPS_PARAMETER 
#MNEM.UNIT                    VALUE                        DESCRIPTION
#--------------- ---         ------------                 -----------------

~TOPS_DEFINITION 
#MNEM.UNIT                 LOG CODE                  CURVE DESCRIPTION
#----------- ----         ------------              -----------------
DEPTH       .M                                      :     {F}
TOPS        .                                       : Created by PICKS COMMAND    {S32}

~TOPS_DATA | TOPS_DEFINITION
        7.3245,Doyles Creek Subgroup           
      418.1828,Horseshoe Creek Subgroup        
      489.9400,Apple Tree Flat Subgroup        
      747.8995,Watts Sandstone                 
      770.7885,Denman Fm                       
      893.5882,Mt Leonard Fm                   
     1010.7801,Althorpe Fm                     
     1070.0628,Malabar Fm                      
     1106.6852,Mt Ogilvie Fm                   
     1195.3803,Mt Thorley Fm                   
     1223.0760,Burnamwood Fm                   
     1326.0767,Archerfield Sandstone           
     1336.0334,Mulbring Siltstone              
     1401.7250,Muree Sandstone                 
     1458.2609,Branxton Fm                     

~PARAMETER 
#MNEM.UNIT                    VALUE                        DESCRIPTION
#--------------- ---         ------------                 -----------------

~CURVE 
#MNEM.UNIT                 LOG CODE                  CURVE DESCRIPTION
#----------- ----         ------------              -----------------
MD          .M                                      :     {F}
GR          .GAPI         94054010                  : GR_1 (Cleared: Bottom)    {F}
LLD         .OHMM         94220100                  :     {F}
NPHI        .V/V                                    :     {F}
RHOB        .K/M3         94094010                  :     {F}

~ASCII | CURVE 
# ...
    1005.68683,       90.8000,        1.5632,      0.455700,     2398.0000
    1005.83923,       89.9000,        1.5488,      0.445400,     2375.0000
    1005.99163,       90.2000,        1.4928,      0.432500,     2323.0000
    1006.14403,       92.0000,        1.4289,      0.421100,     2234.0000
    1006.29643,       93.5000,        1.3900,      0.417400,     2145.0000
    1006.44883,       93.0000,        1.4322,      0.419700,     2105.0000
    1006.60123,       91.6000,        1.4655,      0.425400,     2143.0000
    1006.75363,       90.4000,        1.5066,      0.431700,     2237.0000
    1006.90603,       89.3000,        1.4723,      0.439300,     2324.0000
    1007.05843,       87.6000,        1.4093,      0.449600,     2362.0000
    1007.21083,       86.0000,        1.3122,      0.458400,     2365.0000
    1007.36323,       86.1000,        1.2618,      0.460700,     2359.0000
    1007.51563,       88.0000,        1.2023,      0.454700,     2358.0000
    1007.66803,       90.0000,        1.1641,      0.438400,     2364.0000
    1007.82043,       88.4000,        1.1615,      0.413200,     2378.0000
    1007.97282,       82.8000,        1.3900,      0.387800,     2402.0000
    1008.12522,       76.3000,        1.6596,      0.370800,     2427.0000
    1008.27762,       73.5000,        2.0045,      0.364300,     2442.0000
    1008.43002,       75.9000,        1.9770,      0.366400,     2440.0000
    1008.58242,       80.0000,        1.7989,      0.375500,     2428.0000
    1008.73482,       82.8000,        1.5776,      0.389300,     2422.0000
    1008.88722,       83.6000,        1.5560,      0.402900,     2423.0000
    1009.03962,       84.1000,        1.7338,      0.411000,     2423.0000
    1009.19202,       85.0000,        1.7989,      0.413100,     2410.0000
    1009.34442,       86.6000,        1.7022,      0.410600,     2385.0000
    1009.49682,       88.1000,        1.4825,      0.408000,     2361.0000
    1009.64922,       88.6000,        1.2706,      0.406400,     2347.0000
    1009.80162,       88.0000,        1.2388,      0.406400,     2346.0000
    1009.95402,       86.5000,        1.3428,      0.407500,     2356.0000
    1010.10642,       85.2000,        1.5632,      0.405400,     2375.0000
    1010.25882,       84.2000,        1.9099,      0.397200,     2398.0000
    1010.41122,       83.2000,        2.0512,      0.384000,     2417.0000
    1010.56362,       82.6000,        2.0989,      0.371800,     2425.0000
    1010.71602,       79.9000,        2.1135,      0.363200,     2423.0000
    1010.86842,       72.9000,        2.2909,      0.353900,     2423.0000
    1011.02082,       63.3000,        3.1405,      0.343500,     2433.0000
    1011.17322,       56.8000,        4.0644,      0.331300,     2448.0000
    1011.32562,       55.2000,        4.9888,      0.316300,     2457.0000
    1011.47802,       54.1000,        5.2966,      0.298800,     2453.0000
    1011.63042,       51.1000,        5.3951,      0.281300,     2441.0000
    1011.78282,       47.7000,        5.5463,      0.274900,     2436.0000
    1011.93522,       46.0000,        6.0534,      0.281300,     2439.0000
    1012.08762,       47.7000,        6.0534,      0.303300,     2441.0000
    1012.24002,       52.8000,        5.2966,      0.328500,     2427.0000
    1012.39242,       57.7000,        3.9811,      0.344000,     2402.0000
    1012.54482,       58.8000,        3.1046,      0.344600,     2381.0000
    1012.69722,       57.7000,        2.9785,      0.334100,     2376.0000
    1012.84962,       57.2000,        3.0269,      0.321900,     2380.0000
    1013.00202,       57.5000,        3.2659,      0.323000,     2382.0000
    1013.15442,       58.3000,        3.1769,      0.343500,     2381.0000
    1013.30682,       60.0000,        2.9717,      0.373900,     2379.0000
    1013.45922,       62.1000,        2.5293,      0.397200,     2371.0000
    1013.61162,       62.7000,        2.2646,      0.409100,     2358.0000
    1013.76402,       61.7000,        2.0606,      0.414600,     2348.0000
    1013.91642,       61.5000,        1.9907,      0.414600,     2347.0000
    1014.06882,       62.3000,        1.9724,      0.404400,     2352.0000
    1014.22122,       62.6000,        2.2182,      0.388800,     2357.0000
    1014.37362,       61.9000,        2.4831,      0.378200,     2366.0000
    1014.52602,       60.9000,        2.6915,      0.373900,     2378.0000
    1014.67842,       61.0000,        2.6182,      0.369100,     2383.0000
    1014.83082,       62.0000,        2.4044,      0.366900,     2378.0000
    1014.98322,       62.9000,        2.1677,      0.377100,     2370.0000
    1015.13562,       63.5000,        2.0045,      0.391400,     2367.0000
    1015.28802,       63.4000,        1.9907,      0.395100,     2368.0000
    1015.44042,       63.0000,        2.1878,      0.388300,     2373.0000
    1015.59282,       62.8000,        2.3714,      0.382200,     2382.0000
    1015.74522,       62.9000,        2.5410,      0.379000,     2389.0000
    1015.89762,       63.3000,        2.4831,      0.375800,     2386.0000
    1016.05002,       63.0000,        2.3174,      0.370400,     2378.0000
    1016.20242,       60.8000,        2.2284,      0.358500,     2376.0000
    1016.35482,       57.3000,        2.3605,      0.337700,     2385.0000
    1016.50722,       54.7000,        2.9174,      0.315900,     2403.0000
    1016.65962,       55.3000,        3.5810,      0.305300,     2426.0000
    1016.81202,       58.2000,        4.0926,      0.310300,     2444.0000
    1016.96442,       61.0000,        3.9264,      0.327100,     2443.0000
    1017.11682,       62.2000,        3.3189,      0.345400,     2424.0000
    1017.26922,       62.1000,        2.7040,      0.354700,     2398.0000
    1017.42162,       61.6000,        2.3714,      0.355800,     2377.0000
    1017.57402,       62.3000,        2.3878,      0.355300,     2365.0000
    1017.72642,       63.9000,        2.4434,      0.356400,     2364.0000
    1017.87882,       65.7000,        2.6182,      0.358500,     2371.0000
    1018.03122,       67.1000,        2.7669,      0.361300,     2380.0000
    1018.18362,       68.3000,        2.8054,      0.360200,     2385.0000
    1018.33602,       68.3000,        2.7227,      0.352500,     2383.0000
    1018.48842,       65.7000,        2.4434,      0.342100,     2375.0000
    1018.64082,       61.3000,        2.2284,      0.332700,     2367.0000
    1018.79322,       57.2000,        2.2646,      0.328800,     2362.0000
    1018.94562,       55.0000,        2.6607,      0.330500,     2364.0000
    1019.09802,       55.1000,        3.2359,      0.332700,     2369.0000
    1019.25042,       55.9000,        3.6308,      0.329300,     2373.0000
    1019.40282,       54.7000,        3.7411,      0.317100,     2375.0000
    1019.55522,       51.2000,        3.8637,      0.300200,     2375.0000
    1019.70762,       48.1000,        4.4668,      0.284900,     2379.0000
    1019.86002,       46.4000,        5.7943,      0.274300,     2394.0000
    1020.01242,       44.2000,        7.4131,      0.268700,     2423.0000
    1020.16482,       40.4000,        9.3325,      0.265200,     2458.0000
    1020.31722,       37.6000,       10.8393,      0.261800,     2487.0000
    1020.46962,       38.0000,       12.2744,      0.259600,     2499.0000
    1020.62202,       40.2000,       12.0226,      0.262400,     2488.0000
    1020.77441,       41.7000,       10.7895,      0.271100,     2458.0000
    1020.92681,       41.7000,        8.9743,      0.279600,     2423.0000
    1021.07921,       41.0000,        8.1283,      0.285900,     2398.0000
    1021.23161,       40.8000,        8.2604,      0.291000,     2387.0000
    1021.38401,       42.0000,        8.6696,      0.298300,     2384.0000
    1021.53641,       44.3000,        9.0573,      0.305000,     2379.0000
    1021.68881,       47.2000,        8.6696,      0.310100,     2370.0000
    1021.84121,       51.7000,        7.2778,      0.317900,     2363.0000
