~Version
VERS  .             3.0                                 : CWLS LOG ASCII STANDARD - VERSION 3.0
WRAP  .             NO                                  : One line per depth step
DLM   .             COMMA                               : Delimiter character between data columns
#Delimiting character ( SPACE TAB OR COMMA ).

~Well
#MNEM.UNIT          DATA                                DESCRIPTION
#----- ----        -----------------                   -----------
STRT  .M                 10.97280                       : FIRST INDEX VALUE
STOP  .M               1459.68607                       : LAST INDEX VALUE
STEP  .M                  0.15240                       : STEP OF INDEX
NULL  .             -999.25                             : NULL VALUE
COMP  .                                                 : COMPANY
WELL  .             KRAZ                                : WELL
FLD   .                                                 : FIELD
LOC   .                                                 : LOCATION
SRVC  .                                                 : SERVICE COMPANY
CTRY  .                                                 : COUNTRY
PROV  .                                                 : PROVINCE
UWI   .                                                 : UNIQUE WELL ID
LIC   .                                                 : LICENSE NUMBER
STAT  .                                                 : STATE
CNTY  .                                                 : COUNTY
API   .                                                 : API NUMBER
DATE  .                                                 : LOG DATE
X     .             653929.1957502                      : X OR EAST-WEST COORDINATE
Y     .             8158539.624245                      : Y OR NORTH-SOUTH COORDINATE
HZCS  .                                                 : HORIZONTAL CO-ORDINATE SYSTEM
LATI  .             -16.65055555556                     : LATITUDE
LONG  .             154.4433333333                      : LONGITUDE
GDAT  .                                                 : GEODETIC DATUM

~DEVIATION_PARAMETER 
#MNEM.UNIT                    VALUE                        DESCRIPTION
#--------------- ---         ------------                 -----------------

~DEVIATION_DEFINITION 
#MNEM.UNIT                 LOG CODE                  CURVE DESCRIPTION
#----------- ----         ------------              -----------------
DEPTH       .M                                      :     {F}
AZIMUTH     .DEG                                    :     {F}
DEVIATION   .DEG                                    : 90-DIP    {F}

~DEVIATION_DATA | DEVIATION_DEFINITION
       31.0000,        0.0000,        0.2500
       91.0000,        0.0000,        0.2500
      158.0000,        0.0000,        0.5000
      308.0000,        0.0000,        0.5000
      460.0000,        0.0000,        0.2500
      614.0000,        0.0000,        1.0000
      787.0000,        0.0000,        2.0000
      873.0000,        0.0000,        2.0000
      984.0000,        0.0000,        1.2500
     1146.0000,        0.0000,        1.5000
     1298.0000,        0.0000,        0.7500
     1454.0000,        0.0000,        0.7500

~TOPS_PARAMETER 
#MNEM.UNIT                    VALUE                        DESCRIPTION
#--------------- ---         ------------                 -----------------

~TOPS_DEFINITION 
#MNEM.UNIT                 LOG CODE                  CURVE DESCRIPTION
#----------- ----         ------------              -----------------
DEPTH       .M                                      :     {F}
TOPS        .                                       : Created by PICKS COMMAND    {S32}

~TOPS_DATA | TOPS_DEFINITION
        7.3245,Doyles Creek Subgroup           
      418.1828,Horseshoe Creek Subgroup        
      489.9400,Apple Tree Flat Subgroup        
      747.8995,Watts Sandstone                 
      770.7885,Denman Fm                       
      893.5882,Mt Leonard Fm                   
     1010.7801,Althorpe Fm                     
     1070.0628,Malabar Fm                      
     1106.6852,Mt Ogilvie Fm                   
     1195.3803,Mt Thorley Fm                   
     1223.0760,Burnamwood Fm                   
     1326.0767,Archerfield Sandstone           
     1336.0334,Mulbring Siltstone              
     1401.7250,Muree Sandstone                 
     1458.2609,Branxton Fm                     

~PARAMETER 
#MNEM.UNIT                    VALUE                        DESCRIPTION
#--------------- ---         ------------                 -----------------

~CURVE 
#MNEM.UNIT                 LOG CODE                  CURVE DESCRIPTION
#----------- ----         ------------              -----------------
MD          .M                                      :     {F}
GR          .GAPI         94054010                  : GR_1 (Cleared: Bottom)    {F}
LLD         .OHMM         94220100                  :     {F}
NPHI        .V/V                                    :     {F}
RHOB        .K/M3         94094010                  :     {F}

~ASCII | CURVE 
# ...
    1185.06149,       80.0000,        8.7902,      0.335000,     2428.0000
    1185.21389,       78.5000,        8.3946,      0.335900,     2422.0000
    1185.36629,       72.3000,        7.9433,      0.325200,     2419.0000
    1185.51869,       63.3000,        8.1096,      0.306500,     2420.0000
    1185.67109,       55.2000,        8.8105,      0.284100,     2418.0000
    1185.82349,       51.2000,        9.9770,      0.270200,     2410.0000
    1185.97589,       52.3000,       10.9648,      0.267800,     2396.0000
    1186.12829,       56.8000,       10.9144,      0.272300,     2383.0000
    1186.28069,       60.5000,       10.1391,      0.275900,     2375.0000
    1186.43309,       60.4000,        9.1622,      0.275400,     2370.0000
    1186.58549,       57.3000,        8.8308,      0.271500,     2367.0000
    1186.73789,       54.7000,        9.0573,      0.263000,     2365.0000
    1186.89029,       55.3000,        9.6605,      0.251200,     2366.0000
    1187.04269,       57.0000,       10.4713,      0.241000,     2370.0000
    1187.19509,       56.6000,       11.0917,      0.236700,     2375.0000
    1187.34749,       55.1000,       12.1060,      0.239600,     2374.0000
    1187.49989,       53.8000,       12.9718,      0.249000,     2366.0000
    1187.65229,       52.4000,       13.2129,      0.261900,     2356.0000
    1187.80469,       51.2000,       12.4451,      0.270500,     2346.0000
    1187.95708,       52.5000,       11.1429,      0.272200,     2333.0000
    1188.10948,       56.6000,       10.0925,      0.271800,     2321.0000
    1188.26188,       59.9000,        9.1622,      0.276600,     2317.0000
    1188.41428,       60.2000,        8.6298,      0.289100,     2321.0000
    1188.56668,       60.0000,        8.1846,      0.299800,     2329.0000
    1188.71908,       63.0000,        7.7446,      0.304800,     2339.0000
    1188.87148,       68.6000,        7.1285,      0.308200,     2352.0000
    1189.02388,       71.9000,        6.5614,      0.317600,     2366.0000
    1189.17628,       71.0000,        6.1376,      0.333700,     2379.0000
    1189.32868,       68.8000,        5.8614,      0.345700,     2388.0000
    1189.48108,       70.1000,        5.6364,      0.342500,     2392.0000
    1189.63348,       73.5000,        5.5208,      0.324800,     2392.0000
    1189.78588,       73.4000,        5.6105,      0.309800,     2391.0000
    1189.93828,       69.5000,        5.9429,      0.311500,     2395.0000
    1190.09068,       66.8000,        6.2951,      0.324300,     2402.0000
    1190.24308,       69.0000,        6.3826,      0.332600,     2408.0000
    1190.39548,       73.5000,        6.2087,      0.329800,     2415.0000
    1190.54788,       75.0000,        5.8749,      0.322600,     2424.0000
    1190.70028,       73.9000,        5.7280,      0.318200,     2436.0000
    1190.85268,       72.9000,        5.7810,      0.314300,     2444.0000
    1191.00508,       71.9000,        6.0534,      0.307600,     2443.0000
    1191.15748,       68.2000,        6.5464,      0.300300,     2433.0000
    1191.30988,       62.4000,        7.1450,      0.292400,     2419.0000
    1191.46228,       58.9000,        7.7446,      0.282000,     2411.0000
    1191.61468,       58.5000,        8.1470,      0.271300,     2414.0000
    1191.76708,       59.7000,        8.2035,      0.264200,     2419.0000
    1191.91948,       60.7000,        8.2985,      0.260900,     2413.0000
    1192.07188,       60.6000,        8.6099,      0.262000,     2389.0000
    1192.22428,       59.6000,        9.0157,      0.267600,     2360.0000
    1192.37668,       58.6000,        9.4189,      0.276200,     2340.0000
    1192.52908,       61.0000,        9.2897,      0.286200,     2335.0000
    1192.68148,       66.8000,        8.9125,      0.289700,     2338.0000
    1192.83388,       70.5000,        8.1658,      0.285600,     2341.0000
    1192.98628,       69.6000,        7.4473,      0.282400,     2341.0000
    1193.13868,       67.6000,        7.1945,      0.287800,     2341.0000
    1193.29108,       68.8000,        7.3790,      0.295800,     2334.0000
    1193.44348,       71.9000,        8.1283,      0.297400,     2314.0000
    1193.59588,       71.9000,        8.8920,      0.288700,     2287.0000
    1193.74828,       69.0000,        9.2470,      0.274500,     2270.0000
    1193.90068,       66.7000,        9.1201,      0.261900,     2273.0000
    1194.05308,       65.9000,        8.7498,      0.253700,     2285.0000
    1194.20548,       65.0000,        8.6099,      0.248300,     2292.0000
    1194.35788,       62.3000,        8.7498,      0.246800,     2292.0000
    1194.51028,       59.2000,        8.9743,      0.244700,     2293.0000
    1194.66268,       57.8000,        9.4406,      0.241400,     2297.0000
    1194.81508,       57.6000,        9.8855,      0.240200,     2301.0000
    1194.96748,       57.3000,       10.5196,      0.244100,     2307.0000
    1195.11988,       57.4000,       11.0154,      0.249700,     2314.0000
    1195.27228,       57.5000,       11.3240,      0.251500,     2318.0000
    1195.42468,       56.6000,       11.2202,      0.246500,     2319.0000
    1195.57708,       54.8000,       10.7152,      0.238500,     2318.0000
    1195.72948,       53.1000,       10.4232,      0.232000,     2323.0000
    1195.88188,       52.6000,       10.7647,      0.229000,     2338.0000
    1196.03428,       51.8000,       11.9124,      0.229400,     2348.0000
    1196.18668,       49.4000,       13.0317,      0.231200,     2339.0000
    1196.33908,       45.8000,       13.2434,      0.233000,     2314.0000
    1196.49148,       42.0000,       12.1899,      0.235900,     2287.0000
    1196.64388,       39.2000,       10.7399,      0.237700,     2268.0000
    1196.79628,       37.3000,        9.8628,      0.236800,     2255.0000
    1196.94868,       36.6000,       10.0462,      0.232500,     2250.0000
    1197.10108,       38.3000,       11.1429,      0.230300,     2262.0000
    1197.25348,       41.2000,       12.9718,      0.232900,     2290.0000
    1197.40588,       43.0000,       14.6893,      0.237700,     2316.0000
    1197.55828,       42.4000,       15.3109,      0.235600,     2326.0000
    1197.71068,       40.9000,       14.4544,      0.228500,     2321.0000
    1197.86308,       40.3000,       12.7938,      0.222900,     2308.0000
    1198.01548,       41.7000,       11.5878,      0.223800,     2298.0000
    1198.16788,       44.9000,       11.5611,      0.227800,     2300.0000
    1198.32028,       47.5000,       12.7644,      0.230300,     2314.0000
    1198.47268,       46.9000,       14.0605,      0.229800,     2327.0000
    1198.62508,       42.8000,       14.9280,      0.226000,     2329.0000
    1198.77748,       37.6000,       14.8252,      0.220400,     2318.0000
    1198.92988,       33.9000,       14.1254,      0.214900,     2302.0000
    1199.08228,       32.4000,       13.3045,      0.211100,     2286.0000
    1199.23468,       32.2000,       12.7644,      0.210600,     2273.0000
    1199.38708,       32.0000,       12.5026,      0.212200,     2268.0000
    1199.53948,       30.8000,       12.0781,      0.210900,     2268.0000
    1199.69188,       30.3000,       11.4551,      0.204700,     2269.0000
    1199.84428,       33.3000,       10.8143,      0.197300,     2268.0000
    1199.99668,       39.0000,       10.5925,      0.193400,     2274.0000
    1200.14908,       44.7000,       11.2980,      0.194600,     2295.0000
    1200.30148,       48.8000,       12.3027,      0.197600,     2324.0000
    1200.45388,       50.4000,       12.7350,      0.197100,     2346.0000
    1200.60628,       49.4000,       12.2462,      0.187900,     2354.0000
    1200.75868,       47.3000,       12.1339,      0.166400,     2360.0000
    1200.91107,       46.3000,       13.9959,      0.134500,     2386.0000
    1201.06347,       46.1000,       21.2814,      0.101600,     2438.0000
    1201.21587,       44.2000,       49.7737,      0.078500,     2503.0000
