~Version
VERS  .             3.0                                 : CWLS LOG ASCII STANDARD - VERSION 3.0
WRAP  .             NO                                  : One line per depth step
DLM   .             COMMA                               : Delimiter character between data columns
#Delimiting character ( SPACE TAB OR COMMA ).

~Well
#MNEM.UNIT          DATA                                DESCRIPTION
#----- ----        -----------------                   -----------
STRT  .M                 10.97280                       : FIRST INDEX VALUE
STOP  .M               1459.68607                       : LAST INDEX VALUE
STEP  .M                  0.15240                       : STEP OF INDEX
NULL  .             -999.25                             : NULL VALUE
COMP  .                                                 : COMPANY
WELL  .             KRAZ                                : WELL
FLD   .                                                 : FIELD
LOC   .                                                 : LOCATION
SRVC  .                                                 : SERVICE COMPANY
CTRY  .                                                 : COUNTRY
PROV  .                                                 : PROVINCE
UWI   .                                                 : UNIQUE WELL ID
LIC   .                                                 : LICENSE NUMBER
STAT  .                                                 : STATE
CNTY  .                                                 : COUNTY
API   .                                                 : API NUMBER
DATE  .                                                 : LOG DATE
X     .             653929.1957502                      : X OR EAST-WEST COORDINATE
Y     .             8158539.624245                      : Y OR NORTH-SOUTH COORDINATE
HZCS  .                                                 : HORIZONTAL CO-ORDINATE SYSTEM
LATI  .             -16.65055555556                     : LATITUDE
LONG  .             154.4433333333                      : LONGITUDE
GDAT  .                                                 : GEODETIC DATUM

~DEVIATION_PARAMETER 
#MNEM.UNIT                    VALUE                        DESCRIPTION
#--------------- ---         ------------                 -----------------

~DEVIATION_DEFINITION 
#MNEM.UNIT                 LOG CODE                  CURVE DESCRIPTION
#----------- ----         ------------              -----------------
DEPTH       .M                                      :     {F}
AZIMUTH     .DEG                                    :     {F}
DEVIATION   .DEG                                    : 90-DIP    {F}

~DEVIATION_DATA | DEVIATION_DEFINITION
       31.0000,        0.0000,        0.2500
       91.0000,        0.0000,        0.2500
      158.0000,        0.0000,        0.5000
      308.0000,        0.0000,        0.5000
      460.0000,        0.0000,        0.2500
      614.0000,        0.0000,        1.0000
      787.0000,        0.0000,        2.0000
      873.0000,        0.0000,        2.0000
      984.0000,        0.0000,        1.2500
     1146.0000,        0.0000,        1.5000
     1298.0000,        0.0000,        0.7500
     1454.0000,        0.0000,        0.7500

~TOPS_PARAMETER 
#MNEM.UNIT                    VALUE                        DESCRIPTION
#--------------- ---         ------------                 -----------------

~TOPS_DEFINITION 
#MNEM.UNIT                 LOG CODE                  CURVE DESCRIPTION
#----------- ----         ------------              -----------------
DEPTH       .M                                      :     {F}
TOPS        .                                       : Created by PICKS COMMAND    {S32}

~TOPS_DATA | TOPS_DEFINITION
        7.3245,Doyles Creek Subgroup           
      418.1828,Horseshoe Creek Subgroup        
      489.9400,Apple Tree Flat Subgroup        
      747.8995,Watts Sandstone                 
      770.7885,Denman Fm                       
      893.5882,Mt Leonard Fm                   
     1010.7801,Althorpe Fm                     
     1070.0628,Malabar Fm                      
     1106.6852,Mt Ogilvie Fm                   
     1195.3803,Mt Thorley Fm                   
     1223.0760,Burnamwood Fm                   
     1326.0767,Archerfield Sandstone           
     1336.0334,Mulbring Siltstone              
     1401.7250,Muree Sandstone                 
     1458.2609,Branxton Fm                     

~PARAMETER 
#MNEM.UNIT                    VALUE                        DESCRIPTION
#--------------- ---         ------------                 -----------------

~CURVE 
#MNEM.UNIT                 LOG CODE                  CURVE DESCRIPTION
#----------- ----         ------------              -----------------
MD          .M                                      :     {F}
GR          .GAPI         94054010                  : GR_1 (Cleared: Bottom)    {F}
LLD         .OHMM         94220100                  :     {F}
NPHI        .V/V                                    :     {F}
RHOB        .K/M3         94094010                  :     {F}

~ASCII | CURVE 
# ...
     663.24429,       64.1000,        1.6672,   -999.250000,     -999.2500
     663.39669,       64.0000,        1.6596,   -999.250000,     -999.2500
     663.54909,       64.7000,        1.6672,   -999.250000,     -999.2500
     663.70149,       65.1000,        1.7022,   -999.250000,     -999.2500
     663.85389,       63.8000,        1.7378,   -999.250000,     -999.2500
     664.00629,       61.9000,        1.7418,   -999.250000,     -999.2500
     664.15869,       61.6000,        1.7338,   -999.250000,     -999.2500
     664.31109,       63.5000,        1.6865,   -999.250000,     -999.2500
     664.46349,       65.3000,        1.6558,   -999.250000,     -999.2500
     664.61589,       65.5000,        1.6406,   -999.250000,     -999.2500
     664.76829,       65.4000,        1.6482,   -999.250000,     -999.2500
     664.92069,       66.2000,        1.6293,   -999.250000,     -999.2500
     665.07309,       67.5000,        1.6106,   -999.250000,     -999.2500
     665.22549,       66.9000,        1.6144,   -999.250000,     -999.2500
     665.37789,       64.9000,        1.6444,   -999.250000,     -999.2500
     665.53029,       64.8000,        1.6904,   -999.250000,     -999.2500
     665.68269,       67.2000,        1.6865,   -999.250000,     -999.2500
     665.83509,       70.0000,        1.6596,   -999.250000,     -999.2500
     665.98749,       70.3000,        1.6033,   -999.250000,     -999.2500
     666.13989,       68.5000,        1.5813,   -999.250000,     -999.2500
     666.29229,       66.7000,        1.5668,   -999.250000,     -999.2500
     666.44469,       65.5000,        1.5524,   -999.250000,     -999.2500
     666.59709,       64.9000,        1.5668,   -999.250000,     -999.2500
     666.74949,       64.6000,        1.6033,   -999.250000,     -999.2500
     666.90189,       64.3000,        1.6749,   -999.250000,     -999.2500
     667.05429,       64.5000,        1.7378,   -999.250000,     -999.2500
     667.20669,       64.9000,        1.7701,   -999.250000,     -999.2500
     667.35909,       66.3000,        1.7579,   -999.250000,     -999.2500
     667.51149,       68.3000,        1.7338,   -999.250000,     -999.2500
     667.66389,       70.3000,        1.7179,   -999.250000,     -999.2500
     667.81629,       71.2000,        1.6982,   -999.250000,     -999.2500
     667.96869,       70.9000,        1.6672,   -999.250000,     -999.2500
     668.12109,       71.2000,        1.6406,   -999.250000,     -999.2500
     668.27349,       71.9000,        1.6256,   -999.250000,     -999.2500
     668.42589,       72.7000,        1.6444,   -999.250000,     -999.2500
     668.57829,       72.0000,        1.6520,   -999.250000,     -999.2500
     668.73069,       70.7000,        1.6749,   -999.250000,     -999.2500
     668.88309,       70.2000,        1.6982,   -999.250000,     -999.2500
     669.03549,       70.4000,        1.7100,   -999.250000,     -999.2500
     669.18789,       71.3000,        1.7140,   -999.250000,     -999.2500
     669.34029,       72.6000,        1.7140,   -999.250000,     -999.2500
     669.49269,       73.2000,        1.7378,   -999.250000,     -999.2500
     669.64509,       72.3000,        1.7378,   -999.250000,     -999.2500
     669.79749,       71.1000,        1.7061,   -999.250000,     -999.2500
     669.94989,       71.0000,        1.6634,   -999.250000,     -999.2500
     670.10229,       71.5000,        1.6711,   -999.250000,     -999.2500
     670.25469,       72.0000,        1.6634,   -999.250000,     -999.2500
     670.40709,       72.5000,        1.6904,   -999.250000,     -999.2500
     670.55949,       72.2000,        1.6943,   -999.250000,     -999.2500
     670.71189,       69.5000,        1.7418,   -999.250000,     -999.2500
     670.86429,       67.7000,        1.7179,   -999.250000,     -999.2500
     671.01669,       69.9000,        1.7140,   -999.250000,     -999.2500
     671.16909,       74.3000,        1.6982,   -999.250000,     -999.2500
     671.32149,       76.1000,        1.7140,   -999.250000,     -999.2500
     671.47389,       74.5000,        1.6904,   -999.250000,     -999.2500
     671.62629,       72.2000,        1.6788,   -999.250000,     -999.2500
     671.77869,       71.0000,        1.6634,   -999.250000,     -999.2500
     671.93109,       71.6000,        1.6788,   -999.250000,     -999.2500
     672.08349,       73.0000,        1.6596,   -999.250000,     -999.2500
     672.23589,       74.1000,        1.6444,   -999.250000,     -999.2500
     672.38829,       74.0000,        1.6444,   -999.250000,     -999.2500
     672.54069,       72.5000,        1.6482,   -999.250000,     -999.2500
     672.69309,       70.8000,        1.6406,   -999.250000,     -999.2500
     672.84549,       70.3000,        1.6293,   -999.250000,     -999.2500
     672.99789,       71.5000,        1.6558,   -999.250000,     -999.2500
     673.15029,       73.3000,        1.6672,   -999.250000,     -999.2500
     673.30269,       72.9000,        1.6520,   -999.250000,     -999.2500
     673.45508,       69.6000,        1.6444,   -999.250000,     -999.2500
     673.60748,       65.4000,        1.6482,   -999.250000,     -999.2500
     673.75988,       62.2000,        1.6827,   -999.250000,     -999.2500
     673.91228,       61.2000,        1.7378,   -999.250000,     -999.2500
     674.06468,       62.3000,        1.8239,   -999.250000,     -999.2500
     674.21708,       65.2000,        1.9099,   -999.250000,     -999.2500
     674.36948,       67.7000,        1.9011,   -999.250000,     -999.2500
     674.52188,       67.5000,        1.8072,   -999.250000,     -999.2500
     674.67428,       65.9000,        1.6672,   -999.250000,     -999.2500
     674.82668,       65.1000,        1.5922,   -999.250000,     -999.2500
     674.97908,       65.9000,        1.6106,   -999.250000,     -999.2500
     675.13148,       67.7000,        1.6330,   -999.250000,     -999.2500
     675.28388,       70.0000,        1.6596,   -999.250000,     -999.2500
     675.43628,       70.7000,        1.6711,   -999.250000,     -999.2500
     675.58868,       69.0000,        1.6711,   -999.250000,     -999.2500
     675.74108,       67.1000,        1.6596,   -999.250000,     -999.2500
     675.89348,       66.6000,        1.6558,   -999.250000,     -999.2500
     676.04588,       66.8000,        1.6672,   -999.250000,     -999.2500
     676.19828,       67.1000,        1.6827,   -999.250000,     -999.2500
     676.35068,       67.8000,        1.6711,   -999.250000,     -999.2500
     676.50308,       69.7000,        1.6749,   -999.250000,     -999.2500
     676.65548,       71.5000,        1.6749,   -999.250000,     -999.2500
     676.80788,       71.3000,        1.6943,   -999.250000,     -999.2500
     676.96028,       69.2000,        1.7179,   -999.250000,     -999.2500
     677.11268,       66.3000,        1.8113,   -999.250000,     -999.2500
     677.26508,       64.5000,        1.9275,   -999.250000,     -999.2500
     677.41748,       65.6000,        2.0606,   -999.250000,     -999.2500
     677.56988,       69.3000,        2.1086,   -999.250000,     -999.2500
     677.72228,       72.2000,        2.0893,   -999.250000,     -999.2500
     677.87468,       72.5000,        2.0797,   -999.250000,     -999.2500
     678.02708,       72.8000,        2.1038,   -999.250000,     -999.2500
     678.17948,       75.2000,        2.2909,   -999.250000,     -999.2500
     678.33188,       78.6000,        2.4831,   -999.250000,     -999.2500
     678.48428,       79.0000,        2.5882,   -999.250000,     -999.2500
     678.63668,       75.9000,        2.5704,   -999.250000,     -999.2500
     678.78908,       71.4000,        2.4660,   -999.250000,     -999.2500
     678.94148,       67.0000,        2.4604,   -999.250000,     -999.2500
     679.09388,       64.7000,        2.5351,   -999.250000,     -999.2500
     679.24628,       63.9000,        2.8184,   -999.250000,     -999.2500
     679.39868,       63.7000,        2.9444,   -999.250000,     -999.2500
