~Version
VERS  .             3.0                                 : CWLS LOG ASCII STANDARD - VERSION 3.0
WRAP  .             NO                                  : One line per depth step
DLM   .             COMMA                               : Delimiter character between data columns
#Delimiting character ( SPACE TAB OR COMMA ).

~Well
#MNEM.UNIT          DATA                                DESCRIPTION
#----- ----        -----------------                   -----------
STRT  .M                 10.97280                       : FIRST INDEX VALUE
STOP  .M               1459.68607                       : LAST INDEX VALUE
STEP  .M                  0.15240                       : STEP OF INDEX
NULL  .             -999.25                             : NULL VALUE
COMP  .                                                 : COMPANY
WELL  .             KRAZ                                : WELL
FLD   .                                                 : FIELD
LOC   .                                                 : LOCATION
SRVC  .                                                 : SERVICE COMPANY
CTRY  .                                                 : COUNTRY
PROV  .                                                 : PROVINCE
UWI   .                                                 : UNIQUE WELL ID
LIC   .                                                 : LICENSE NUMBER
STAT  .                                                 : STATE
CNTY  .                                                 : COUNTY
API   .                                                 : API NUMBER
DATE  .                                                 : LOG DATE
X     .             653929.1957502                      : X OR EAST-WEST COORDINATE
Y     .             8158539.624245                      : Y OR NORTH-SOUTH COORDINATE
HZCS  .                                                 : HORIZONTAL CO-ORDINATE SYSTEM
LATI  .             -16.65055555556                     : LATITUDE
LONG  .             154.4433333333                      : LONGITUDE
GDAT  .                                                 : GEODETIC DATUM

~DEVIATION_PARAMETER 
#MNEM.UNIT                    VALUE                        DESCRIPTION
#--------------- ---         ------------                 -----------------

~DEVIATION_DEFINITION 
#MNEM.UNIT                 LOG CODE                  CURVE DESCRIPTION
#----------- ----         ------------              -----------------
DEPTH       .M                                      :     {F}
AZIMUTH     .DEG                                    :     {F}
DEVIATION   .DEG                                    : 90-DIP    {F}

~DEVIATION_DATA | DEVIATION_DEFINITION
       31.0000,        0.0000,        0.2500
       91.0000,        0.0000,        0.2500
      158.0000,        0.0000,        0.5000
      308.0000,        0.0000,        0.5000
      460.0000,        0.0000,        0.2500
      614.0000,        0.0000,        1.0000
      787.0000,        0.0000,        2.0000
      873.0000,        0.0000,        2.0000
      984.0000,        0.0000,        1.2500
     1146.0000,        0.0000,        1.5000
     1298.0000,        0.0000,        0.7500
     1454.0000,        0.0000,        0.7500

~TOPS_PARAMETER 
#MNEM.UNIT                    VALUE                        DESCRIPTION
#--------------- ---         ------------                 -----------------

~TOPS_DEFINITION 
#MNEM.UNIT                 LOG CODE                  CURVE DESCRIPTION
#----------- ----         ------------              -----------------
DEPTH       .M                                      :     {F}
TOPS        .                                       : Created by PICKS COMMAND    {S32}

~TOPS_DATA | TOPS_DEFINITION
        7.3245,Doyles Creek Subgroup           
      418.1828,Horseshoe Creek Subgroup        
      489.9400,Apple Tree Flat Subgroup        
      747.8995,Watts Sandstone                 
      770.7885,Denman Fm                       
      893.5882,Mt Leonard Fm                   
     1010.7801,Althorpe Fm                     
     1070.0628,Malabar Fm                      
     1106.6852,Mt Ogilvie Fm                   
     1195.3803,Mt Thorley Fm                   
     1223.0760,Burnamwood Fm                   
     1326.0767,Archerfield Sandstone           
     1336.0334,Mulbring Siltstone              
     1401.7250,Muree Sandstone                 
     1458.2609,Branxton Fm                     

~PARAMETER 
#MNEM.UNIT                    VALUE                        DESCRIPTION
#--------------- ---         ------------                 -----------------

~CURVE 
#MNEM.UNIT                 LOG CODE                  CURVE DESCRIPTION
#----------- ----         ------------              -----------------
MD          .M                                      :     {F}
GR          .GAPI         94054010                  : GR_1 (Cleared: Bottom)    {F}
LLD         .OHMM         94220100                  :     {F}
NPHI        .V/V                                    :     {F}
RHOB        .K/M3         94094010                  :     {F}

~ASCII | CURVE 
# ...
    1364.43615,       57.4000,       14.7911,      0.252600,     2473.0000
    1364.58855,       57.2000,       12.4738,      0.263900,     2479.0000
    1364.74095,       63.4000,        9.4624,      0.276100,     2466.0000
    1364.89335,       72.0000,        7.1285,      0.284800,     2439.0000
    1365.04575,       77.3000,        6.7453,      0.285400,     2409.0000
    1365.19815,       76.6000,        7.4989,      0.278700,     2390.0000
    1365.35055,       71.9000,        9.1411,      0.271700,     2386.0000
    1365.50295,       66.6000,       10.7152,      0.264700,     2390.0000
    1365.65535,       64.4000,       10.3039,      0.256900,     2392.0000
    1365.80775,       67.8000,        8.3946,      0.248600,     2396.0000
    1365.96015,       76.7000,        5.8614,      0.246900,     2407.0000
    1366.11255,       86.6000,        4.4978,      0.255600,     2422.0000
    1366.26495,       92.8000,        3.7497,      0.273900,     2435.0000
    1366.41735,       94.9000,        3.4119,      0.297000,     2440.0000
    1366.56975,       95.2000,        3.4514,      0.315800,     2442.0000
    1366.72215,       95.7000,        3.6898,      0.323700,     2444.0000
    1366.87455,       97.0000,        3.9903,      0.321500,     2449.0000
    1367.02695,       97.6000,        4.1976,      0.311800,     2453.0000
    1367.17935,       96.4000,        4.2364,      0.296900,     2450.0000
    1367.33175,       94.2000,        4.1495,      0.285400,     2441.0000
    1367.48415,       93.8000,        4.0458,      0.284300,     2428.0000
    1367.63655,       95.6000,        4.0644,      0.293600,     2418.0000
    1367.78895,       97.3000,        4.2073,      0.303200,     2415.0000
    1367.94135,       97.2000,        4.1976,      0.303800,     2425.0000
    1368.09374,       98.0000,        4.0272,      0.299200,     2446.0000
    1368.24614,      102.0000,        3.6983,      0.299200,     2466.0000
    1368.39854,      107.2000,        3.4277,      0.304900,     2471.0000
    1368.55094,      111.0000,        3.3420,      0.312900,     2461.0000
    1368.70334,      112.8000,        3.4435,      0.318100,     2447.0000
    1368.85574,      112.2000,        3.7153,      0.316900,     2438.0000
    1369.00814,      108.9000,        3.9628,      0.312400,     2438.0000
    1369.16054,      104.7000,        4.0179,      0.310100,     2446.0000
    1369.31294,      102.9000,        3.9903,      0.311800,     2451.0000
    1369.46534,      103.8000,        3.8726,      0.315200,     2445.0000
    1369.61774,      104.0000,        3.7931,      0.322600,     2434.0000
    1369.77014,      101.2000,        3.7239,      0.340100,     2427.0000
    1369.92254,       96.3000,        3.6224,      0.364100,     2421.0000
    1370.07494,       91.7000,        3.5318,      0.381400,     2402.0000
    1370.22734,       89.5000,        3.3963,      0.383600,     2365.0000
    1370.37974,       89.8000,        3.3651,      0.375500,     2329.0000
    1370.53214,       91.1000,        3.4277,      0.364600,     2325.0000
    1370.68454,       91.6000,        3.5645,      0.354700,     2362.0000
    1370.83694,       91.4000,        3.6559,      0.345200,     2416.0000
    1370.98934,       91.4000,        3.6559,      0.337300,     2451.0000
    1371.14174,       92.0000,        3.5156,      0.333400,     2457.0000
    1371.29414,       92.9000,        3.3420,      0.338400,     2452.0000
    1371.44654,       94.1000,        3.1989,      0.349100,     2449.0000
    1371.59894,       96.8000,        3.1623,      0.354600,     2451.0000
    1371.75134,       99.4000,        3.3113,      0.344600,     2449.0000
    1371.90374,       98.5000,        3.5400,      0.326000,     2443.0000
    1372.05614,       94.9000,        3.7497,      0.316900,     2436.0000
    1372.20854,       92.3000,        3.8994,      0.325100,     2434.0000
    1372.36094,       93.8000,        3.9903,      0.341600,     2440.0000
    1372.51334,       97.1000,        4.0365,      0.353800,     2446.0000
    1372.66574,       97.4000,        4.0087,      0.355400,     2448.0000
    1372.81814,       95.1000,        3.9446,      0.346500,     2443.0000
    1372.97054,       93.0000,        3.9174,      0.331900,     2436.0000
    1373.12294,       93.0000,        3.9628,      0.318300,     2430.0000
    1373.27534,       94.0000,        4.1305,      0.309200,     2428.0000
    1373.42774,       94.4000,        4.1783,      0.305800,     2427.0000
    1373.58014,       94.9000,        4.1305,      0.307500,     2428.0000
    1373.73254,       96.0000,        3.8459,      0.318400,     2430.0000
    1373.88494,       97.6000,        3.5563,      0.335900,     2431.0000
    1374.03734,       99.3000,        3.2809,      0.352700,     2431.0000
    1374.18974,      100.5000,        3.1261,      0.364300,     2430.0000
    1374.34214,      101.3000,        3.1189,      0.369800,     2428.0000
    1374.49454,      101.9000,        3.1333,      0.372600,     2427.0000
    1374.64694,      102.3000,        3.1623,      0.376800,     2429.0000
    1374.79934,      101.6000,        3.1477,      0.378500,     2435.0000
    1374.95174,      100.0000,        3.1769,      0.373100,     2438.0000
    1375.10414,       99.4000,        3.1989,      0.363300,     2439.0000
    1375.25654,      100.5000,        3.3266,      0.356100,     2442.0000
    1375.40894,      101.6000,        3.4041,      0.354400,     2446.0000
    1375.56134,      101.6000,        3.4514,      0.357100,     2444.0000
    1375.71374,      101.1000,        3.3651,      0.361600,     2438.0000
    1375.86614,      101.2000,        3.2509,      0.366000,     2436.0000
    1376.01854,      100.5000,        3.1769,      0.367100,     2438.0000
    1376.17094,       98.7000,        3.1623,      0.361100,     2438.0000
    1376.32334,       97.2000,        3.1550,      0.349400,     2434.0000
    1376.47574,       97.0000,        3.1769,      0.338800,     2435.0000
    1376.62814,       97.6000,        3.1696,      0.333100,     2442.0000
    1376.78054,       97.1000,        3.1842,      0.333700,     2448.0000
    1376.93294,       95.6000,        3.1696,      0.339300,     2446.0000
    1377.08534,       94.6000,        3.1623,      0.346000,     2440.0000
    1377.23774,       95.5000,        3.1989,      0.350500,     2437.0000
    1377.39014,       97.5000,        3.2584,      0.348800,     2441.0000
    1377.54254,       97.2000,        3.3113,      0.346000,     2449.0000
    1377.69494,       95.3000,        3.3266,      0.346600,     2454.0000
    1377.84734,       95.1000,        3.4041,      0.346600,     2451.0000
    1377.99974,       97.2000,        3.5156,      0.341600,     2443.0000
    1378.15214,       98.4000,        3.6983,      0.328000,     2439.0000
    1378.30454,       96.5000,        4.0832,      0.307500,     2444.0000
    1378.45694,       91.9000,        4.3551,      0.289700,     2456.0000
    1378.60934,       86.9000,        4.5604,      0.282800,     2472.0000
    1378.76174,       84.9000,        4.4259,      0.286900,     2485.0000
    1378.91414,       87.4000,        4.3451,      0.293200,     2486.0000
    1379.06654,       92.1000,        4.3551,      0.294300,     2479.0000
    1379.21894,       95.3000,        4.4259,      0.290900,     2473.0000
    1379.37134,       96.7000,        4.6238,      0.287400,     2474.0000
    1379.52374,       97.6000,        4.8978,      0.283400,     2479.0000
    1379.67614,       98.5000,        5.0004,      0.281200,     2484.0000
    1379.82854,       99.1000,        4.9317,      0.281500,     2491.0000
    1379.98094,       99.7000,        4.5499,      0.286800,     2502.0000
    1380.13334,      100.4000,        4.1591,      0.296000,     2509.0000
    1380.28574,      100.7000,        3.8815,      0.307900,     2499.0000
    1380.43814,      101.4000,        3.7411,      0.325500,     2477.0000
    1380.59054,      102.5000,        3.7325,      0.341900,     2456.0000
