~Version
VERS  .             3.0                                 : CWLS LOG ASCII STANDARD - VERSION 3.0
WRAP  .             NO                                  : One line per depth step
DLM   .             COMMA                               : Delimiter character between data columns
#Delimiting character ( SPACE TAB OR COMMA ).

~Well
#MNEM.UNIT          DATA                                DESCRIPTION
#----- ----        -----------------                   -----------
STRT  .M                 10.97280                       : FIRST INDEX VALUE
STOP  .M               1459.68607                       : LAST INDEX VALUE
STEP  .M                  0.15240                       : STEP OF INDEX
NULL  .             -999.25                             : NULL VALUE
COMP  .                                                 : COMPANY
WELL  .             KRAZ                                : WELL
FLD   .                                                 : FIELD
LOC   .                                                 : LOCATION
SRVC  .                                                 : SERVICE COMPANY
CTRY  .                                                 : COUNTRY
PROV  .                                                 : PROVINCE
UWI   .                                                 : UNIQUE WELL ID
LIC   .                                                 : LICENSE NUMBER
STAT  .                                                 : STATE
CNTY  .                                                 : COUNTY
API   .                                                 : API NUMBER
DATE  .                                                 : LOG DATE
X     .             653929.1957502                      : X OR EAST-WEST COORDINATE
Y     .             8158539.624245                      : Y OR NORTH-SOUTH COORDINATE
HZCS  .                                                 : HORIZONTAL CO-ORDINATE SYSTEM
LATI  .             -16.65055555556                     : LATITUDE
LONG  .             154.4433333333                      : LONGITUDE
GDAT  .                                                 : GEODETIC DATUM

~DEVIATION_PARAMETER 
#MNEM.UNIT                    VALUE                        DESCRIPTION
#--------------- ---         ------------                 -----------------

~DEVIATION_DEFINITION 
#MNEM.UNIT                 LOG CODE                  CURVE DESCRIPTION
#----------- ----         ------------              -----------------
DEPTH       .M                                      :     {F}
AZIMUTH     .DEG                                    :     {F}
DEVIATION   .DEG                                    : 90-DIP    {F}

~DEVIATION_DATA | DEVIATION_DEFINITION
       31.0000,        0.0000,        0.2500
       91.0000,        0.0000,        0.2500
      158.0000,        0.0000,        0.5000
      308.0000,        0.0000,        0.5000
      460.0000,        0.0000,        0.2500
      614.0000,        0.0000,        1.0000
      787.0000,        0.0000,        2.0000
      873.0000,        0.0000,        2.0000
      984.0000,        0.0000,        1.2500
     1146.0000,        0.0000,        1.5000
     1298.0000,        0.0000,        0.7500
     1454.0000,        0.0000,        0.7500

~TOPS_PARAMETER 
#MNEM.UNIT                    VALUE                        DESCRIPTION
#--------------- ---         ------------                 -----------------

~TOPS_DEFINITION 
#MNEM.UNIT                 LOG CODE                  CURVE DESCRIPTION
#----------- ----         ------------              -----------------
DEPTH       .M                                      :     {F}
TOPS        .                                       : Created by PICKS COMMAND    {S32}

~TOPS_DATA | TOPS_DEFINITION
        7.3245,Doyles Creek Subgroup           
      418.1828,Horseshoe Creek Subgroup        
      489.9400,Apple Tree Flat Subgroup        
      747.8995,Watts Sandstone                 
      770.7885,Denman Fm                       
      893.5882,Mt Leonard Fm                   
     1010.7801,Althorpe Fm                     
     1070.0628,Malabar Fm                      
     1106.6852,Mt Ogilvie Fm                   
     1195.3803,Mt Thorley Fm                   
     1223.0760,Burnamwood Fm                   
     1326.0767,Archerfield Sandstone           
     1336.0334,Mulbring Siltstone              
     1401.7250,Muree Sandstone                 
     1458.2609,Branxton Fm                     

~PARAMETER 
#MNEM.UNIT                    VALUE                        DESCRIPTION
#--------------- ---         ------------                 -----------------

~CURVE 
#MNEM.UNIT                 LOG CODE                  CURVE DESCRIPTION
#----------- ----         ------------              -----------------
MD          .M                                      :     {F}
GR          .GAPI         94054010                  : GR_1 (Cleared: Bottom)    {F}
LLD         .OHMM         94220100                  :     {F}
NPHI        .V/V                                    :     {F}
RHOB        .K/M3         94094010                  :     {F}

~ASCII | CURVE 
# ...
     744.77823,       82.0000,        1.8281,   -999.250000,     -999.2500
     744.93063,       83.1000,        1.8793,   -999.250000,     -999.2500
     745.08303,       85.6000,        1.9409,   -999.250000,     -999.2500
     745.23543,       89.6000,        1.9724,   -999.250000,     -999.2500
     745.38783,       92.8000,        1.9770,   -999.250000,     -999.2500
     745.54023,       93.2000,        1.9055,   -999.250000,     -999.2500
     745.69263,       91.4000,        1.8578,   -999.250000,     -999.2500
     745.84503,       90.3000,        1.7701,   -999.250000,     -999.2500
     745.99743,       90.8000,        1.7338,   -999.250000,     -999.2500
     746.14983,       90.6000,        1.6943,   -999.250000,     -999.2500
     746.30223,       88.4000,        1.6672,   -999.250000,     -999.2500
     746.45463,       85.5000,        1.6596,   -999.250000,     -999.2500
     746.60703,       83.5000,        1.6482,   -999.250000,     -999.2500
     746.75943,       82.5000,        1.6520,   -999.250000,     -999.2500
     746.91183,       82.0000,        1.6482,   -999.250000,     -999.2500
     747.06423,       80.1000,        1.6596,   -999.250000,     -999.2500
     747.21663,       78.6000,        1.6788,   -999.250000,     -999.2500
     747.36903,       78.2000,        1.7140,   -999.250000,     -999.2500
     747.52143,       79.5000,        1.7660,   -999.250000,     -999.2500
     747.67383,       81.7000,        1.8113,   -999.250000,     -999.2500
     747.82623,       81.8000,        1.8493,   -999.250000,     -999.2500
     747.97863,       81.5000,        1.8750,   -999.250000,     -999.2500
     748.13103,       82.3000,        1.8880,   -999.250000,     -999.2500
     748.28343,       84.7000,        1.8967,   -999.250000,     -999.2500
     748.43583,       86.6000,        1.9275,   -999.250000,     -999.2500
     748.58823,       87.7000,        1.9498,   -999.250000,     -999.2500
     748.74063,       89.9000,        1.9770,   -999.250000,     -999.2500
     748.89303,       92.7000,        1.9634,   -999.250000,     -999.2500
     749.04543,       94.4000,        1.9364,   -999.250000,     -999.2500
     749.19783,       94.7000,        1.9143,   -999.250000,     -999.2500
     749.35023,       94.8000,        1.9231,   -999.250000,     -999.2500
     749.50263,       96.4000,        1.9498,   -999.250000,     -999.2500
     749.65503,       99.4000,        1.9588,   -999.250000,     -999.2500
     749.80743,      101.0000,        1.9634,   -999.250000,     -999.2500
     749.95983,      100.8000,        1.9724,   -999.250000,     -999.2500
     750.11223,       98.7000,        1.9634,   -999.250000,     -999.2500
     750.26463,       95.9000,        1.9454,   -999.250000,     -999.2500
     750.41703,       93.6000,        1.9364,   -999.250000,     -999.2500
     750.56943,       93.5000,        1.9679,   -999.250000,     -999.2500
     750.72182,       95.4000,        1.9953,   -999.250000,     -999.2500
     750.87422,       95.7000,        1.9999,   -999.250000,     -999.2500
     751.02662,       94.0000,        1.9861,   -999.250000,     -999.2500
     751.17902,       92.4000,        1.9770,   -999.250000,     -999.2500
     751.33142,       92.9000,        1.9543,   -999.250000,     -999.2500
     751.48382,       95.4000,        1.9231,   -999.250000,     -999.2500
     751.63622,       97.5000,        1.9143,   -999.250000,     -999.2500
     751.78862,       98.8000,        1.9055,   -999.250000,     -999.2500
     751.94102,      100.3000,        1.9011,   -999.250000,     -999.2500
     752.09342,      103.3000,        1.9011,   -999.250000,     -999.2500
     752.24582,      105.6000,        1.9099,   -999.250000,     -999.2500
     752.39822,      104.5000,        1.9275,   -999.250000,     -999.2500
     752.55062,      102.9000,        1.9454,   -999.250000,     -999.2500
     752.70302,      103.3000,        1.9454,   -999.250000,     -999.2500
     752.85542,      104.0000,        1.9055,   -999.250000,     -999.2500
     753.00782,      102.9000,        1.8793,   -999.250000,     -999.2500
     753.16022,      100.7000,        1.8621,   -999.250000,     -999.2500
     753.31262,       99.6000,        1.8621,   -999.250000,     -999.2500
     753.46502,      100.1000,        1.8535,   -999.250000,     -999.2500
     753.61742,      101.6000,        1.8493,   -999.250000,     -999.2500
     753.76982,      102.6000,        1.8578,   -999.250000,     -999.2500
     753.92222,      101.6000,        1.8750,   -999.250000,     -999.2500
     754.07462,      100.1000,        1.8967,   -999.250000,     -999.2500
     754.22702,      100.8000,        1.9187,   -999.250000,     -999.2500
     754.37942,      103.5000,        1.8923,   -999.250000,     -999.2500
     754.53182,      106.0000,        1.8707,   -999.250000,     -999.2500
     754.68422,      108.1000,        1.8750,   -999.250000,     -999.2500
     754.83662,      109.7000,        1.9099,   -999.250000,     -999.2500
     754.98902,      109.0000,        1.9543,   -999.250000,     -999.2500
     755.14142,      107.3000,        1.9454,   -999.250000,     -999.2500
     755.29382,      106.4000,        1.9320,   -999.250000,     -999.2500
     755.44622,      107.9000,        1.9055,   -999.250000,     -999.2500
     755.59862,      110.1000,        1.9055,   -999.250000,     -999.2500
     755.75102,      111.0000,        1.8837,   -999.250000,     -999.2500
     755.90342,      111.8000,        1.8880,   -999.250000,     -999.2500
     756.05582,      112.1000,        1.8408,   -999.250000,     -999.2500
     756.20822,      111.1000,        1.8365,   -999.250000,     -999.2500
     756.36062,      109.6000,        1.8239,   -999.250000,     -999.2500
     756.51302,      109.5000,        1.8837,   -999.250000,     -999.2500
     756.66542,      110.0000,        1.9275,   -999.250000,     -999.2500
     756.81782,      107.2000,        1.9588,   -999.250000,     -999.2500
     756.97022,      100.6000,        1.9498,   -999.250000,     -999.2500
     757.12262,       95.2000,        1.9454,   -999.250000,     -999.2500
     757.27502,       95.9000,        1.9231,   -999.250000,     -999.2500
     757.42742,      101.8000,        1.9011,   -999.250000,     -999.2500
     757.57982,      107.6000,        1.8535,   -999.250000,     -999.2500
     757.73222,      110.1000,        1.8408,   -999.250000,     -999.2500
     757.88462,      110.6000,        1.8450,   -999.250000,     -999.2500
     758.03702,      111.5000,        1.9055,   -999.250000,     -999.2500
     758.18942,      112.5000,        1.9724,   -999.250000,     -999.2500
     758.34182,      112.6000,        2.0654,   -999.250000,     -999.2500
     758.49422,      111.2000,        2.1184,   -999.250000,     -999.2500
     758.64662,      110.0000,        2.1380,   -999.250000,     -999.2500
     758.79902,      110.9000,        2.0989,   -999.250000,     -999.2500
     758.95142,      113.5000,        2.0559,   -999.250000,     -999.2500
     759.10382,      116.6000,        2.0559,   -999.250000,     -999.2500
     759.25622,      118.7000,        2.0464,   -999.250000,     -999.2500
     759.40862,      119.4000,        2.0417,   -999.250000,     -999.2500
     759.56102,      118.5000,        1.9861,   -999.250000,     -999.2500
     759.71342,      115.1000,        1.9770,   -999.250000,     -999.2500
     759.86582,      110.3000,        1.9815,   -999.250000,     -999.2500
     760.01822,      107.0000,        2.0184,   -999.250000,     -999.2500
     760.17062,      106.4000,        2.0417,   -999.250000,     -999.2500
     760.32302,      108.0000,        2.0654,   -999.250000,     -999.2500
     760.47542,      110.4000,        2.0606,   -999.250000,     -999.2500
     760.62782,      112.9000,        2.0464,   -999.250000,     -999.2500
     760.78022,      115.4000,        2.0091,   -999.250000,     -999.2500
     760.93262,      118.5000,        2.0277,   -999.250000,     -999.2500
