~Version
VERS  .             3.0                                 : CWLS LOG ASCII STANDARD - VERSION 3.0
WRAP  .             NO                                  : One line per depth step
DLM   .             COMMA                               : Delimiter character between data columns
#Delimiting character ( SPACE TAB OR COMMA ).

~Well
#MNEM.UNIT          DATA                                DESCRIPTION
#----- ----        -----------------                   -----------
STRT  .M                 10.97280                       : FIRST INDEX VALUE
STOP  .M               1459.68607                       : LAST INDEX VALUE
STEP  .M                  0.15240                       : STEP OF INDEX
NULL  .             -999.25                             : NULL VALUE
COMP  .                                                 : COMPANY
WELL  .             KRAZ                                : WELL
FLD   .                                                 : FIELD
LOC   .                                                 : LOCATION
SRVC  .                                                 : SERVICE COMPANY
CTRY  .                                                 : COUNTRY
PROV  .                                                 : PROVINCE
UWI   .                                                 : UNIQUE WELL ID
LIC   .                                                 : LICENSE NUMBER
STAT  .                                                 : STATE
CNTY  .                                                 : COUNTY
API   .                                                 : API NUMBER
DATE  .                                                 : LOG DATE
X     .             653929.1957502                      : X OR EAST-WEST COORDINATE
Y     .             8158539.624245                      : Y OR NORTH-SOUTH COORDINATE
HZCS  .                                                 : HORIZONTAL CO-ORDINATE SYSTEM
LATI  .             -16.65055555556                     : LATITUDE
LONG  .             154.4433333333                      : LONGITUDE
GDAT  .                                                 : GEODETIC DATUM

~DEVIATION_PARAMETER 
#MNEM.UNIT                    VALUE                        DESCRIPTION
#--------------- ---         ------------                 -----------------

~DEVIATION_DEFINITION 
#MNEM.UNIT                 LOG CODE                  CURVE DESCRIPTION
#----------- ----         ------------              -----------------
DEPTH       .M                                      :     {F}
AZIMUTH     .DEG                                    :     {F}
DEVIATION   .DEG                                    : 90-DIP    {F}

~DEVIATION_DATA | DEVIATION_DEFINITION
       31.0000,        0.0000,        0.2500
       91.0000,        0.0000,        0.2500
      158.0000,        0.0000,        0.5000
      308.0000,        0.0000,        0.5000
      460.0000,        0.0000,        0.2500
      614.0000,        0.0000,        1.0000
      787.0000,        0.0000,        2.0000
      873.0000,        0.0000,        2.0000
      984.0000,        0.0000,        1.2500
     1146.0000,        0.0000,        1.5000
     1298.0000,        0.0000,        0.7500
     1454.0000,        0.0000,        0.7500

~TOPS_PARAMETER 
#MNEM.UNIT                    VALUE                        DESCRIPTION
#--------------- ---         ------------                 -----------------

~TOPS_DEFINITION 
#MNEM.UNIT                 LOG CODE                  CURVE DESCRIPTION
#----------- ----         ------------              -----------------
DEPTH       .M                                      :     {F}
TOPS        .                                       : Created by PICKS COMMAND    {S32}

~TOPS_DATA | TOPS_DEFINITION
        7.3245,Doyles Creek Subgroup           
      418.1828,Horseshoe Creek Subgroup        
      489.9400,Apple Tree Flat Subgroup        
      747.8995,Watts Sandstone                 
      770.7885,Denman Fm                       
      893.5882,Mt Leonard Fm                   
     1010.7801,Althorpe Fm                     
     1070.0628,Malabar Fm                      
     1106.6852,Mt Ogilvie Fm                   
     1195.3803,Mt Thorley Fm                   
     1223.0760,Burnamwood Fm                   
     1326.0767,Archerfield Sandstone           
     1336.0334,Mulbring Siltstone              
     1401.7250,Muree Sandstone                 
     1458.2609,Branxton Fm                     

~PARAMETER 
#MNEM.UNIT                    VALUE                        DESCRIPTION
#--------------- ---         ------------                 -----------------

~CURVE 
#MNEM.UNIT                 LOG CODE                  CURVE DESCRIPTION
#----------- ----         ------------              -----------------
MD          .M                                      :     {F}
GR          .GAPI         94054010                  : GR_1 (Cleared: Bottom)    {F}
LLD         .OHMM         94220100                  :     {F}
NPHI        .V/V                                    :     {F}
RHOB        .K/M3         94094010                  :     {F}

~ASCII | CURVE 
# ...
     581.71036,       66.7000,        1.8030,   -999.250000,     -999.2500
     581.86276,       65.7000,        1.7579,   -999.250000,     -999.2500
     582.01516,       64.1000,        1.7620,   -999.250000,     -999.2500
     582.16756,       63.3000,        1.8072,   -999.250000,     -999.2500
     582.31996,       63.6000,        1.8450,   -999.250000,     -999.2500
     582.47236,       64.6000,        1.8493,   -999.250000,     -999.2500
     582.62476,       67.2000,        1.7824,   -999.250000,     -999.2500
     582.77716,       70.0000,        1.7179,   -999.250000,     -999.2500
     582.92956,       71.4000,        1.7061,   -999.250000,     -999.2500
     583.08196,       72.3000,        1.7219,   -999.250000,     -999.2500
     583.23436,       72.7000,        1.7258,   -999.250000,     -999.2500
     583.38675,       72.1000,        1.6865,   -999.250000,     -999.2500
     583.53915,       69.7000,        1.7824,   -999.250000,     -999.2500
     583.69155,       67.0000,        1.9953,   -999.250000,     -999.2500
     583.84395,       66.3000,        2.2490,   -999.250000,     -999.2500
     583.99635,       66.3000,        2.3823,   -999.250000,     -999.2500
     584.14875,       65.7000,        2.2751,   -999.250000,     -999.2500
     584.30115,       66.1000,        2.0941,   -999.250000,     -999.2500
     584.45355,       67.9000,        1.9634,   -999.250000,     -999.2500
     584.60595,       70.0000,        1.9498,   -999.250000,     -999.2500
     584.75835,       71.2000,        1.9770,   -999.250000,     -999.2500
     584.91075,       71.9000,        1.9588,   -999.250000,     -999.2500
     585.06315,       73.0000,        1.9724,   -999.250000,     -999.2500
     585.21555,       73.8000,        1.9861,   -999.250000,     -999.2500
     585.36795,       74.0000,        1.9770,   -999.250000,     -999.2500
     585.52035,       73.4000,        2.0324,   -999.250000,     -999.2500
     585.67275,       71.0000,        2.0324,   -999.250000,     -999.2500
     585.82515,       68.2000,        2.0464,   -999.250000,     -999.2500
     585.97755,       67.0000,        1.9498,   -999.250000,     -999.2500
     586.12995,       67.8000,        1.8923,   -999.250000,     -999.2500
     586.28235,       69.4000,        1.8365,   -999.250000,     -999.2500
     586.43475,       71.4000,        1.8072,   -999.250000,     -999.2500
     586.58715,       73.7000,        1.7989,   -999.250000,     -999.2500
     586.73955,       75.0000,        1.8239,   -999.250000,     -999.2500
     586.89195,       74.0000,        1.8281,   -999.250000,     -999.2500
     587.04435,       71.8000,        1.8450,   -999.250000,     -999.2500
     587.19675,       70.2000,        1.8113,   -999.250000,     -999.2500
     587.34915,       68.6000,        1.7947,   -999.250000,     -999.2500
     587.50155,       67.5000,        1.7338,   -999.250000,     -999.2500
     587.65395,       67.9000,        1.7378,   -999.250000,     -999.2500
     587.80635,       69.8000,        1.7620,   -999.250000,     -999.2500
     587.95875,       71.8000,        1.7989,   -999.250000,     -999.2500
     588.11115,       73.9000,        1.8323,   -999.250000,     -999.2500
     588.26355,       75.8000,        1.8197,   -999.250000,     -999.2500
     588.41595,       75.8000,        1.7824,   -999.250000,     -999.2500
     588.56835,       73.4000,        1.7258,   -999.250000,     -999.2500
     588.72075,       69.5000,        1.7179,   -999.250000,     -999.2500
     588.87315,       66.2000,        1.7660,   -999.250000,     -999.2500
     589.02555,       64.2000,        1.8197,   -999.250000,     -999.2500
     589.17795,       64.2000,        1.8578,   -999.250000,     -999.2500
     589.33035,       65.8000,        1.8535,   -999.250000,     -999.2500
     589.48275,       67.4000,        1.8239,   -999.250000,     -999.2500
     589.63515,       67.8000,        1.8030,   -999.250000,     -999.2500
     589.78755,       68.0000,        1.7906,   -999.250000,     -999.2500
     589.93995,       68.5000,        1.8155,   -999.250000,     -999.2500
     590.09235,       68.6000,        1.8535,   -999.250000,     -999.2500
     590.24475,       68.0000,        1.8880,   -999.250000,     -999.2500
     590.39715,       68.1000,        1.9099,   -999.250000,     -999.2500
     590.54955,       69.4000,        1.9055,   -999.250000,     -999.2500
     590.70195,       70.4000,        1.8837,   -999.250000,     -999.2500
     590.85435,       69.3000,        1.8793,   -999.250000,     -999.2500
     591.00675,       67.6000,        1.8664,   -999.250000,     -999.2500
     591.15915,       68.1000,        1.8664,   -999.250000,     -999.2500
     591.31155,       69.1000,        1.8664,   -999.250000,     -999.2500
     591.46395,       68.6000,        1.8837,   -999.250000,     -999.2500
     591.61635,       67.6000,        1.9011,   -999.250000,     -999.2500
     591.76875,       67.8000,        1.8450,   -999.250000,     -999.2500
     591.92115,       69.7000,        1.7947,   -999.250000,     -999.2500
     592.07355,       70.1000,        1.7458,   -999.250000,     -999.2500
     592.22595,       68.2000,        1.7458,   -999.250000,     -999.2500
     592.37835,       66.4000,        1.7378,   -999.250000,     -999.2500
     592.53075,       66.3000,        1.7140,   -999.250000,     -999.2500
     592.68315,       66.9000,        1.6634,   -999.250000,     -999.2500
     592.83555,       66.8000,        1.6330,   -999.250000,     -999.2500
     592.98795,       66.8000,        1.5996,   -999.250000,     -999.2500
     593.14035,       66.5000,        1.6069,   -999.250000,     -999.2500
     593.29275,       65.8000,        1.6218,   -999.250000,     -999.2500
     593.44515,       65.4000,        1.6827,   -999.250000,     -999.2500
     593.59755,       65.9000,        1.7179,   -999.250000,     -999.2500
     593.74995,       66.9000,        1.7100,   -999.250000,     -999.2500
     593.90235,       66.7000,        1.6672,   -999.250000,     -999.2500
     594.05475,       66.8000,        1.6181,   -999.250000,     -999.2500
     594.20715,       69.0000,        1.5381,   -999.250000,     -999.2500
     594.35955,       71.6000,        1.4928,   -999.250000,     -999.2500
     594.51195,       71.7000,        1.4622,   -999.250000,     -999.2500
     594.66435,       68.5000,        1.4757,   -999.250000,     -999.2500
     594.81675,       65.3000,        1.4825,   -999.250000,     -999.2500
     594.96915,       64.8000,        1.5311,   -999.250000,     -999.2500
     595.12155,       66.2000,        1.6181,   -999.250000,     -999.2500
     595.27395,       69.4000,        1.6943,   -999.250000,     -999.2500
     595.42635,       72.8000,        1.7701,   -999.250000,     -999.2500
     595.57875,       73.5000,        1.8197,   -999.250000,     -999.2500
     595.73115,       72.1000,        1.8493,   -999.250000,     -999.2500
     595.88355,       70.5000,        1.8408,   -999.250000,     -999.2500
     596.03595,       69.6000,        1.8323,   -999.250000,     -999.2500
     596.18835,       68.8000,        1.8323,   -999.250000,     -999.2500
     596.34074,       67.9000,        1.8281,   -999.250000,     -999.2500
     596.49314,       67.4000,        1.8072,   -999.250000,     -999.2500
     596.64554,       67.0000,        1.7947,   -999.250000,     -999.2500
     596.79794,       66.8000,        1.8408,   -999.250000,     -999.2500
     596.95034,       66.4000,        1.9953,   -999.250000,     -999.2500
     597.10274,       65.2000,        2.2233,   -999.250000,     -999.2500
     597.25514,       64.4000,        2.3714,   -999.250000,     -999.2500
     597.40754,       65.9000,        2.3014,   -999.250000,     -999.2500
     597.55994,       68.3000,        2.0893,   -999.250000,     -999.2500
     597.71234,       69.4000,        1.8793,   -999.250000,     -999.2500
     597.86474,       69.2000,        1.7906,   -999.250000,     -999.2500
