~Version
VERS  .             3.0                                 : CWLS LOG ASCII STANDARD - VERSION 3.0
WRAP  .             NO                                  : One line per depth step
DLM   .             COMMA                               : Delimiter character between data columns
#Delimiting character ( SPACE TAB OR COMMA ).

~Well
#MNEM.UNIT          DATA                                DESCRIPTION
#----- ----        -----------------                   -----------
STRT  .M                 10.97280                       : FIRST INDEX VALUE
STOP  .M               1459.68607                       : LAST INDEX VALUE
STEP  .M                  0.15240                       : STEP OF INDEX
NULL  .             -999.25                             : NULL VALUE
COMP  .                                                 : COMPANY
WELL  .             KRAZ                                : WELL
FLD   .                                                 : FIELD
LOC   .                                                 : LOCATION
SRVC  .                                                 : SERVICE COMPANY
CTRY  .                                                 : COUNTRY
PROV  .                                                 : PROVINCE
UWI   .                                                 : UNIQUE WELL ID
LIC   .                                                 : LICENSE NUMBER
STAT  .                                                 : STATE
CNTY  .                                                 : COUNTY
API   .                                                 : API NUMBER
DATE  .                                                 : LOG DATE
X     .             653929.1957502                      : X OR EAST-WEST COORDINATE
Y     .             8158539.624245                      : Y OR NORTH-SOUTH COORDINATE
HZCS  .                                                 : HORIZONTAL CO-ORDINATE SYSTEM
LATI  .             -16.65055555556                     : LATITUDE
LONG  .             154.4433333333                      : LONGITUDE
GDAT  .                                                 : GEODETIC DATUM

~DEVIATION_PARAMETER 
#MNEM.UNIT                    VALUE                        DESCRIPTION
#--------------- ---         ------------                 -----------------

~DEVIATION_DEFINITION 
#MNEM.UNIT                 LOG CODE                  CURVE DESCRIPTION
#----------- ----         ------------              -----------------
DEPTH       .M                                      :     {F}
AZIMUTH     .DEG                                    :     {F}
DEVIATION   .DEG                                    : 90-DIP    {F}

~DEVIATION_DATA | DEVIATION_DEFINITION
       31.0000,        0.0000,        0.2500
       91.0000,        0.0000,        0.2500
      158.0000,        0.0000,        0.5000
      308.0000,        0.0000,        0.5000
      460.0000,        0.0000,        0.2500
      614.0000,        0.0000,        1.0000
      787.0000,        0.0000,        2.0000
      873.0000,        0.0000,        2.0000
      984.0000,        0.0000,        1.2500
     1146.0000,        0.0000,        1.5000
     1298.0000,        0.0000,        0.7500
     1454.0000,        0.0000,        0.7500

~TOPS_PARAMETER 
#MNEM.UNIT                    VALUE                        DESCRIPTION
#--------------- ---         ------------                 -----------------

~TOPS_DEFINITION 
#MNEM.UNIT                 LOG CODE                  CURVE DESCRIPTION
#----------- ----         ------------              -----------------
DEPTH       .M                                      :     {F}
TOPS        .                                       : Created by PICKS COMMAND    {S32}

~TOPS_DATA | TOPS_DEFINITION
        7.3245,Doyles Creek Subgroup           
      418.1828,Horseshoe Creek Subgroup        
      489.9400,Apple Tree Flat Subgroup        
      747.8995,Watts Sandstone                 
      770.7885,Denman Fm                       
      893.5882,Mt Leonard Fm                   
     1010.7801,Althorpe Fm                     
     1070.0628,Malabar Fm                      
     1106.6852,Mt Ogilvie Fm                   
     1195.3803,Mt Thorley Fm                   
     1223.0760,Burnamwood Fm                   
     1326.0767,Archerfield Sandstone           
     1336.0334,Mulbring Siltstone              
     1401.7250,Muree Sandstone                 
     1458.2609,Branxton Fm                     

~PARAMETER 
#MNEM.UNIT                    VALUE                        DESCRIPTION
#--------------- ---         ------------                 -----------------

~CURVE 
#MNEM.UNIT                 LOG CODE                  CURVE DESCRIPTION
#----------- ----         ------------              -----------------
MD          .M                                      :     {F}
GR          .GAPI         94054010                  : GR_1 (Cleared: Bottom)    {F}
LLD         .OHMM         94220100                  :     {F}
NPHI        .V/V                                    :     {F}
RHOB        .K/M3         94094010                  :     {F}

~ASCII | CURVE 
# ...
     402.33570,       54.2000,        2.3281,   -999.250000,     -999.2500
     402.48810,       53.1000,        2.7290,   -999.250000,     -999.2500
     402.64050,       55.8000,        3.0200,   -999.250000,     -999.2500
     402.79290,       59.9000,        2.8184,   -999.250000,     -999.2500
     402.94530,       62.5000,        2.4491,   -999.250000,     -999.2500
     403.09770,       64.1000,        2.0559,   -999.250000,     -999.2500
     403.25010,       65.3000,        1.9320,   -999.250000,     -999.2500
     403.40249,       64.5000,        1.9770,   -999.250000,     -999.2500
     403.55489,       62.9000,        2.0137,   -999.250000,     -999.2500
     403.70729,       63.2000,        1.9634,   -999.250000,     -999.2500
     403.85969,       65.5000,        1.9320,   -999.250000,     -999.2500
     404.01209,       67.2000,        1.8793,   -999.250000,     -999.2500
     404.16449,       66.9000,        1.8750,   -999.250000,     -999.2500
     404.31689,       66.3000,        1.8837,   -999.250000,     -999.2500
     404.46929,       65.4000,        1.9724,   -999.250000,     -999.2500
     404.62169,       63.7000,        2.1086,   -999.250000,     -999.2500
     404.77409,       61.7000,        2.2751,   -999.250000,     -999.2500
     404.92649,       60.6000,        2.3550,   -999.250000,     -999.2500
     405.07889,       60.6000,        2.3121,   -999.250000,     -999.2500
     405.23129,       61.5000,        2.1627,   -999.250000,     -999.2500
     405.38369,       63.7000,        2.0045,   -999.250000,     -999.2500
     405.53609,       66.6000,        1.8664,   -999.250000,     -999.2500
     405.68849,       68.7000,        1.7783,   -999.250000,     -999.2500
     405.84089,       68.9000,        1.7418,   -999.250000,     -999.2500
     405.99329,       66.9000,        1.7298,   -999.250000,     -999.2500
     406.14569,       64.4000,        1.7418,   -999.250000,     -999.2500
     406.29809,       62.9000,        1.7418,   -999.250000,     -999.2500
     406.45049,       62.9000,        1.7742,   -999.250000,     -999.2500
     406.60289,       63.1000,        1.7906,   -999.250000,     -999.2500
     406.75529,       62.7000,        1.7989,   -999.250000,     -999.2500
     406.90769,       62.8000,        1.8030,   -999.250000,     -999.2500
     407.06009,       64.0000,        1.8323,   -999.250000,     -999.2500
     407.21249,       65.4000,        1.8621,   -999.250000,     -999.2500
     407.36489,       65.8000,        1.9275,   -999.250000,     -999.2500
     407.51729,       65.0000,        1.9770,   -999.250000,     -999.2500
     407.66969,       63.4000,        2.0230,   -999.250000,     -999.2500
     407.82209,       62.0000,        1.9907,   -999.250000,     -999.2500
     407.97449,       62.1000,        1.9588,   -999.250000,     -999.2500
     408.12689,       62.2000,        1.9588,   -999.250000,     -999.2500
     408.27929,       60.7000,        1.9907,   -999.250000,     -999.2500
     408.43169,       58.1000,        2.0277,   -999.250000,     -999.2500
     408.58409,       55.9000,        2.2961,   -999.250000,     -999.2500
     408.73649,       54.6000,        3.0269,   -999.250000,     -999.2500
     408.88889,       54.6000,        3.8815,   -999.250000,     -999.2500
     409.04129,       56.6000,        4.3152,   -999.250000,     -999.2500
     409.19369,       60.3000,        3.8459,   -999.250000,     -999.2500
     409.34609,       64.1000,        2.9923,   -999.250000,     -999.2500
     409.49849,       65.9000,        2.2594,   -999.250000,     -999.2500
     409.65089,       66.0000,        2.0137,   -999.250000,     -999.2500
     409.80329,       65.5000,        2.0370,   -999.250000,     -999.2500
     409.95569,       65.1000,        2.1232,   -999.250000,     -999.2500
     410.10809,       65.5000,        2.1627,   -999.250000,     -999.2500
     410.26049,       65.4000,        2.1677,   -999.250000,     -999.2500
     410.41289,       64.4000,        2.1135,   -999.250000,     -999.2500
     410.56529,       63.5000,        2.0559,   -999.250000,     -999.2500
     410.71769,       63.2000,        2.0091,   -999.250000,     -999.2500
     410.87009,       64.0000,        2.0137,   -999.250000,     -999.2500
     411.02249,       65.8000,        2.0045,   -999.250000,     -999.2500
     411.17489,       67.0000,        1.9999,   -999.250000,     -999.2500
     411.32729,       66.7000,        2.0137,   -999.250000,     -999.2500
     411.47969,       65.3000,        2.0277,   -999.250000,     -999.2500
     411.63209,       63.9000,        2.0370,   -999.250000,     -999.2500
     411.78449,       63.7000,        2.0137,   -999.250000,     -999.2500
     411.93689,       64.2000,        2.0230,   -999.250000,     -999.2500
     412.08929,       65.5000,        2.0277,   -999.250000,     -999.2500
     412.24169,       66.5000,        2.0324,   -999.250000,     -999.2500
     412.39409,       66.3000,        2.0045,   -999.250000,     -999.2500
     412.54649,       66.1000,        2.0184,   -999.250000,     -999.2500
     412.69889,       67.2000,        2.0277,   -999.250000,     -999.2500
     412.85129,       69.3000,        2.0417,   -999.250000,     -999.2500
     413.00369,       69.4000,        2.0370,   -999.250000,     -999.2500
     413.15609,       67.6000,        2.0370,   -999.250000,     -999.2500
     413.30849,       67.5000,        2.0230,   -999.250000,     -999.2500
     413.46089,       69.7000,        2.0045,   -999.250000,     -999.2500
     413.61329,       71.2000,        1.9907,   -999.250000,     -999.2500
     413.76569,       69.2000,        1.9907,   -999.250000,     -999.2500
     413.91809,       66.1000,        2.0184,   -999.250000,     -999.2500
     414.07049,       65.0000,        2.0324,   -999.250000,     -999.2500
     414.22289,       64.1000,        2.0512,   -999.250000,     -999.2500
     414.37529,       61.6000,        2.0184,   -999.250000,     -999.2500
     414.52769,       59.5000,        1.9907,   -999.250000,     -999.2500
     414.68009,       59.9000,        1.9498,   -999.250000,     -999.2500
     414.83249,       60.8000,        1.9454,   -999.250000,     -999.2500
     414.98489,       58.7000,        1.9861,   -999.250000,     -999.2500
     415.13729,       53.5000,        2.2439,   -999.250000,     -999.2500
     415.28969,       48.8000,        2.9648,   -999.250000,     -999.2500
     415.44209,       48.1000,        4.5290,   -999.250000,     -999.2500
     415.59449,       52.2000,        7.4473,   -999.250000,     -999.2500
     415.74689,       58.5000,        8.6497,   -999.250000,     -999.2500
     415.89929,       60.9000,        7.9616,   -999.250000,     -999.2500
     416.05169,       58.3000,        5.1880,   -999.250000,     -999.2500
     416.20408,       56.2000,        3.6141,   -999.250000,     -999.2500
     416.35648,       58.7000,        3.1261,   -999.250000,     -999.2500
     416.50888,       62.8000,        3.0903,   -999.250000,     -999.2500
     416.66128,       64.5000,        3.1189,   -999.250000,     -999.2500
     416.81368,       64.0000,        2.9444,   -999.250000,     -999.2500
     416.96608,       63.7000,        2.7353,   -999.250000,     -999.2500
     417.11848,       64.0000,        2.5586,   -999.250000,     -999.2500
     417.27088,       65.1000,        2.4547,   -999.250000,     -999.2500
     417.42328,       66.8000,        2.4547,   -999.250000,     -999.2500
     417.57568,       68.1000,        2.3388,   -999.250000,     -999.2500
     417.72808,       68.2000,        2.2336,   -999.250000,     -999.2500
     417.88048,       68.0000,        2.1184,   -999.250000,     -999.2500
     418.03288,       67.6000,        2.0749,   -999.250000,     -999.2500
     418.18528,       67.0000,        2.0464,   -999.250000,     -999.2500
     418.33768,       66.6000,        2.0559,   -999.250000,     -999.2500
     418.49008,       66.8000,        2.0417,   -999.250000,     -999.2500
