~Version
VERS  .             3.0                                 : CWLS LOG ASCII STANDARD - VERSION 3.0
WRAP  .             NO                                  : One line per depth step
DLM   .             COMMA                               : Delimiter character between data columns
#Delimiting character ( SPACE TAB OR COMMA ).

~Well
#MNEM.UNIT          DATA                                DESCRIPTION
#----- ----        -----------------                   -----------
STRT  .M                 10.97280                       : FIRST INDEX VALUE
STOP  .M               1459.68607                       : LAST INDEX VALUE
STEP  .M                  0.15240                       : STEP OF INDEX
NULL  .             -999.25                             : NULL VALUE
COMP  .                                                 : COMPANY
WELL  .             KRAZ                                : WELL
FLD   .                                                 : FIELD
LOC   .                                                 : LOCATION
SRVC  .                                                 : SERVICE COMPANY
CTRY  .                                                 : COUNTRY
PROV  .                                                 : PROVINCE
UWI   .                                                 : UNIQUE WELL ID
LIC   .                                                 : LICENSE NUMBER
STAT  .                                                 : STATE
CNTY  .                                                 : COUNTY
API   .                                                 : API NUMBER
DATE  .                                                 : LOG DATE
X     .             653929.1957502                      : X OR EAST-WEST COORDINATE
Y     .             8158539.624245                      : Y OR NORTH-SOUTH COORDINATE
HZCS  .                                                 : HORIZONTAL CO-ORDINATE SYSTEM
LATI  .             -16.65055555556                     : LATITUDE
LONG  .             154.4433333333                      : LONGITUDE
GDAT  .                                                 : GEODETIC DATUM

~DEVIATION_PARAMETER 
#MNEM.UNIT                    VALUE                        DESCRIPTION
#--------------- ---         ------------                 -----------------

~DEVIATION_DEFINITION 
#MNEM.UNIT                 LOG CODE                  CURVE DESCRIPTION
#----------- ----         ------------              -----------------
DEPTH       .M                                      :     {F}
AZIMUTH     .DEG                                    :     {F}
DEVIATION   .DEG                                    : 90-DIP    {F}

~DEVIATION_DATA | DEVIATION_DEFINITION
       31.0000,        0.0000,        0.2500
       91.0000,        0.0000,        0.2500
      158.0000,        0.0000,        0.5000
      308.0000,        0.0000,        0.5000
      460.0000,        0.0000,        0.2500
      614.0000,        0.0000,        1.0000
      787.0000,        0.0000,        2.0000
      873.0000,        0.0000,        2.0000
      984.0000,        0.0000,        1.2500
     1146.0000,        0.0000,        1.5000
     1298.0000,        0.0000,        0.7500
     1454.0000,        0.0000,        0.7500

~TOPS_PARAMETER 
#MNEM.UNIT                    VALUE                        DESCRIPTION
#--------------- ---         ------------                 -----------------

~TOPS_DEFINITION 
#MNEM.UNIT                 LOG CODE                  CURVE DESCRIPTION
#----------- ----         ------------              -----------------
DEPTH       .M                                      :     {F}
TOPS        .                                       : Created by PICKS COMMAND    {S32}

~TOPS_DATA | TOPS_DEFINITION
        7.3245,Doyles Creek Subgroup           
      418.1828,Horseshoe Creek Subgroup        
      489.9400,Apple Tree Flat Subgroup        
      747.8995,Watts Sandstone                 
      770.7885,Denman Fm                       
      893.5882,Mt Leonard Fm                   
     1010.7801,Althorpe Fm                     
     1070.0628,Malabar Fm                      
     1106.6852,Mt Ogilvie Fm                   
     1195.3803,Mt Thorley Fm                   
     1223.0760,Burnamwood Fm                   
     1326.0767,Archerfield Sandstone           
     1336.0334,Mulbring Siltstone              
     1401.7250,Muree Sandstone                 
     1458.2609,Branxton Fm                     

~PARAMETER 
#MNEM.UNIT                    VALUE                        DESCRIPTION
#--------------- ---         ------------                 -----------------

~CURVE 
#MNEM.UNIT                 LOG CODE                  CURVE DESCRIPTION
#----------- ----         ------------              -----------------
MD          .M                                      :     {F}
GR          .GAPI         94054010                  : GR_1 (Cleared: Bottom)    {F}
LLD         .OHMM         94220100                  :     {F}
NPHI        .V/V                                    :     {F}
RHOB        .K/M3         94094010                  :     {F}

~ASCII | CURVE 
# ...
     141.42710,       31.6000,        2.1330,   -999.250000,     -999.2500
     141.57950,       31.1000,        2.1330,   -999.250000,     -999.2500
     141.73190,       30.0000,        2.1135,   -999.250000,     -999.2500
     141.88430,       30.1000,        2.1038,   -999.250000,     -999.2500
     142.03670,       31.8000,        2.1135,   -999.250000,     -999.2500
     142.18910,       33.1000,        2.1232,   -999.250000,     -999.2500
     142.34150,       33.4000,        2.1330,   -999.250000,     -999.2500
     142.49390,       33.1000,        2.0845,   -999.250000,     -999.2500
     142.64630,       32.7000,        2.0893,   -999.250000,     -999.2500
     142.79870,       32.1000,        2.1184,   -999.250000,     -999.2500
     142.95110,       31.3000,        2.1878,   -999.250000,     -999.2500
     143.10350,       31.1000,        2.1727,   -999.250000,     -999.2500
     143.25590,       31.0000,        2.1380,   -999.250000,     -999.2500
     143.40830,       31.1000,        2.1184,   -999.250000,     -999.2500
     143.56070,       31.7000,        2.1627,   -999.250000,     -999.2500
     143.71310,       33.0000,        2.1827,   -999.250000,     -999.2500
     143.86550,       34.1000,        2.1577,   -999.250000,     -999.2500
     144.01790,       34.4000,        2.1281,   -999.250000,     -999.2500
     144.17030,       34.4000,        2.1380,   -999.250000,     -999.2500
     144.32270,       34.5000,        2.1677,   -999.250000,     -999.2500
     144.47510,       33.8000,        2.1677,   -999.250000,     -999.2500
     144.62750,       33.0000,        2.1577,   -999.250000,     -999.2500
     144.77990,       33.1000,        2.1429,   -999.250000,     -999.2500
     144.93230,       34.5000,        2.1577,   -999.250000,     -999.2500
     145.08470,       36.0000,        2.1429,   -999.250000,     -999.2500
     145.23710,       36.6000,        2.1677,   -999.250000,     -999.2500
     145.38950,       37.2000,        2.1429,   -999.250000,     -999.2500
     145.54190,       38.1000,        2.1380,   -999.250000,     -999.2500
     145.69430,       39.0000,        2.1330,   -999.250000,     -999.2500
     145.84670,       39.2000,        2.1232,   -999.250000,     -999.2500
     145.99910,       38.8000,        2.1281,   -999.250000,     -999.2500
     146.15149,       38.3000,        2.0941,   -999.250000,     -999.2500
     146.30389,       38.2000,        2.1184,   -999.250000,     -999.2500
     146.45629,       38.1000,        2.1086,   -999.250000,     -999.2500
     146.60869,       37.3000,        2.1281,   -999.250000,     -999.2500
     146.76109,       36.8000,        2.1232,   -999.250000,     -999.2500
     146.91349,       37.3000,        2.1478,   -999.250000,     -999.2500
     147.06589,       37.9000,        2.1777,   -999.250000,     -999.2500
     147.21829,       37.8000,        2.1979,   -999.250000,     -999.2500
     147.37069,       37.8000,        2.2182,   -999.250000,     -999.2500
     147.52309,       37.6000,        2.2233,   -999.250000,     -999.2500
     147.67549,       38.8000,        2.1979,   -999.250000,     -999.2500
     147.82789,       40.8000,        2.1979,   -999.250000,     -999.2500
     147.98029,       42.1000,        2.1429,   -999.250000,     -999.2500
     148.13269,       41.6000,        2.1135,   -999.250000,     -999.2500
     148.28509,       39.5000,        2.0701,   -999.250000,     -999.2500
     148.43749,       36.8000,        2.1281,   -999.250000,     -999.2500
     148.58989,       34.1000,        2.2182,   -999.250000,     -999.2500
     148.74229,       32.2000,        2.2182,   -999.250000,     -999.2500
     148.89469,       31.1000,        2.2233,   -999.250000,     -999.2500
     149.04709,       31.6000,        2.1528,   -999.250000,     -999.2500
     149.19949,       34.5000,        2.1627,   -999.250000,     -999.2500
     149.35189,       38.8000,        2.1627,   -999.250000,     -999.2500
     149.50429,       41.2000,        2.1878,   -999.250000,     -999.2500
     149.65669,       40.3000,        2.2284,   -999.250000,     -999.2500
     149.80909,       37.5000,        2.2131,   -999.250000,     -999.2500
     149.96149,       35.4000,        2.2080,   -999.250000,     -999.2500
     150.11389,       34.8000,        2.1677,   -999.250000,     -999.2500
     150.26629,       34.3000,        2.1827,   -999.250000,     -999.2500
     150.41869,       33.8000,        2.1727,   -999.250000,     -999.2500
     150.57109,       33.6000,        2.1928,   -999.250000,     -999.2500
     150.72349,       33.3000,        2.1478,   -999.250000,     -999.2500
     150.87589,       32.1000,        2.1478,   -999.250000,     -999.2500
     151.02829,       30.6000,        2.0417,   -999.250000,     -999.2500
     151.18069,       30.6000,        1.9999,   -999.250000,     -999.2500
     151.33309,       32.5000,        1.9409,   -999.250000,     -999.2500
     151.48549,       34.3000,        1.9815,   -999.250000,     -999.2500
     151.63789,       34.1000,        1.9770,   -999.250000,     -999.2500
     151.79029,       33.2000,        1.9498,   -999.250000,     -999.2500
     151.94269,       32.9000,        1.9634,   -999.250000,     -999.2500
     152.09509,       33.7000,        2.0091,   -999.250000,     -999.2500
     152.24749,       34.2000,        1.9999,   -999.250000,     -999.2500
     152.39989,       33.4000,        1.9861,   -999.250000,     -999.2500
     152.55229,       32.6000,        1.9231,   -999.250000,     -999.2500
     152.70469,       32.9000,        1.9454,   -999.250000,     -999.2500
     152.85709,       33.9000,        1.8967,   -999.250000,     -999.2500
     153.00949,       34.8000,        1.7906,   -999.250000,     -999.2500
     153.16189,       35.8000,        1.6865,   -999.250000,     -999.2500
     153.31429,       36.8000,        1.6218,   -999.250000,     -999.2500
     153.46669,       36.8000,        1.5885,   -999.250000,     -999.2500
     153.61909,       36.6000,        1.5668,   -999.250000,     -999.2500
     153.77149,       37.8000,        1.5776,   -999.250000,     -999.2500
     153.92389,       39.5000,        1.5453,   -999.250000,     -999.2500
     154.07629,       39.8000,        1.5136,   -999.250000,     -999.2500
     154.22869,       38.5000,        1.4859,   -999.250000,     -999.2500
     154.38109,       37.3000,        1.6865,   -999.250000,     -999.2500
     154.53349,       36.8000,        1.6711,   -999.250000,     -999.2500
     154.68589,       36.2000,        1.3366,   -999.250000,     -999.2500
     154.83829,       35.4000,        0.7691,   -999.250000,     -999.2500
     154.99069,       36.3000,        0.3758,   -999.250000,     -999.2500
     155.14309,       39.1000,        0.2761,   -999.250000,     -999.2500
     155.29549,       43.4000,        0.3556,   -999.250000,     -999.2500
     155.44789,       47.9000,        0.6012,   -999.250000,     -999.2500
     155.60029,       51.4000,        1.6634,   -999.250000,     -999.2500
     155.75269,       53.2000,        2.4099,   -999.250000,     -999.2500
     155.90509,       52.7000,        2.6854,   -999.250000,     -999.2500
     156.05749,       51.5000,        2.1677,   -999.250000,     -999.2500
     156.20989,       51.2000,        1.8793,   -999.250000,     -999.2500
     156.36229,       52.3000,        1.8281,   -999.250000,     -999.2500
     156.51469,       54.4000,        1.7418,   -999.250000,     -999.2500
     156.66709,       56.1000,        1.5922,   -999.250000,     -999.2500
     156.81949,       56.5000,        1.4962,   -999.250000,     -999.2500
     156.97189,       56.2000,        1.4223,   -999.250000,     -999.2500
     157.12429,       55.5000,        1.4723,   -999.250000,     -999.2500
     157.27669,       55.2000,        1.5488,   -999.250000,     -999.2500
     157.42909,       56.4000,        1.6033,   -999.250000,     -999.2500
     157.58149,       58.2000,        1.5595,   -999.250000,     -999.2500
