~Version
VERS  .             3.0                                 : CWLS LOG ASCII STANDARD - VERSION 3.0
WRAP  .             NO                                  : One line per depth step
DLM   .             COMMA                               : Delimiter character between data columns
#Delimiting character ( SPACE TAB OR COMMA ).

~Well
#MNEM.UNIT          DATA                                DESCRIPTION
#----- ----        -----------------                   -----------
STRT  .M                 10.97280                       : FIRST INDEX VALUE
STOP  .M               1459.68607                       : LAST INDEX VALUE
STEP  .M                  0.15240                       : STEP OF INDEX
NULL  .             -999.25                             : NULL VALUE
COMP  .                                                 : COMPANY
WELL  .             KRAZ                                : WELL
FLD   .                                                 : FIELD
LOC   .                                                 : LOCATION
SRVC  .                                                 : SERVICE COMPANY
CTRY  .                                                 : COUNTRY
PROV  .                                                 : PROVINCE
UWI   .                                                 : UNIQUE WELL ID
LIC   .                                                 : LICENSE NUMBER
STAT  .                                                 : STATE
CNTY  .                                                 : COUNTY
API   .                                                 : API NUMBER
DATE  .                                                 : LOG DATE
X     .             653929.1957502                      : X OR EAST-WEST COORDINATE
Y     .             8158539.624245                      : Y OR NORTH-SOUTH COORDINATE
HZCS  .                                                 : HORIZONTAL CO-ORDINATE SYSTEM
LATI  .             -16.65055555556                     : LATITUDE
LONG  .             154.4433333333                      : LONGITUDE
GDAT  .                                                 : GEODETIC DATUM

~DEVIATION_PARAMETER 
#MNEM.UNIT                    VALUE                        DESCRIPTION
#--------------- ---         ------------                 -----------------

~DEVIATION_DEFINITION 
#MNEM.UNIT                 LOG CODE                  CURVE DESCRIPTION
#----------- ----         ------------              -----------------
DEPTH       .M                                      :     {F}
AZIMUTH     .DEG                                    :     {F}
DEVIATION   .DEG                                    : 90-DIP    {F}

~DEVIATION_DATA | DEVIATION_DEFINITION
       31.0000,        0.0000,        0.2500
       91.0000,        0.0000,        0.2500
      158.0000,        0.0000,        0.5000
      308.0000,        0.0000,        0.5000
      460.0000,        0.0000,        0.2500
      614.0000,        0.0000,        1.0000
      787.0000,        0.0000,        2.0000
      873.0000,        0.0000,        2.0000
      984.0000,        0.0000,        1.2500
     1146.0000,        0.0000,        1.5000
     1298.0000,        0.0000,        0.7500
     1454.0000,        0.0000,        0.7500

~TOPS_PARAMETER 
#MNEM.UNIT                    VALUE                        DESCRIPTION
#--------------- ---         ------------                 -----------------

~TOPS_DEFINITION 
#MNEM.UNIT                 LOG CODE                  CURVE DESCRIPTION
#----------- ----         ------------              -----------------
DEPTH       .M                                      :     {F}
TOPS        .                                       : Created by PICKS COMMAND    {S32}

~TOPS_DATA | TOPS_DEFINITION
        7.3245,Doyles Creek Subgroup           
      418.1828,Horseshoe Creek Subgroup        
      489.9400,Apple Tree Flat Subgroup        
      747.8995,Watts Sandstone                 
      770.7885,Denman Fm                       
      893.5882,Mt Leonard Fm                   
     1010.7801,Althorpe Fm                     
     1070.0628,Malabar Fm                      
     1106.6852,Mt Ogilvie Fm                   
     1195.3803,Mt Thorley Fm                   
     1223.0760,Burnamwood Fm                   
     1326.0767,Archerfield Sandstone           
     1336.0334,Mulbring Siltstone              
     1401.7250,Muree Sandstone                 
     1458.2609,Branxton Fm                     

~PARAMETER 
#MNEM.UNIT                    VALUE                        DESCRIPTION
#--------------- ---         ------------                 -----------------

~CURVE 
#MNEM.UNIT                 LOG CODE                  CURVE DESCRIPTION
#----------- ----         ------------              -----------------
MD          .M                                      :     {F}
GR          .GAPI         94054010                  : GR_1 (Cleared: Bottom)    {F}
LLD         .OHMM         94220100                  :     {F}
NPHI        .V/V                                    :     {F}
RHOB        .K/M3         94094010                  :     {F}

~ASCII | CURVE 
# ...
     320.80176,       64.9000,        2.1135,   -999.250000,     -999.2500
     320.95416,       69.9000,        1.9770,   -999.250000,     -999.2500
     321.10656,       72.5000,        1.9143,   -999.250000,     -999.2500
     321.25896,       73.0000,        1.9634,   -999.250000,     -999.2500
     321.41136,       72.0000,        1.9543,   -999.250000,     -999.2500
     321.56376,       69.9000,        1.9187,   -999.250000,     -999.2500
     321.71616,       67.5000,        1.8578,   -999.250000,     -999.2500
     321.86856,       65.8000,        1.7989,   -999.250000,     -999.2500
     322.02096,       65.5000,        1.7498,   -999.250000,     -999.2500
     322.17336,       65.2000,        1.7378,   -999.250000,     -999.2500
     322.32576,       64.3000,        1.7579,   -999.250000,     -999.2500
     322.47816,       63.2000,        1.8072,   -999.250000,     -999.2500
     322.63056,       62.8000,        1.8450,   -999.250000,     -999.2500
     322.78296,       63.1000,        1.8793,   -999.250000,     -999.2500
     322.93536,       63.7000,        1.9231,   -999.250000,     -999.2500
     323.08776,       64.0000,        1.9679,   -999.250000,     -999.2500
     323.24016,       63.8000,        2.0045,   -999.250000,     -999.2500
     323.39256,       62.7000,        2.0230,   -999.250000,     -999.2500
     323.54496,       59.4000,        2.0277,   -999.250000,     -999.2500
     323.69736,       55.9000,        2.0137,   -999.250000,     -999.2500
     323.84976,       55.2000,        1.9999,   -999.250000,     -999.2500
     324.00216,       57.2000,        1.9724,   -999.250000,     -999.2500
     324.15456,       60.0000,        1.9543,   -999.250000,     -999.2500
     324.30696,       60.9000,        1.9275,   -999.250000,     -999.2500
     324.45936,       58.6000,        1.9588,   -999.250000,     -999.2500
     324.61176,       54.0000,        2.2909,   -999.250000,     -999.2500
     324.76416,       51.1000,        2.7733,   -999.250000,     -999.2500
     324.91656,       54.3000,        2.9107,   -999.250000,     -999.2500
     325.06896,       60.8000,        2.6792,   -999.250000,     -999.2500
     325.22136,       64.4000,        2.0512,   -999.250000,     -999.2500
     325.37376,       65.0000,        1.7022,   -999.250000,     -999.2500
     325.52616,       66.8000,        1.5524,   -999.250000,     -999.2500
     325.67856,       69.5000,        1.6256,   -999.250000,     -999.2500
     325.83096,       68.3000,        1.6406,   -999.250000,     -999.2500
     325.98336,       63.5000,        1.5171,   -999.250000,     -999.2500
     326.13575,       60.6000,        1.4388,   -999.250000,     -999.2500
     326.28815,       61.1000,        1.4622,   -999.250000,     -999.2500
     326.44055,       62.4000,        1.6711,   -999.250000,     -999.2500
     326.59295,       63.5000,        2.0654,   -999.250000,     -999.2500
     326.74535,       66.3000,        2.4155,   -999.250000,     -999.2500
     326.89775,       70.3000,        2.6915,   -999.250000,     -999.2500
     327.05015,       72.3000,        2.6730,   -999.250000,     -999.2500
     327.20255,       71.5000,        2.5468,   -999.250000,     -999.2500
     327.35495,       69.4000,        2.2909,   -999.250000,     -999.2500
     327.50735,       66.4000,        2.1281,   -999.250000,     -999.2500
     327.65975,       62.4000,        2.0941,   -999.250000,     -999.2500
     327.81215,       59.1000,        2.2387,   -999.250000,     -999.2500
     327.96455,       58.4000,        2.4604,   -999.250000,     -999.2500
     328.11695,       57.7000,        2.7479,   -999.250000,     -999.2500
     328.26935,       54.8000,        2.9785,   -999.250000,     -999.2500
     328.42175,       52.7000,        3.0761,   -999.250000,     -999.2500
     328.57415,       54.1000,        3.0903,   -999.250000,     -999.2500
     328.72655,       56.7000,        2.9107,   -999.250000,     -999.2500
     328.87895,       56.2000,        2.8576,   -999.250000,     -999.2500
     329.03135,       53.7000,        2.7669,   -999.250000,     -999.2500
     329.18375,       53.8000,        2.7290,   -999.250000,     -999.2500
     329.33615,       57.4000,        2.6122,   -999.250000,     -999.2500
     329.48855,       61.5000,        2.4210,   -999.250000,     -999.2500
     329.64095,       62.1000,        2.2961,   -999.250000,     -999.2500
     329.79335,       58.4000,        2.2182,   -999.250000,     -999.2500
     329.94575,       54.3000,        2.2803,   -999.250000,     -999.2500
     330.09815,       53.1000,        2.2751,   -999.250000,     -999.2500
     330.25055,       54.4000,        2.2029,   -999.250000,     -999.2500
     330.40295,       55.7000,        2.0845,   -999.250000,     -999.2500
     330.55535,       55.1000,        2.0464,   -999.250000,     -999.2500
     330.70775,       52.9000,        2.2182,   -999.250000,     -999.2500
     330.86015,       50.9000,        2.5410,   -999.250000,     -999.2500
     331.01255,       49.7000,        2.9717,   -999.250000,     -999.2500
     331.16495,       48.3000,        3.4198,   -999.250000,     -999.2500
     331.31735,       46.5000,        3.7325,   -999.250000,     -999.2500
     331.46975,       45.7000,        3.8726,   -999.250000,     -999.2500
     331.62215,       48.3000,        3.6141,   -999.250000,     -999.2500
     331.77455,       53.2000,        3.0761,   -999.250000,     -999.2500
     331.92695,       56.8000,        2.4717,   -999.250000,     -999.2500
     332.07935,       58.4000,        2.0654,   -999.250000,     -999.2500
     332.23175,       59.2000,        1.9815,   -999.250000,     -999.2500
     332.38415,       60.7000,        1.9815,   -999.250000,     -999.2500
     332.53655,       62.5000,        1.9861,   -999.250000,     -999.2500
     332.68895,       62.7000,        2.0137,   -999.250000,     -999.2500
     332.84135,       61.8000,        2.0137,   -999.250000,     -999.2500
     332.99375,       62.3000,        2.0277,   -999.250000,     -999.2500
     333.14615,       63.9000,        1.9770,   -999.250000,     -999.2500
     333.29855,       63.4000,        1.9679,   -999.250000,     -999.2500
     333.45095,       59.8000,        2.0324,   -999.250000,     -999.2500
     333.60335,       56.8000,        2.0749,   -999.250000,     -999.2500
     333.75575,       56.5000,        2.0989,   -999.250000,     -999.2500
     333.90815,       57.9000,        2.0417,   -999.250000,     -999.2500
     334.06055,       59.8000,        2.0370,   -999.250000,     -999.2500
     334.21295,       62.3000,        2.0277,   -999.250000,     -999.2500
     334.36535,       62.3000,        2.0045,   -999.250000,     -999.2500
     334.51775,       65.2000,        1.9724,   -999.250000,     -999.2500
     334.67015,       66.2000,        1.9187,   -999.250000,     -999.2500
     334.82255,       65.0000,        1.8967,   -999.250000,     -999.2500
     334.97495,       64.4000,        1.8967,   -999.250000,     -999.2500
     335.12735,       65.6000,        1.9187,   -999.250000,     -999.2500
     335.27975,       67.3000,        1.9231,   -999.250000,     -999.2500
     335.43215,       68.1000,        1.9011,   -999.250000,     -999.2500
     335.58455,       67.6000,        1.8880,   -999.250000,     -999.2500
     335.73695,       67.2000,        1.8707,   -999.250000,     -999.2500
     335.88935,       65.9000,        1.8578,   -999.250000,     -999.2500
     336.04175,       63.2000,        1.8535,   -999.250000,     -999.2500
     336.19415,       61.0000,        1.8197,   -999.250000,     -999.2500
     336.34655,       60.8000,        1.8535,   -999.250000,     -999.2500
     336.49895,       62.9000,        1.8793,   -999.250000,     -999.2500
     336.65135,       64.5000,        1.9231,   -999.250000,     -999.2500
     336.80375,       64.3000,        1.8967,   -999.250000,     -999.2500
     336.95615,       62.1000,        1.8535,   -999.250000,     -999.2500
