~Version
VERS  .             3.0                                 : CWLS LOG ASCII STANDARD - VERSION 3.0
WRAP  .             NO                                  : One line per depth step
DLM   .             COMMA                               : Delimiter character between data columns
#Delimiting character ( SPACE TAB OR COMMA ).

~Well
#MNEM.UNIT          DATA                                DESCRIPTION
#----- ----        -----------------                   -----------
STRT  .M                 10.97280                       : FIRST INDEX VALUE
STOP  .M               1459.68607                       : LAST INDEX VALUE
STEP  .M                  0.15240                       : STEP OF INDEX
NULL  .             -999.25                             : NULL VALUE
COMP  .                                                 : COMPANY
WELL  .             KRAZ                                : WELL
FLD   .                                                 : FIELD
LOC   .                                                 : LOCATION
SRVC  .                                                 : SERVICE COMPANY
CTRY  .                                                 : COUNTRY
PROV  .                                                 : PROVINCE
UWI   .                                                 : UNIQUE WELL ID
LIC   .                                                 : LICENSE NUMBER
STAT  .                                                 : STATE
CNTY  .                                                 : COUNTY
API   .                                                 : API NUMBER
DATE  .                                                 : LOG DATE
X     .             653929.1957502                      : X OR EAST-WEST COORDINATE
Y     .             8158539.624245                      : Y OR NORTH-SOUTH COORDINATE
HZCS  .                                                 : HORIZONTAL CO-ORDINATE SYSTEM
LATI  .             -16.65055555556                     : LATITUDE
LONG  .             154.4433333333                      : LONGITUDE
GDAT  .                                                 : GEODETIC DATUM

~DEVIATION_PARAMETER 
#MNEM.UNIT                    VALUE                        DESCRIPTION
#--------------- ---         ------------                 -----------------

~DEVIATION_DEFINITION 
#MNEM.UNIT                 LOG CODE                  CURVE DESCRIPTION
#----------- ----         ------------              -----------------
DEPTH       .M                                      :     {F}
AZIMUTH     .DEG                                    :     {F}
DEVIATION   .DEG                                    : 90-DIP    {F}

~DEVIATION_DATA | DEVIATION_DEFINITION
       31.0000,        0.0000,        0.2500
       91.0000,        0.0000,        0.2500
      158.0000,        0.0000,        0.5000
      308.0000,        0.0000,        0.5000
      460.0000,        0.0000,        0.2500
      614.0000,        0.0000,        1.0000
      787.0000,        0.0000,        2.0000
      873.0000,        0.0000,        2.0000
      984.0000,        0.0000,        1.2500
     1146.0000,        0.0000,        1.5000
     1298.0000,        0.0000,        0.7500
     1454.0000,        0.0000,        0.7500

~TOPS_PARAMETER 
#MNEM.UNIT                    VALUE                        DESCRIPTION
#--------------- ---         ------------                 -----------------

~TOPS_DEFINITION 
#MNEM.UNIT                 LOG CODE                  CURVE DESCRIPTION
#----------- ----         ------------              -----------------
DEPTH       .M                                      :     {F}
TOPS        .                                       : Created by PICKS COMMAND    {S32}

~TOPS_DATA | TOPS_DEFINITION
        7.3245,Doyles Creek Subgroup           
      418.1828,Horseshoe Creek Subgroup        
      489.9400,Apple Tree Flat Subgroup        
      747.8995,Watts Sandstone                 
      770.7885,Denman Fm                       
      893.5882,Mt Leonard Fm                   
     1010.7801,Althorpe Fm                     
     1070.0628,Malabar Fm                      
     1106.6852,Mt Ogilvie Fm                   
     1195.3803,Mt Thorley Fm                   
     1223.0760,Burnamwood Fm                   
     1326.0767,Archerfield Sandstone           
     1336.0334,Mulbring Siltstone              
     1401.7250,Muree Sandstone                 
     1458.2609,Branxton Fm                     

~PARAMETER 
#MNEM.UNIT                    VALUE                        DESCRIPTION
#--------------- ---         ------------                 -----------------

~CURVE 
#MNEM.UNIT                 LOG CODE                  CURVE DESCRIPTION
#----------- ----         ------------              -----------------
MD          .M                                      :     {F}
GR          .GAPI         94054010                  : GR_1 (Cleared: Bottom)    {F}
LLD         .OHMM         94220100                  :     {F}
NPHI        .V/V                                    :     {F}
RHOB        .K/M3         94094010                  :     {F}

~ASCII | CURVE 
# ...
    1445.97008,       48.0000,       38.6367,      0.150100,     2374.0000
    1446.12248,       50.0000,       38.9942,      0.150000,     2387.0000
    1446.27488,       49.9000,       40.0867,      0.152500,     2393.0000
    1446.42728,       48.1000,       41.4954,      0.155900,     2388.0000
    1446.57968,       46.0000,       42.8549,      0.158000,     2378.0000
    1446.73208,       44.7000,       43.5512,      0.158000,     2371.0000
    1446.88448,       44.2000,       43.7522,      0.156200,     2369.0000
    1447.03688,       43.9000,       42.9537,      0.154900,     2368.0000
    1447.18928,       43.4000,       40.1791,      0.156200,     2363.0000
    1447.34168,       44.1000,       36.4754,      0.160900,     2355.0000
    1447.49408,       48.4000,       32.5087,      0.166900,     2356.0000
    1447.64648,       56.0000,       29.0402,      0.173800,     2373.0000
    1447.79888,       64.7000,       26.6073,      0.181500,     2403.0000
    1447.95128,       70.6000,       24.9459,      0.189700,     2425.0000
    1448.10368,       70.7000,       24.7742,      0.192700,     2428.0000
    1448.25608,       67.1000,       25.5270,      0.188100,     2418.0000
    1448.40848,       63.9000,       26.5460,      0.181400,     2407.0000
    1448.56088,       63.1000,       27.5423,      0.178000,     2400.0000
    1448.71328,       63.0000,       28.1838,      0.178500,     2390.0000
    1448.86568,       61.2000,       28.3139,      0.179800,     2378.0000
    1449.01808,       58.7000,       28.6418,      0.180600,     2374.0000
    1449.17048,       57.5000,       28.7740,      0.181000,     2383.0000
    1449.32288,       58.3000,       28.9734,      0.180600,     2397.0000
    1449.47528,       59.2000,       29.0402,      0.178900,     2403.0000
    1449.62768,       57.8000,       29.1743,      0.178100,     2399.0000
    1449.78008,       55.4000,       29.5121,      0.178500,     2395.0000
    1449.93248,       54.2000,       29.5801,      0.179400,     2393.0000
    1450.08488,       54.4000,       29.6483,      0.178600,     2387.0000
    1450.23728,       54.7000,       29.3765,      0.176400,     2377.0000
    1450.38968,       55.9000,       29.2415,      0.173000,     2370.0000
    1450.54208,       57.7000,       29.3765,      0.170400,     2364.0000
    1450.69448,       58.8000,       29.7852,      0.168600,     2355.0000
    1450.84688,       58.9000,       30.1995,      0.167000,     2345.0000
    1450.99928,       58.0000,       30.1301,      0.166500,     2343.0000
    1451.15168,       56.9000,       30.0608,      0.169900,     2349.0000
    1451.30408,       56.0000,       29.9226,      0.178500,     2353.0000
    1451.45648,       55.5000,       29.9226,      0.186300,     2352.0000
    1451.60888,       56.1000,       29.9916,      0.188500,     2352.0000
    1451.76128,       57.0000,       30.0608,      0.184300,     2358.0000
    1451.91368,       57.2000,       29.9916,      0.178700,     2361.0000
    1452.06608,       56.3000,       29.9226,      0.174500,     2353.0000
    1452.21848,       55.3000,       29.7852,      0.172300,     2338.0000
    1452.37088,       55.8000,       29.9226,      0.170600,     2331.0000
    1452.52328,       57.7000,       29.9226,      0.169800,     2336.0000
    1452.67568,       59.4000,       29.9916,      0.170300,     2343.0000
    1452.82808,       59.5000,       29.9226,      0.172400,     2347.0000
    1452.98048,       55.4000,       29.9916,      0.174100,     2346.0000
    1453.13288,       50.5000,       29.9226,      0.173300,     2347.0000
    1453.28528,       53.9000,       29.9916,      0.171100,     2353.0000
    1453.43768,     -999.2500,       30.0608,      0.169900,     2358.0000
    1453.59008,     -999.2500,       29.9916,      0.169900,     2358.0000
    1453.74248,     -999.2500,       30.0608,      0.169900,     2353.0000
    1453.89488,     -999.2500,       29.9916,      0.169900,     2351.0000
    1454.04728,     -999.2500,       29.9226,      0.169900,     2363.0000
    1454.19968,     -999.2500,       29.8538,      0.169900,     2387.0000
    1454.35208,     -999.2500,       29.9226,      0.169900,     2411.0000
    1454.50448,     -999.2500,       29.9226,      0.169600,     2418.0000
    1454.65688,     -999.2500,       29.9226,      0.169600,     2398.0000
    1454.80928,     -999.2500,       29.9226,      0.170000,     2354.0000
    1454.96168,     -999.2500,       27.0396,      0.172200,     2302.0000
    1455.11408,     -999.2500,       24.0436,      0.175200,     2260.0000
    1455.26648,     -999.2500,        1.0000,      0.177300,     2240.0000
    1455.41888,     -999.2500,        1.0000,      0.184700,     2236.0000
    1455.57128,     -999.2500,        1.0000,      0.214200,     2236.0000
    1455.72368,     -999.2500,        1.0000,      0.266100,     2236.0000
    1455.87608,     -999.2500,        1.0000,      0.298800,     2239.0000
    1456.02848,     -999.2500,        1.0000,      0.305700,     2243.0000
    1456.18088,     -999.2500,        1.0000,      0.272000,     2244.0000
    1456.33328,     -999.2500,        1.0000,      0.273000,     2238.0000
    1456.48568,     -999.2500,        1.0000,      0.290400,     2231.0000
    1456.63808,     -999.2500,        1.0000,     -0.026000,     2228.0000
    1456.79048,     -999.2500,        1.0000,     -0.026000,     2227.0000
    1456.94288,     -999.2500,        1.0000,     -0.026000,     2227.0000
    1457.09528,     -999.2500,        1.0000,     -0.026000,     2227.0000
    1457.24768,     -999.2500,        1.0000,     -0.026000,     2227.0000
    1457.40008,     -999.2500,        1.0000,     -0.026000,     2229.0000
    1457.55248,     -999.2500,        1.0000,     -0.026000,     2235.0000
    1457.70488,     -999.2500,        1.0000,     -0.026000,     2241.0000
    1457.85728,     -999.2500,        1.0000,     -0.026000,     2246.0000
    1458.00968,     -999.2500,        1.0000,     -0.026000,     2246.0000
    1458.16207,     -999.2500,        1.0000,     -0.026000,     2243.0000
    1458.31447,     -999.2500,        1.0000,     -0.026000,     2238.0000
    1458.46687,     -999.2500,        1.0000,     -0.026000,     2232.0000
    1458.61927,     -999.2500,        1.0000,     -0.026000,     2236.0000
    1458.77167,     -999.2500,        1.0000,     -0.026000,     2263.0000
    1458.92407,     -999.2500,        1.0000,     -0.026000,     2321.0000
    1459.07647,     -999.2500,        1.0000,     -0.026000,     2388.0000
    1459.22887,     -999.2500,        1.0000,     -0.026000,     2428.0000
    1459.38127,     -999.2500,        1.0000,     -0.026000,     2440.0000
    1459.53367,     -999.2500,        1.0000,   -999.250000,     -999.2500
    1459.68607,     -999.2500,        1.0000,   -999.250000,     -999.2500
