~Version
VERS  .             3.0                                 : CWLS LOG ASCII STANDARD - VERSION 3.0
WRAP  .             NO                                  : One line per depth step
DLM   .             COMMA                               : Delimiter character between data columns
#Delimiting character ( SPACE TAB OR COMMA ).

~Well
#MNEM.UNIT          DATA                                DESCRIPTION
#----- ----        -----------------                   -----------
STRT  .M                 10.97280                       : FIRST INDEX VALUE
STOP  .M               1459.68607                       : LAST INDEX VALUE
STEP  .M                  0.15240                       : STEP OF INDEX
NULL  .             -999.25                             : NULL VALUE
COMP  .                                                 : COMPANY
WELL  .             KRAZ                                : WELL
FLD   .                                                 : FIELD
LOC   .                                                 : LOCATION
SRVC  .                                                 : SERVICE COMPANY
CTRY  .                                                 : COUNTRY
PROV  .                                                 : PROVINCE
UWI   .                                                 : UNIQUE WELL ID
LIC   .                                                 : LICENSE NUMBER
STAT  .                                                 : STATE
CNTY  .                                                 : COUNTY
API   .                                                 : API NUMBER
DATE  .                                                 : LOG DATE
X     .             653929.1957502                      : X OR EAST-WEST COORDINATE
Y     .             8158539.624245                      : Y OR NORTH-SOUTH COORDINATE
HZCS  .                                                 : HORIZONTAL CO-ORDINATE SYSTEM
LATI  .             -16.65055555556                     : LATITUDE
LONG  .             154.4433333333                      : LONGITUDE
GDAT  .                                                 : GEODETIC DATUM

~DEVIATION_PARAMETER 
#MNEM.UNIT                    VALUE                        DESCRIPTION
#--------------- ---         ------------                 -----------------

~DEVIATION_DEFINITION 
#MNEM.UNIT                 LOG CODE                  CURVE DESCRIPTION
#----------- ----         ------------              -----------------
DEPTH       .M                                      :     {F}
AZIMUTH     .DEG                                    :     {F}
DEVIATION   .DEG                                    : 90-DIP    {F}

~DEVIATION_DATA | DEVIATION_DEFINITION
       31.0000,        0.0000,        0.2500
       91.0000,        0.0000,        0.2500
      158.0000,        0.0000,        0.5000
      308.0000,        0.0000,        0.5000
      460.0000,        0.0000,        0.2500
      614.0000,        0.0000,        1.0000
      787.0000,        0.0000,        2.0000
      873.0000,        0.0000,        2.0000
      984.0000,        0.0000,        1.2500
     1146.0000,        0.0000,        1.5000
     1298.0000,        0.0000,        0.7500
     1454.0000,        0.0000,        0.7500

~TOPS_PARAMETER 
#MNEM.UNIT                    VALUE                        DESCRIPTION
#--------------- ---         ------------                 -----------------

~TOPS_DEFINITION 
#MNEM.UNIT                 LOG CODE                  CURVE DESCRIPTION
#----------- ----         ------------              -----------------
DEPTH       .M                                      :     {F}
TOPS        .                                       : Created by PICKS COMMAND    {S32}

~TOPS_DATA | TOPS_DEFINITION
        7.3245,Doyles Creek Subgroup           
      418.1828,Horseshoe Creek Subgroup        
      489.9400,Apple Tree Flat Subgroup        
      747.8995,Watts Sandstone                 
      770.7885,Denman Fm                       
      893.5882,Mt Leonard Fm                   
     1010.7801,Althorpe Fm                     
     1070.0628,Malabar Fm                      
     1106.6852,Mt Ogilvie Fm                   
     1195.3803,Mt Thorley Fm                   
     1223.0760,Burnamwood Fm                   
     1326.0767,Archerfield Sandstone           
     1336.0334,Mulbring Siltstone              
     1401.7250,Muree Sandstone                 
     1458.2609,Branxton Fm                     

~PARAMETER 
#MNEM.UNIT                    VALUE                        DESCRIPTION
#--------------- ---         ------------                 -----------------

~CURVE 
#MNEM.UNIT                 LOG CODE                  CURVE DESCRIPTION
#----------- ----         ------------              -----------------
MD          .M                                      :     {F}
GR          .GAPI         94054010                  : GR_1 (Cleared: Bottom)    {F}
LLD         .OHMM         94220100                  :     {F}
NPHI        .V/V                                    :     {F}
RHOB        .K/M3         94094010                  :     {F}

~ASCII | CURVE 
# ...
    1266.59542,       95.1000,       13.1826,      0.278300,     2351.0000
    1266.74782,       96.0000,       13.3352,      0.280600,     2348.0000
    1266.90022,       98.0000,       13.5519,      0.288000,     2361.0000
    1267.05262,      100.6000,       13.3352,      0.295300,     2380.0000
    1267.20502,      102.4000,       12.4165,      0.299900,     2391.0000
    1267.35742,      102.8000,       11.6413,      0.303800,     2394.0000
    1267.50982,      101.1000,       11.5878,      0.310600,     2395.0000
    1267.66222,       98.5000,       12.3880,      0.318400,     2409.0000
    1267.81462,       96.6000,       13.3968,      0.325100,     2443.0000
    1267.96702,       97.0000,       13.9959,      0.329600,     2481.0000
    1268.11942,       99.0000,       13.8676,      0.333500,     2496.0000
    1268.27182,      100.0000,       13.3352,      0.335100,     2484.0000
    1268.42422,       99.2000,       12.8529,      0.334600,     2460.0000
    1268.57662,       98.2000,       12.7938,      0.327800,     2439.0000
    1268.72902,       99.6000,       13.0017,      0.313300,     2425.0000
    1268.88142,      102.9000,       13.3968,      0.294700,     2418.0000
    1269.03382,      104.9000,       13.8676,      0.281600,     2413.0000
    1269.18622,      104.6000,       14.3219,      0.281100,     2410.0000
    1269.33862,      104.4000,       14.5211,      0.289000,     2406.0000
    1269.49102,      105.9000,       14.2889,      0.293500,     2404.0000
    1269.64342,      107.6000,       13.8676,      0.289500,     2405.0000
    1269.79582,      107.0000,       13.5207,      0.285100,     2404.0000
    1269.94822,      104.1000,       13.2129,      0.286100,     2402.0000
    1270.10062,      101.6000,       13.0918,      0.290100,     2399.0000
    1270.25302,      100.6000,       13.0017,      0.291300,     2393.0000
    1270.40542,      102.1000,       12.8825,      0.290100,     2384.0000
    1270.55782,      105.9000,       12.6474,      0.292900,     2379.0000
    1270.71022,      110.5000,       12.4165,      0.299200,     2385.0000
    1270.86262,      113.8000,       12.1060,      0.306500,     2397.0000
    1271.01502,      115.1000,       11.7490,      0.315500,     2408.0000
    1271.16742,      116.4000,       11.2720,      0.325000,     2418.0000
    1271.31982,      117.0000,       11.0154,      0.329400,     2429.0000
    1271.47222,      114.7000,       11.0662,      0.325000,     2440.0000
    1271.62462,      111.0000,       11.5878,      0.317100,     2446.0000
    1271.77702,      109.0000,       12.2180,      0.312700,     2444.0000
    1271.92942,      109.0000,       12.6183,      0.311500,     2438.0000
    1272.08182,      108.9000,       12.6183,      0.311500,     2434.0000
    1272.23422,      110.1000,       12.3310,      0.316700,     2430.0000
    1272.38662,      112.9000,       12.0504,      0.330500,     2429.0000
    1272.53902,      113.8000,       11.7490,      0.346600,     2440.0000
    1272.69142,      110.9000,       11.5878,      0.354200,     2463.0000
    1272.84382,      105.8000,       11.4288,      0.347200,     2484.0000
    1272.99622,      101.6000,       11.5080,      0.331600,     2486.0000
    1273.14862,       99.5000,       11.5345,      0.320000,     2471.0000
    1273.30102,       99.3000,       11.5345,      0.313900,     2453.0000
    1273.45342,      100.7000,       11.3240,      0.310000,     2435.0000
    1273.60582,      103.1000,       11.0408,      0.307200,     2418.0000
    1273.75822,      105.6000,       10.9901,      0.307800,     2409.0000
    1273.91062,      107.9000,       11.0917,      0.311100,     2411.0000
    1274.06302,      109.2000,       11.3501,      0.313400,     2418.0000
    1274.21542,      109.6000,       11.5878,      0.314600,     2423.0000
    1274.36782,      109.5000,       11.5611,      0.314700,     2429.0000
    1274.52022,      108.8000,       11.2980,      0.311900,     2437.0000
    1274.67262,      108.1000,       11.0408,      0.304600,     2443.0000
    1274.82502,      106.9000,       10.9144,      0.297300,     2442.0000
    1274.97742,      105.4000,       10.9396,      0.294000,     2434.0000
    1275.12982,      105.4000,       10.8143,      0.294600,     2425.0000
    1275.28222,      107.1000,       10.5439,      0.297500,     2420.0000
    1275.43462,      108.8000,       10.1625,      0.301000,     2422.0000
    1275.58702,      109.0000,        9.9541,      0.308900,     2431.0000
    1275.73942,      107.4000,       10.0462,      0.320800,     2442.0000
    1275.89182,      106.4000,       10.4472,      0.327500,     2449.0000
    1276.04422,      106.9000,       10.8143,      0.323800,     2445.0000
    1276.19662,      107.3000,       11.0154,      0.313400,     2435.0000
    1276.34902,      105.3000,       11.1173,      0.305000,     2432.0000
    1276.50142,      101.1000,       10.9901,      0.303900,     2433.0000
    1276.65382,       99.2000,       10.6906,      0.307400,     2427.0000
    1276.80622,      101.7000,       10.1859,      0.312500,     2420.0000
    1276.95862,      104.9000,        9.9083,      0.314300,     2424.0000
    1277.11102,      104.8000,        9.9541,      0.314900,     2443.0000
    1277.26342,      102.7000,       10.1625,      0.320600,     2464.0000
    1277.41582,      103.2000,       10.3039,      0.331200,     2478.0000
    1277.56822,      106.7000,       10.4232,      0.334600,     2486.0000
    1277.72062,      110.3000,       10.5196,      0.322500,     2483.0000
    1277.87302,      110.6000,       10.8143,      0.301200,     2466.0000
    1278.02541,      107.0000,       10.9396,      0.287000,     2445.0000
    1278.17781,      103.5000,       10.7895,      0.284800,     2428.0000
    1278.33021,      104.4000,       10.2094,      0.291000,     2415.0000
    1278.48261,      109.2000,        9.5280,      0.304200,     2414.0000
    1278.63501,      113.6000,        8.9950,      0.322400,     2425.0000
    1278.78741,      115.0000,        8.7498,      0.335800,     2439.0000
    1278.93981,      113.8000,        8.6896,      0.340800,     2447.0000
    1279.09221,      110.3000,        8.9125,      0.341400,     2448.0000
    1279.24461,      105.9000,        9.1833,      0.342000,     2447.0000
    1279.39701,      104.4000,        9.3325,      0.342000,     2446.0000
    1279.54941,      107.8000,        9.3541,      0.336100,     2447.0000
    1279.70181,      111.3000,        9.2470,      0.326000,     2452.0000
    1279.85421,      109.9000,        9.4406,      0.315500,     2452.0000
    1280.00661,      106.4000,       10.0925,      0.305900,     2440.0000
    1280.15901,      105.8000,       11.0154,      0.297500,     2422.0000
    1280.31141,      108.4000,       11.4815,      0.292500,     2411.0000
    1280.46381,      111.1000,       11.2460,      0.298100,     2413.0000
    1280.61621,      113.1000,       10.5196,      0.313400,     2421.0000
    1280.76861,      115.0000,        9.9541,      0.328100,     2430.0000
    1280.92101,      115.3000,        9.8628,      0.331500,     2438.0000
    1281.07341,      113.5000,       10.2802,      0.318500,     2444.0000
    1281.22581,      111.3000,       11.0662,      0.296400,     2446.0000
    1281.37821,      110.8000,       12.1619,      0.273900,     2442.0000
    1281.53061,      112.7000,       13.2739,      0.257000,     2433.0000
    1281.68301,      114.7000,       14.6218,      0.242700,     2428.0000
    1281.83541,      113.5000,       16.7494,      0.231200,     2432.0000
    1281.98781,      108.7000,       19.0985,      0.221800,     2445.0000
    1282.14021,      104.2000,       21.1836,      0.215300,     2459.0000
    1282.29261,      102.7000,       20.3704,      0.216200,     2473.0000
    1282.44501,      102.5000,       17.2187,      0.227500,     2491.0000
    1282.59741,      101.9000,       13.0017,      0.249900,     2510.0000
    1282.74981,      101.7000,        9.7949,      0.276700,     2515.0000
