~Version
VERS  .             3.0                                 : CWLS LOG ASCII STANDARD - VERSION 3.0
WRAP  .             NO                                  : One line per depth step
DLM   .             COMMA                               : Delimiter character between data columns
#Delimiting character ( SPACE TAB OR COMMA ).

~Well
#MNEM.UNIT          DATA                                DESCRIPTION
#----- ----        -----------------                   -----------
STRT  .M                 10.97280                       : FIRST INDEX VALUE
STOP  .M               1459.68607                       : LAST INDEX VALUE
STEP  .M                  0.15240                       : STEP OF INDEX
NULL  .             -999.25                             : NULL VALUE
COMP  .                                                 : COMPANY
WELL  .             KRAZ                                : WELL
FLD   .                                                 : FIELD
LOC   .                                                 : LOCATION
SRVC  .                                                 : SERVICE COMPANY
CTRY  .                                                 : COUNTRY
PROV  .                                                 : PROVINCE
UWI   .                                                 : UNIQUE WELL ID
LIC   .                                                 : LICENSE NUMBER
STAT  .                                                 : STATE
CNTY  .                                                 : COUNTY
API   .                                                 : API NUMBER
DATE  .                                                 : LOG DATE
X     .             653929.1957502                      : X OR EAST-WEST COORDINATE
Y     .             8158539.624245                      : Y OR NORTH-SOUTH COORDINATE
HZCS  .                                                 : HORIZONTAL CO-ORDINATE SYSTEM
LATI  .             -16.65055555556                     : LATITUDE
LONG  .             154.4433333333                      : LONGITUDE
GDAT  .                                                 : GEODETIC DATUM

~DEVIATION_PARAMETER 
#MNEM.UNIT                    VALUE                        DESCRIPTION
#--------------- ---         ------------                 -----------------

~DEVIATION_DEFINITION 
#MNEM.UNIT                 LOG CODE                  CURVE DESCRIPTION
#----------- ----         ------------              -----------------
DEPTH       .M                                      :     {F}
AZIMUTH     .DEG                                    :     {F}
DEVIATION   .DEG                                    : 90-DIP    {F}

~DEVIATION_DATA | DEVIATION_DEFINITION
       31.0000,        0.0000,        0.2500
       91.0000,        0.0000,        0.2500
      158.0000,        0.0000,        0.5000
      308.0000,        0.0000,        0.5000
      460.0000,        0.0000,        0.2500
      614.0000,        0.0000,        1.0000
      787.0000,        0.0000,        2.0000
      873.0000,        0.0000,        2.0000
      984.0000,        0.0000,        1.2500
     1146.0000,        0.0000,        1.5000
     1298.0000,        0.0000,        0.7500
     1454.0000,        0.0000,        0.7500

~TOPS_PARAMETER 
#MNEM.UNIT                    VALUE                        DESCRIPTION
#--------------- ---         ------------                 -----------------

~TOPS_DEFINITION 
#MNEM.UNIT                 LOG CODE                  CURVE DESCRIPTION
#----------- ----         ------------              -----------------
DEPTH       .M                                      :     {F}
TOPS        .                                       : Created by PICKS COMMAND    {S32}

~TOPS_DATA | TOPS_DEFINITION
        7.3245,Doyles Creek Subgroup           
      418.1828,Horseshoe Creek Subgroup        
      489.9400,Apple Tree Flat Subgroup        
      747.8995,Watts Sandstone                 
      770.7885,Denman Fm                       
      893.5882,Mt Leonard Fm                   
     1010.7801,Althorpe Fm                     
     1070.0628,Malabar Fm                      
     1106.6852,Mt Ogilvie Fm                   
     1195.3803,Mt Thorley Fm                   
     1223.0760,Burnamwood Fm                   
     1326.0767,Archerfield Sandstone           
     1336.0334,Mulbring Siltstone              
     1401.7250,Muree Sandstone                 
     1458.2609,Branxton Fm                     

~PARAMETER 
#MNEM.UNIT                    VALUE                        DESCRIPTION
#--------------- ---         ------------                 -----------------

~CURVE 
#MNEM.UNIT                 LOG CODE                  CURVE DESCRIPTION
#----------- ----         ------------              -----------------
MD          .M                                      :     {F}
GR          .GAPI         94054010                  : GR_1 (Cleared: Bottom)    {F}
LLD         .OHMM         94220100                  :     {F}
NPHI        .V/V                                    :     {F}
RHOB        .K/M3         94094010                  :     {F}

~ASCII | CURVE 
# ...
     842.61895,       76.8000,        1.8239,   -999.250000,     -999.2500
     842.77135,       77.4000,        1.8750,   -999.250000,     -999.2500
     842.92375,       79.4000,        1.8880,   -999.250000,     -999.2500
     843.07615,       81.3000,        1.9187,   -999.250000,     -999.2500
     843.22855,       80.5000,        1.9454,   -999.250000,     -999.2500
     843.38095,       77.0000,        1.9907,   -999.250000,     -999.2500
     843.53335,       74.5000,        1.9999,   -999.250000,     -999.2500
     843.68575,       73.6000,        1.9187,   -999.250000,     -999.2500
     843.83815,       73.7000,        1.7947,   -999.250000,     -999.2500
     843.99055,       73.6000,        1.7701,   -999.250000,     -999.2500
     844.14295,       74.0000,        1.8707,   -999.250000,     -999.2500
     844.29535,       76.4000,        2.0417,   -999.250000,     -999.2500
     844.44775,       79.5000,        2.2029,   -999.250000,     -999.2500
     844.60015,       80.8000,        2.3281,   -999.250000,     -999.2500
     844.75255,       79.6000,        2.3988,   -999.250000,     -999.2500
     844.90495,       78.4000,        2.4099,   -999.250000,     -999.2500
     845.05735,       79.0000,        2.3227,   -999.250000,     -999.2500
     845.20975,       80.0000,        2.1979,   -999.250000,     -999.2500
     845.36215,       80.0000,        2.0893,   -999.250000,     -999.2500
     845.51455,       80.2000,        2.0512,   -999.250000,     -999.2500
     845.66695,       82.1000,        2.0606,   -999.250000,     -999.2500
     845.81935,       84.4000,        2.0749,   -999.250000,     -999.2500
     845.97175,       84.6000,        2.0797,   -999.250000,     -999.2500
     846.12415,       81.7000,        2.1038,   -999.250000,     -999.2500
     846.27655,       78.0000,        2.1928,   -999.250000,     -999.2500
     846.42895,       76.5000,        2.2131,   -999.250000,     -999.2500
     846.58135,       78.3000,        2.2080,   -999.250000,     -999.2500
     846.73375,       82.1000,        2.0893,   -999.250000,     -999.2500
     846.88615,       85.7000,        1.9409,   -999.250000,     -999.2500
     847.03855,       88.3000,        1.8365,   -999.250000,     -999.2500
     847.19095,       89.5000,        1.7660,   -999.250000,     -999.2500
     847.34335,       89.4000,        1.7947,   -999.250000,     -999.2500
     847.49575,       89.3000,        1.7989,   -999.250000,     -999.2500
     847.64815,       89.2000,        1.8281,   -999.250000,     -999.2500
     847.80055,       89.0000,        1.8365,   -999.250000,     -999.2500
     847.95295,       87.3000,        1.8535,   -999.250000,     -999.2500
     848.10535,       84.1000,        1.8750,   -999.250000,     -999.2500
     848.25775,       80.7000,        1.8880,   -999.250000,     -999.2500
     848.41015,       78.5000,        1.8750,   -999.250000,     -999.2500
     848.56255,       79.3000,        1.8323,   -999.250000,     -999.2500
     848.71495,       82.3000,        1.7458,   -999.250000,     -999.2500
     848.86735,       84.8000,        1.6904,   -999.250000,     -999.2500
     849.01975,       86.1000,        1.6558,   -999.250000,     -999.2500
     849.17215,       86.7000,        1.7100,   -999.250000,     -999.2500
     849.32455,       87.1000,        1.8030,   -999.250000,     -999.2500
     849.47695,       86.7000,        1.8365,   -999.250000,     -999.2500
     849.62935,       84.8000,        1.7989,   -999.250000,     -999.2500
     849.78175,       82.6000,        1.6711,   -999.250000,     -999.2500
     849.93415,       81.5000,        1.5849,   -999.250000,     -999.2500
     850.08655,       81.2000,        1.5524,   -999.250000,     -999.2500
     850.23895,       81.7000,        1.6444,   -999.250000,     -999.2500
     850.39135,       83.5000,        1.7579,   -999.250000,     -999.2500
     850.54375,       85.9000,        1.8450,   -999.250000,     -999.2500
     850.69615,       87.2000,        1.8113,   -999.250000,     -999.2500
     850.84855,       86.7000,        1.7100,   -999.250000,     -999.2500
     851.00095,       86.5000,        1.5959,   -999.250000,     -999.2500
     851.15335,       87.5000,        1.5488,   -999.250000,     -999.2500
     851.30575,       87.4000,        1.5488,   -999.250000,     -999.2500
     851.45815,       86.8000,        1.5595,   -999.250000,     -999.2500
     851.61055,       86.4000,        1.5560,   -999.250000,     -999.2500
     851.76295,       87.0000,        1.5560,   -999.250000,     -999.2500
     851.91535,       88.9000,        1.5740,   -999.250000,     -999.2500
     852.06775,       90.8000,        1.5996,   -999.250000,     -999.2500
     852.22015,       91.7000,        1.6256,   -999.250000,     -999.2500
     852.37255,       90.7000,        1.6368,   -999.250000,     -999.2500
     852.52495,       89.0000,        1.6256,   -999.250000,     -999.2500
     852.67735,       88.2000,        1.6144,   -999.250000,     -999.2500
     852.82975,       87.6000,        1.5959,   -999.250000,     -999.2500
     852.98215,       87.1000,        1.6033,   -999.250000,     -999.2500
     853.13455,       87.4000,        1.6218,   -999.250000,     -999.2500
     853.28695,       89.0000,        1.6672,   -999.250000,     -999.2500
     853.43935,       90.7000,        1.6943,   -999.250000,     -999.2500
     853.59174,       91.3000,        1.7022,   -999.250000,     -999.2500
     853.74414,       90.8000,        1.7458,   -999.250000,     -999.2500
     853.89654,       89.8000,        1.7783,   -999.250000,     -999.2500
     854.04894,       89.0000,        1.7783,   -999.250000,     -999.2500
     854.20134,       88.7000,        1.7338,   -999.250000,     -999.2500
     854.35374,       89.3000,        1.6827,   -999.250000,     -999.2500
     854.50614,       91.1000,        1.6634,   -999.250000,     -999.2500
     854.65854,       93.1000,        1.6827,   -999.250000,     -999.2500
     854.81094,       93.8000,        1.6788,   -999.250000,     -999.2500
     854.96334,       93.8000,        1.6904,   -999.250000,     -999.2500
     855.11574,       94.9000,        1.6711,   -999.250000,     -999.2500
     855.26814,       96.1000,        1.6520,   -999.250000,     -999.2500
     855.42054,       94.9000,        1.6330,   -999.250000,     -999.2500
     855.57294,       91.2000,        1.6558,   -999.250000,     -999.2500
     855.72534,       89.3000,        1.7258,   -999.250000,     -999.2500
     855.87774,       89.4000,        1.8113,   -999.250000,     -999.2500
     856.03014,       88.9000,        1.8880,   -999.250000,     -999.2500
     856.18254,       87.1000,        1.9770,   -999.250000,     -999.2500
     856.33494,       85.5000,        2.0559,   -999.250000,     -999.2500
     856.48734,       85.7000,        2.0606,   -999.250000,     -999.2500
     856.63974,       85.9000,        1.9861,   -999.250000,     -999.2500
     856.79214,       85.1000,        1.8750,   -999.250000,     -999.2500
     856.94454,       84.0000,        1.7989,   -999.250000,     -999.2500
     857.09694,       84.1000,        1.8113,   -999.250000,     -999.2500
     857.24934,       85.5000,        1.8750,   -999.250000,     -999.2500
     857.40174,       86.3000,        1.9231,   -999.250000,     -999.2500
     857.55414,       86.2000,        1.9409,   -999.250000,     -999.2500
     857.70654,       85.8000,        1.8707,   -999.250000,     -999.2500
     857.85894,       85.9000,        1.8239,   -999.250000,     -999.2500
     858.01134,       84.9000,        1.7219,   -999.250000,     -999.2500
     858.16374,       83.6000,        1.6596,   -999.250000,     -999.2500
     858.31614,       83.3000,        1.6033,   -999.250000,     -999.2500
     858.46854,       83.6000,        1.5996,   -999.250000,     -999.2500
     858.62094,       84.4000,        1.6293,   -999.250000,     -999.2500
     858.77334,       84.6000,        1.6943,   -999.250000,     -999.2500
