~Version Information Block
VERS .                 2.00:  CWLS LOG ASCII STANDARD - VERSION 2.00
WRAP .                   NO:  One line per depth step
~Well Information Block
#MNEM.UNIT        Data Type   Information
#---------- ----------------  -----------
STRT .Ft             1820.0:  START DEPTH
STOP .Ft             5489.0:  STOP DEPTH
STEP .Ft                1.0:  STEP
NULL .              -999.25:  NULL VALUE
COMP .                     :  COMPANY
WELL .               SIRIUS:  WELL
FLD  .                     :  FIELD
LOC  .                     :  LOCATION
CTRY .                     :  COUNTRY
STAT .                     :  STATE
CNTY .                     :  COUNTY
API  .                     :  API NUMBER
UWI  .                     :  UNIQUE WELL ID
SRVC .                     :  SERVICE COMPANY
DATE .                     :  LOG DATE
~Curve Information Block
#MNEM.UNIT         API CODE   Curve Description
#---------- ----------------  -----------------
DEPTH.Ft                   :  
BS   .IN                   :  Created using text_insert
GR   .GAPI                 :  
ILD  .OHMM                 :  
ILM  .OHMM                 :  
NPHI .V/V                  :  
RHOB .G/C3                 :  
SFLU .OHMM                 :  
SP   .MV                   :  Curve edited
~Parameter Information Block
#MNEM.UNIT            Value   Description
#---------- ----------------  -----------
SET  .                 WIRE:  
DATE_LOGGED.           29/02/2002:  
DATUM_ELEVATION.                  MSL:  
TD   .Ft     5170.603674541:  
APIN .                   17:  
CN   .         UNIVERSE CO.:  
TDD  .Ft               5489:  
ELZ  .Ft     567.0603674541:  
LATI .     16 39' 16.000" S:  
FL   .     MILKY WAY GALAXY:  
LONG .     154 25' 57.000" E:  
LMF  .                   KB:  
OPER .                COMET:  
EGL  .Ft      553.937007874:  
SYMBOL.                 WOGS:  
UWID .               SIRIUS:  
WELL_NAME.               SIRIUS:  
XOFFSET_BOTTOM.Ft                  0:  
XREF .Ft     2141635.666018:  
YOFFSET_BOTTOM.Ft     88.74886698094:  
YREF .Ft     26765477.77954:  
~Other Information Block
COMMENT:
COMMENT1:
Ref No.:2        Report No.: 28556  "Drill cuttings, Formation tests, Geothermal gradients, Lithology, Water analysis, Well velocity surveys, Wire line logging"          WELL COMPLETION REPORT
Ref No.:2        Report No.: 28556  "Drill cuttings, Formation tests, Geothermal gradients, Lithology, Water analysis, Well velocity surveys, Wire line logging"          WELL COMPLETION REPORT
Ref No.:2        Report No.: 28556  "Drill cuttings, Formation tests, Geothermal gradients, Lithology, Water analysis, Well velocity surveys, Wire line logging"          WELL COMPLETION REPORT
Ref No.:2        Report No.: 28556  "Drill cuttings, Formation tests, Geothermal gradients, Lithology, Water analysis, Well velocity surveys, Wire line logging"          WELL COMPLETION REPORT
COMMENT2:
Ref no.:1        Report No.: 25780
Ref no.:1        Report No.: 25780
Ref no.:1        Report No.: 25780
Ref no.:1        Report No.: 25780

#        DEPTH             BS             GR            ILD            ILM           NPHI           RHOB           SFLU             SP 
~A
# ...
        5420.0         8.5000       109.1700         0.8100         0.8100       0.375500         2.3693         1.1000       -66.3376
        5421.0         8.5000       109.5700         0.8800         0.8900       0.385400         2.3836         1.1300       -65.2388
        5422.0         8.5000       101.8700         0.9800         1.0800       0.364000         2.4237         1.2200       -65.3700
        5423.0         8.5000        94.4200         1.5700         1.1500       0.382800         2.4635         2.4400       -66.2912
        5424.0         8.5000       109.5800         1.1500         1.0700       0.464500         2.4196         1.6800       -67.3924
        5425.0         8.5000       112.5400         0.8300         0.9400       0.422600         2.3852         1.0200       -68.2236
        5426.0         8.5000       124.4600         0.6800         0.7800       0.448500         2.3131         0.8000       -68.3748
        5427.0         8.5000       134.6500         0.6100         0.6500       0.452600         2.2465         0.7500       -67.2560
        5428.0         8.5000       140.6200         0.6600         0.5800       0.461300         2.2377         0.9500       -66.1572
        5429.0         8.5000       158.0700         0.6300         0.6300       0.510000         2.2202         0.8900       -85.6084
        5430.0         8.5000       148.6400         0.6900         0.7400       0.550800         2.1674         0.9900       -86.5896
        5431.0         8.5000       159.6500         0.7500         0.8800       0.546600         2.1690         1.1300       -87.0308
        5432.0         8.5000       146.4100         0.7700         0.9600       0.439200         2.2437         1.0000       -86.2120
        5433.0         8.5000       132.8900         0.8600         1.0100       0.404000         2.2732         1.2100       -67.0432
        5434.0         8.5000       127.4800         0.9400         1.0200       0.409500         2.2935         1.2500       -68.8744
        5435.0         8.5000       130.7000         0.8700         0.9800       0.419000         2.3492         1.1500       -69.8556
        5436.0         8.5000       122.5100         0.7800         0.8700       0.409900         2.3897         0.9900       -70.3368
        5437.0         8.5000       116.7000         0.8500         0.8600       0.332900         2.4566         1.0300       -70.2380
        5438.0         8.5000       104.1000         1.2100         0.9500       0.335100         2.4675         1.6900       -70.2592
        5439.0         8.5000       106.5400         1.1000         1.0700       0.344200         2.4551         1.4000       -71.3904
        5440.0         8.5000       106.5100         1.1800         1.2200       0.321100         2.5046         1.0800       -73.1016
        5441.0         8.5000       101.3900         1.3400         1.3800       0.242100         2.5396         1.4100       -74.8028
        5442.0         8.5000        92.7900         1.9900         1.5500       0.237600         2.5512         2.4500       -76.0940
        5443.0         8.5000        96.7200         1.8300         1.6500       0.253100         2.5237         2.0000       -76.9252
        5444.0         8.5000        95.4200         1.6200         1.6900       0.245400         2.5394         1.7200       -76.9364
        5445.0         8.5000        96.5800         1.9200         1.7000       0.250600         2.5701         2.3700       -76.3376
        5446.0         8.5000        93.8000         1.5500         1.6900       0.263500         2.5561         1.6900       -75.5188
        5447.0         8.5000        93.4100         1.8700         1.6400       0.294000         2.4981         2.4400       -74.5800
        5448.0         8.5000        91.8600         1.4700         1.5400       0.321400         2.5253         1.9300       -73.8812
        5449.0         8.5000       103.5100         1.3200         1.3600       0.308300         2.5139         1.2900       -73.3324
        5450.0         8.5000        99.7000         1.2400         1.2500       0.330200         2.4679         1.5700       -72.7136
        5451.0         8.5000        93.5500         1.1500         1.2200       0.355700         2.4290         1.3500       -71.3947
        5452.0         8.5000        92.7900         1.0800         1.2000       0.358500         2.4717         1.3400       -71.5559
        5453.0         8.5000        95.5000         1.1800         1.1500       0.378900         2.4889         1.6600       -70.8171
        5454.0         8.5000        95.7900         0.9100         0.9900       0.388200         2.4209         1.2000       -70.0783
        5455.0         8.5000        98.6900         0.8300         0.8500       0.367800         2.3808         0.9200       -70.0195
        5456.0         8.5000       102.8700         0.7700         0.7900       0.360400         2.3400         0.9000       -69.5807
        5457.0         8.5000       103.1400         0.7500         0.7700       0.367300         2.3083         0.9700       -68.8719
        5458.0         8.5000       103.2700         0.7400         0.7600       0.366000         2.3796         1.0700       -68.6331
        5459.0         8.5000       103.5600         0.7600         0.7700       0.362300         2.3813         0.9200       -88.7743
        5460.0         8.5000       103.7500         0.7900         0.8000       0.353500         2.3876         0.9900       -69.0755
        5461.0         8.5000       103.9800         0.8400         0.8500       0.381400         2.4655         1.0500       -70.0767
        5462.0         8.5000       104.3500         0.9300         0.9200       0.369700         2.4518         1.1500       -71.4579
        5463.0         8.5000       104.9000         1.0300         1.1000       0.379100         2.3227         1.3200       -72.2091
        5464.0         8.5000       104.6700         1.3100         1.5400       0.380400         2.4436         0.9500       -71.3703
        5465.0         8.5000       103.4400         2.2400         2.1000       0.395400         2.5727         3.8300       -89.5415
        5466.0         8.5000       102.8700         5.3900         2.7800       0.395800         2.5763         8.6200       -90.7627
        5467.0         8.5000       102.5000         4.0700         3.3400       0.396200         2.5434         6.9100       -72.6839
        5468.0         8.5000       102.3500         1.4600         2.0400       0.396800         2.4347         1.5100       -78.6251
        5469.0         8.5000       102.2200         1.2700         1.5200       0.397200         2.4887         1.2100       -79.3763
        5470.0         8.5000       101.5700         1.3300         1.4800       0.399200         2.5429         1.6500       -78.5675
        5471.0         8.5000        99.5200         1.3900         1.5400       0.404000         2.5183         1.1700       -76.7987
        5472.0         8.5000        97.6500         1.5100         1.5800       0.408100         2.5134         1.1700       -76.0199
        5473.0         8.5000        97.0100         1.5900         1.6100       0.410300         2.4843         1.1900       -75.6511
        5474.0         8.5000        96.6900         1.5900         1.6400       0.410500         2.4704         1.6300       -75.6723
        5475.0         8.5000        96.6800         1.6000         1.6600       0.410000         2.4638         1.6200       -77.9635
        5476.0         8.5000        96.7600         1.6300         1.6800       0.409600         2.4667         1.6100       -78.1947
        5477.0         8.5000        96.8100         1.6700         1.6600       0.409500         2.4560         1.7900       -77.6459
        5478.0         8.5000        96.8200         1.6600         1.6300       0.409400         2.4754         2.0500       -76.4371
        5479.0         8.5000        96.7700         1.7000         1.6600       0.409500         2.4782         1.6500       -76.7083
