~Version Information Block
VERS .                 2.00:  CWLS LOG ASCII STANDARD - VERSION 2.00
WRAP .                   NO:  One line per depth step
~Well Information Block
#MNEM.UNIT        Data Type   Information
#---------- ----------------  -----------
STRT .Ft             1820.0:  START DEPTH
STOP .Ft             5489.0:  STOP DEPTH
STEP .Ft                1.0:  STEP
NULL .              -999.25:  NULL VALUE
COMP .                     :  COMPANY
WELL .               SIRIUS:  WELL
FLD  .                     :  FIELD
LOC  .                     :  LOCATION
CTRY .                     :  COUNTRY
STAT .                     :  STATE
CNTY .                     :  COUNTY
API  .                     :  API NUMBER
UWI  .                     :  UNIQUE WELL ID
SRVC .                     :  SERVICE COMPANY
DATE .                     :  LOG DATE
~Curve Information Block
#MNEM.UNIT         API CODE   Curve Description
#---------- ----------------  -----------------
DEPTH.Ft                   :  
BS   .IN                   :  Created using text_insert
GR   .GAPI                 :  
ILD  .OHMM                 :  
ILM  .OHMM                 :  
NPHI .V/V                  :  
RHOB .G/C3                 :  
SFLU .OHMM                 :  
SP   .MV                   :  Curve edited
~Parameter Information Block
#MNEM.UNIT            Value   Description
#---------- ----------------  -----------
SET  .                 WIRE:  
DATE_LOGGED.           29/02/2002:  
DATUM_ELEVATION.                  MSL:  
TD   .Ft     5170.603674541:  
APIN .                   17:  
CN   .         UNIVERSE CO.:  
TDD  .Ft               5489:  
ELZ  .Ft     567.0603674541:  
LATI .     16 39' 16.000" S:  
FL   .     MILKY WAY GALAXY:  
LONG .     154 25' 57.000" E:  
LMF  .                   KB:  
OPER .                COMET:  
EGL  .Ft      553.937007874:  
SYMBOL.                 WOGS:  
UWID .               SIRIUS:  
WELL_NAME.               SIRIUS:  
XOFFSET_BOTTOM.Ft                  0:  
XREF .Ft     2141635.666018:  
YOFFSET_BOTTOM.Ft     88.74886698094:  
YREF .Ft     26765477.77954:  
~Other Information Block
COMMENT:
COMMENT1:
Ref No.:2        Report No.: 28556  "Drill cuttings, Formation tests, Geothermal gradients, Lithology, Water analysis, Well velocity surveys, Wire line logging"          WELL COMPLETION REPORT
Ref No.:2        Report No.: 28556  "Drill cuttings, Formation tests, Geothermal gradients, Lithology, Water analysis, Well velocity surveys, Wire line logging"          WELL COMPLETION REPORT
Ref No.:2        Report No.: 28556  "Drill cuttings, Formation tests, Geothermal gradients, Lithology, Water analysis, Well velocity surveys, Wire line logging"          WELL COMPLETION REPORT
Ref No.:2        Report No.: 28556  "Drill cuttings, Formation tests, Geothermal gradients, Lithology, Water analysis, Well velocity surveys, Wire line logging"          WELL COMPLETION REPORT
COMMENT2:
Ref no.:1        Report No.: 25780
Ref no.:1        Report No.: 25780
Ref no.:1        Report No.: 25780
Ref no.:1        Report No.: 25780

#        DEPTH             BS             GR            ILD            ILM           NPHI           RHOB           SFLU             SP 
~A
# ...
        3260.0         8.5000       101.9800         1.5300         1.5300       0.393500         2.3147         1.3900       -61.4698
        3261.0         8.5000       100.1000         1.4900         1.5400       0.397200         2.3863         1.6700       -62.1645
        3262.0         8.5000       111.7500         1.5000         1.5800       0.402200         2.3717         1.8700       -62.0091
        3263.0         8.5000       129.7200         1.5400         1.5700       0.389900         2.3440         1.7800       -62.0638
        3264.0         8.5000       125.3400         1.5800         1.5800       0.325100         2.3353         1.6400       -62.4485
        3265.0         8.5000       115.2600         1.5900         1.5900       0.360900         2.3141         1.8900       -61.3831
        3266.0         8.5000       102.9200         1.5900         1.6000       0.410200         2.3009         1.9600       -59.3578
        3267.0         8.5000        92.5700         1.5900         1.6000       0.421000         2.2471         1.8300       -60.0524
        3268.0         8.5000        91.0300         1.5700         1.6000       0.429300         2.2353         1.7900       -61.0971
        3269.0         8.5000        98.3600         1.5400         1.5700       0.395700         2.2615         1.8000       -61.9118
        3270.0         8.5000       126.5300         1.5100         1.5200       0.418700         2.3001         1.8800       -63.0164
        3271.0         8.5000       134.3600         1.5200         1.4800       0.422900         2.2989         1.6300       -64.3911
        3272.0         8.5000       138.3800         1.5500         1.5300       0.402100         2.3515         1.5400       -65.6757
        3273.0         8.5000       114.9000         1.6800         1.6300       0.309100         2.4114         1.9300       -66.0804
        3274.0         8.5000       112.3100         2.0600         1.7600       0.344400         2.4140         2.4600       -65.9951
        3275.0         8.5000       125.6300         1.8300         1.8500       0.336800         2.4071         2.0900       -66.2697
        3276.0         8.5000       124.8400         1.7900         1.8000       0.350100         2.3763         2.0300       -66.7244
        3277.0         8.5000       111.3600         1.6700         1.6600       0.426100         2.3292         1.8700       -65.2190
        3278.0         8.5000       104.7100         1.5900         1.5700       0.382000         2.3267         1.7900       -64.9637
        3279.0         8.5000       104.8600         1.5900         1.5700       0.396200         2.4107         1.9000       -64.9984
        3280.0         8.5000       104.6400         1.6300         1.6400       0.387000         2.2656         1.7300       -64.2830
        3281.0         8.5000       119.9000         1.7900         1.7900       0.304800         2.3371         1.8000       -64.5277
        3282.0         8.5000       118.3700         2.0300         2.1100       0.331600         2.3730         2.5500       -65.3223
        3283.0         8.5000       114.4500         2.5800         2.4300       0.289900         2.3773         3.1500       -65.5470
        3284.0         8.5000       113.6500         3.0900         2.5000       0.292800         2.3738         3.7600       -66.0817
        3285.0         8.5000       120.6700         2.5900         2.5200       0.315600         2.3717         3.0100       -67.1263
        3286.0         8.5000       130.6900         2.6900         2.6900       0.261000         2.3778         3.1000       -67.1710
        3287.0         8.5000       147.8500         3.0600         2.2400       0.320300         2.3515         3.9100       -66.9556
        3288.0         8.5000       118.3400         1.8400         1.8500       0.404100         2.3185         1.7800       -66.5303
        3289.0         8.5000       108.3600         1.6000         1.6400       0.467700         2.2903         1.5800       -64.5850
        3290.0         8.5000        99.3400         1.4800         1.4700       0.461600         2.2824         1.5700       -61.2396
        3291.0         8.5000        97.2200         1.4400         1.4300       0.489700         2.2730         1.5900       -59.9343
        3292.0         8.5000       100.8700         1.4400         1.4200       0.465900         2.2635         1.6300       -60.6389
        3293.0         8.5000       100.0200         1.4400         1.5400       0.428500         2.2540         1.7200       -62.3336
        3294.0         8.5000       110.5400         1.4500         1.5000       0.421000         2.2470         1.7300       -64.1883
        3295.0         8.5000       123.8900         1.4900         1.4800       0.468700         2.2354         1.6600       -65.6729
        3296.0         8.5000       142.2100         1.5200         1.5400       0.419800         2.3008         1.7400       -66.8476
        3297.0         8.5000       132.6600         1.5800         1.6300       0.410300         2.3366         1.8300       -68.1422
        3298.0         8.5000       132.7800         1.7100         1.6700       0.343100         2.3393         1.9700       -68.8969
        3299.0         8.5000       136.4600         1.7200         1.7300       0.332100         2.3318         1.9800       -69.1516
        3300.0         8.5000       138.2400         1.7900         1.8400       0.347200         2.3669         1.6900       -69.2562
        3301.0         8.5000       132.4900         1.9200         2.0300       0.287300         2.3919         1.8400       -69.2009
        3302.0         8.5000       121.4000         2.7800         2.2300       0.285800         2.4126         3.4600       -69.2155
        3303.0         8.5000       138.3400         2.7400         2.3200       0.308200         2.4035         3.0900       -69.7502
        3304.0         8.5000       125.7800         2.0300         2.0000       0.340700         2.3937         2.3200       -70.3449
        3305.0         8.5000       103.4900         1.7300         1.7500       0.368300         2.3249         1.7500       -69.9695
        3306.0         8.5000       120.7500         1.5600         1.5800       0.345100         2.3360         1.6600       -68.9542
        3307.0         8.5000       107.8300         1.4500         1.4500       0.423700         2.2797         1.6000       -66.1288
        3308.0         8.5000       105.9000         1.3800         1.3900       0.517900         2.1683         1.5700       -63.0735
        3309.0         8.5000       124.7200         1.3400         1.3900       0.493100         2.1991         1.5300       -62.2182
        3310.0         8.5000       142.8100         1.3200         1.4200       0.423200         2.2841         1.5000       -63.4328
        3311.0         8.5000       272.1200         1.3700         1.4100       0.384400         2.3275         1.8400       -65.5875
        3312.0         8.5000       322.5000         1.3300         1.3700       0.414900         2.3336         1.4500       -67.8821
        3313.0         8.5000       221.3200         1.3600         1.3400       0.405200         2.3444         1.2800       -67.7068
        3314.0         8.5000       144.4700         1.4400         1.4300       0.416400         2.3067         1.7200       -67.2315
        3315.0         8.5000       141.6900         1.5700         1.5800       0.424400         2.3208         1.7900       -67.7261
        3316.0         8.5000       182.4600         1.7500         1.7900       0.345500         2.3937         2.0200       -68.1508
        3317.0         8.5000       214.5900         1.9600         2.1000       0.338900         2.3596         2.2900       -68.6454
        3318.0         8.5000       221.2900         2.3200         2.3700       0.315600         2.3620         2.7700       -68.6501
        3319.0         8.5000       206.3500         2.8600         2.3900       0.306700         2.3784         3.4400       -69.8548
