~Version Information Block
VERS .                 2.00:  CWLS LOG ASCII STANDARD - VERSION 2.00
WRAP .                   NO:  One line per depth step
~Well Information Block
#MNEM.UNIT        Data Type   Information
#---------- ----------------  -----------
STRT .Ft             1820.0:  START DEPTH
STOP .Ft             5489.0:  STOP DEPTH
STEP .Ft                1.0:  STEP
NULL .              -999.25:  NULL VALUE
COMP .                     :  COMPANY
WELL .               SIRIUS:  WELL
FLD  .                     :  FIELD
LOC  .                     :  LOCATION
CTRY .                     :  COUNTRY
STAT .                     :  STATE
CNTY .                     :  COUNTY
API  .                     :  API NUMBER
UWI  .                     :  UNIQUE WELL ID
SRVC .                     :  SERVICE COMPANY
DATE .                     :  LOG DATE
~Curve Information Block
#MNEM.UNIT         API CODE   Curve Description
#---------- ----------------  -----------------
DEPTH.Ft                   :  
BS   .IN                   :  Created using text_insert
GR   .GAPI                 :  
ILD  .OHMM                 :  
ILM  .OHMM                 :  
NPHI .V/V                  :  
RHOB .G/C3                 :  
SFLU .OHMM                 :  
SP   .MV                   :  Curve edited
~Parameter Information Block
#MNEM.UNIT            Value   Description
#---------- ----------------  -----------
SET  .                 WIRE:  
DATE_LOGGED.           29/02/2002:  
DATUM_ELEVATION.                  MSL:  
TD   .Ft     5170.603674541:  
APIN .                   17:  
CN   .         UNIVERSE CO.:  
TDD  .Ft               5489:  
ELZ  .Ft     567.0603674541:  
LATI .     16 39' 16.000" S:  
FL   .     MILKY WAY GALAXY:  
LONG .     154 25' 57.000" E:  
LMF  .                   KB:  
OPER .                COMET:  
EGL  .Ft      553.937007874:  
SYMBOL.                 WOGS:  
UWID .               SIRIUS:  
WELL_NAME.               SIRIUS:  
XOFFSET_BOTTOM.Ft                  0:  
XREF .Ft     2141635.666018:  
YOFFSET_BOTTOM.Ft     88.74886698094:  
YREF .Ft     26765477.77954:  
~Other Information Block
COMMENT:
COMMENT1:
Ref No.:2        Report No.: 28556  "Drill cuttings, Formation tests, Geothermal gradients, Lithology, Water analysis, Well velocity surveys, Wire line logging"          WELL COMPLETION REPORT
Ref No.:2        Report No.: 28556  "Drill cuttings, Formation tests, Geothermal gradients, Lithology, Water analysis, Well velocity surveys, Wire line logging"          WELL COMPLETION REPORT
Ref No.:2        Report No.: 28556  "Drill cuttings, Formation tests, Geothermal gradients, Lithology, Water analysis, Well velocity surveys, Wire line logging"          WELL COMPLETION REPORT
Ref No.:2        Report No.: 28556  "Drill cuttings, Formation tests, Geothermal gradients, Lithology, Water analysis, Well velocity surveys, Wire line logging"          WELL COMPLETION REPORT
COMMENT2:
Ref no.:1        Report No.: 25780
Ref no.:1        Report No.: 25780
Ref no.:1        Report No.: 25780
Ref no.:1        Report No.: 25780

#        DEPTH             BS             GR            ILD            ILM           NPHI           RHOB           SFLU             SP 
~A
# ...
        3980.0         8.5000        91.6700         1.4700         1.4700       0.377900         2.4331         1.4400       -29.9302
        3981.0         8.5000        82.5700         1.4100         1.4200       0.339300         2.4256         1.6600       -29.3285
        3982.0         8.5000        89.2800         1.2800         1.2100       0.422200         2.3060         1.3700       -29.2567
        3983.0         8.5000       108.5700         1.1000         1.0900       0.431300         2.2348         1.1100       -29.5149
        3984.0         8.5000       108.5100         1.0700         1.0600       0.386200         2.2993         1.3400       -29.4731
        3985.0         8.5000       108.6300         1.1200         1.0800       0.420200         2.3332         1.2800       -28.6313
        3986.0         8.5000       103.2400         1.3400         1.3100       0.319700         2.3853         1.0800       -27.7195
        3987.0         8.5000        83.1400         1.7000         1.7000       0.268100         2.4498         2.3100       -27.8777
        3988.0         8.5000        92.6200         2.7500         2.0900       0.259600         2.4349         3.5600       -29.4060
        3989.0         8.5000        84.9700         2.5400         2.4600       0.278900         2.4055         2.9800       -31.5142
        3990.0         8.5000        87.2700         2.7200         2.3500       0.281400         2.4024         3.3500       -33.4124
        3991.0         8.5000       111.3100         2.0500         2.2400       0.376400         2.4140         1.9400       -34.3006
        3992.0         8.5000        97.8300         2.1700         2.4100       0.294700         2.4143         2.6500       -33.3788
        3993.0         8.5000        93.8700         4.3800         2.7100       0.211500         2.4372         8.4500       -30.3870
        3994.0         8.5000       115.5000         1.5300         1.6500       0.297300         2.3629         0.9600       -32.1652
        3995.0         8.5000       147.8800         1.2600         1.0700       0.419200         2.3372         0.9700       -34.2135
        3996.0         8.5000       104.6400         1.0000         0.9500       0.436600         2.2694         0.9900       -32.5317
        3997.0         8.5000        89.1300         0.8900         0.8900       0.471300         2.2107         0.9700       -30.6699
        3998.0         8.5000        79.1000         0.9300         0.8900       0.482000         2.2125         1.0400       -29.6281
        3999.0         8.5000        77.0700         1.1500         0.9300       0.486700         2.2043         1.0800       -29.2163
        4000.0         8.5000        82.3200         1.4800         1.0200       0.474200         2.2688         1.0800       -29.3345
        4001.0         8.5000        83.8200         1.5500         1.2600       0.425800         2.3973         1.4700       -29.4727
        4002.0         8.5000        80.0500         1.8000         1.7800       0.283800         2.5034         2.2900       -30.4210
        4003.0         8.5000        76.8400         1.8900         1.8300       0.274800         2.5015         2.1900       -32.8592
        4004.0         8.5000        84.1200         1.8800         1.8100       0.309000         2.4717         2.0800       -35.6974
        4005.0         8.5000        90.9100         1.7500         1.7200       0.314100         2.4462         1.9200       -36.4856
        4006.0         8.5000        95.1800         1.6800         1.6700       0.356700         2.4038         1.7200       -35.3638
        4007.0         8.5000        92.4400         1.7300         1.6900       0.397800         2.3978         1.7900       -33.8120
        4008.0         8.5000        87.6100         1.8500         1.8400       0.428500         2.4174         1.7500       -33.0602
        4009.0         8.5000        88.0600         1.9900         2.1200       0.276400         2.4743         2.2200       -32.8885
        4010.0         8.5000        74.9800         2.6600         2.3700       0.222900         2.4810         3.3800       -33.4167
        4011.0         8.5000        77.0000         2.5000         2.3500       0.269600         2.5042         2.9500       -35.0149
        4012.0         8.5000        82.0300         2.1400         2.1600       0.274800         2.4969         2.2700       -36.6631
        4013.0         8.5000        85.5700         1.9500         1.9200       0.317300         2.4708         2.0500       -37.1513
        4014.0         8.5000        80.4400         1.7900         1.7600       0.371800         2.4023         1.7700       -36.9795
        4015.0         8.5000        94.6500         1.6400         1.6000       0.386900         2.3846         1.6500       -36.8377
        4016.0         8.5000        94.8500         1.5600         1.5500       0.388800         2.3853         1.6700       -36.6560
        4017.0         8.5000        87.2700         1.5800         1.5900       0.393100         2.3817         1.7300       -36.3042
        4018.0         8.5000        85.3500         1.6400         1.6900       0.333200         2.4230         1.8100       -36.1124
        4019.0         8.5000        83.4900         1.7700         1.8000       0.291900         2.5236         2.0900       -35.9606
        4020.0         8.5000        74.7900         1.9700         2.0000       0.341700         2.4472         1.7400       -34.7888
        4021.0         8.5000        69.2200         2.3600         2.3600       0.292000         2.5259         1.7300       -49.3470
        4022.0         8.5000        57.8200         3.0100         3.0700       0.175800         2.5370         5.2200       -67.8252
        4023.0         8.5000        52.0900         3.9200         4.5200       0.223300         2.3583         8.3200       -83.2535
        4024.0         8.5000        54.2100         4.5300         5.8400       0.220500         2.3145         9.0800       -85.2517
        4025.0         8.5000        54.7300         4.1900         5.7200       0.235600         2.2717         9.7900       -86.4699
        4026.0         8.5000        56.3600         3.8500         5.0200       0.243700         2.2430         8.3000       -87.5181
        4027.0         8.5000        60.2300         3.6000         4.2700       0.261600         2.2886         5.8900       -89.0463
        4028.0         8.5000        56.4600         3.4300         3.9600       0.278500         2.3642         5.2200       -91.2645
        4029.0         8.5000        57.6400         3.3000         3.7500       0.271300         2.4463         5.1100       -91.7027
        4030.0         8.5000        57.5700         3.2300         3.5700       0.304400         2.3486         4.9200       -91.8110
        4031.0         8.5000        59.8500         3.1700         3.5200       0.309200         2.3447         4.6100       -94.4092
        4032.0         8.5000        58.3500         3.1100         3.5800       0.282800         2.3660         4.5900       -92.9174
        4033.0         8.5000        52.9900         3.0500         3.7200       0.309200         2.4153         6.0400      -101.6760
        4034.0         8.5000        51.4400         3.0100         3.6200       0.315500         2.3307         7.9800      -108.1740
        4035.0         8.5000        51.2000         2.9900         3.5000       0.312200         2.2980         7.6400      -109.0120
        4036.0         8.5000        59.1900         3.0000         3.5200       0.291400         2.2928         7.5700      -104.7000
        4037.0         8.5000        76.3000         3.0700         3.7200       0.246800         2.3260         7.5400      -100.3490
        4038.0         8.5000        91.4800         3.3500         4.0300       0.260300         2.3602         6.5500      -102.7270
        4039.0         8.5000        84.8500         3.7300         4.8800       0.202200         2.4312         7.4600      -107.3150
