~Version Information Block
VERS .                 2.00:  CWLS LOG ASCII STANDARD - VERSION 2.00
WRAP .                   NO:  One line per depth step
~Well Information Block
#MNEM.UNIT        Data Type   Information
#---------- ----------------  -----------
STRT .Ft             1820.0:  START DEPTH
STOP .Ft             5489.0:  STOP DEPTH
STEP .Ft                1.0:  STEP
NULL .              -999.25:  NULL VALUE
COMP .                     :  COMPANY
WELL .               SIRIUS:  WELL
FLD  .                     :  FIELD
LOC  .                     :  LOCATION
CTRY .                     :  COUNTRY
STAT .                     :  STATE
CNTY .                     :  COUNTY
API  .                     :  API NUMBER
UWI  .                     :  UNIQUE WELL ID
SRVC .                     :  SERVICE COMPANY
DATE .                     :  LOG DATE
~Curve Information Block
#MNEM.UNIT         API CODE   Curve Description
#---------- ----------------  -----------------
DEPTH.Ft                   :  
BS   .IN                   :  Created using text_insert
GR   .GAPI                 :  
ILD  .OHMM                 :  
ILM  .OHMM                 :  
NPHI .V/V                  :  
RHOB .G/C3                 :  
SFLU .OHMM                 :  
SP   .MV                   :  Curve edited
~Parameter Information Block
#MNEM.UNIT            Value   Description
#---------- ----------------  -----------
SET  .                 WIRE:  
DATE_LOGGED.           29/02/2002:  
DATUM_ELEVATION.                  MSL:  
TD   .Ft     5170.603674541:  
APIN .                   17:  
CN   .         UNIVERSE CO.:  
TDD  .Ft               5489:  
ELZ  .Ft     567.0603674541:  
LATI .     16 39' 16.000" S:  
FL   .     MILKY WAY GALAXY:  
LONG .     154 25' 57.000" E:  
LMF  .                   KB:  
OPER .                COMET:  
EGL  .Ft      553.937007874:  
SYMBOL.                 WOGS:  
UWID .               SIRIUS:  
WELL_NAME.               SIRIUS:  
XOFFSET_BOTTOM.Ft                  0:  
XREF .Ft     2141635.666018:  
YOFFSET_BOTTOM.Ft     88.74886698094:  
YREF .Ft     26765477.77954:  
~Other Information Block
COMMENT:
COMMENT1:
Ref No.:2        Report No.: 28556  "Drill cuttings, Formation tests, Geothermal gradients, Lithology, Water analysis, Well velocity surveys, Wire line logging"          WELL COMPLETION REPORT
Ref No.:2        Report No.: 28556  "Drill cuttings, Formation tests, Geothermal gradients, Lithology, Water analysis, Well velocity surveys, Wire line logging"          WELL COMPLETION REPORT
Ref No.:2        Report No.: 28556  "Drill cuttings, Formation tests, Geothermal gradients, Lithology, Water analysis, Well velocity surveys, Wire line logging"          WELL COMPLETION REPORT
Ref No.:2        Report No.: 28556  "Drill cuttings, Formation tests, Geothermal gradients, Lithology, Water analysis, Well velocity surveys, Wire line logging"          WELL COMPLETION REPORT
COMMENT2:
Ref no.:1        Report No.: 25780
Ref no.:1        Report No.: 25780
Ref no.:1        Report No.: 25780
Ref no.:1        Report No.: 25780

#        DEPTH             BS             GR            ILD            ILM           NPHI           RHOB           SFLU             SP 
~A
# ...
        2780.0         8.5000        91.1400         1.2400         1.2500       0.449800         2.2515         1.3900       -22.4031
        2781.0         8.5000       112.5400         1.2800         1.3300       0.452900         2.2703         1.3900       -22.4178
        2782.0         8.5000       125.1900         1.3800         1.4700       0.388100         2.3154         1.5600       -22.4724
        2783.0         8.5000       107.1600         1.6500         1.5600       0.387800         2.3392         2.0900       -22.5471
        2784.0         8.5000       113.4000         1.5700         1.6300       0.416000         2.3473         1.9100       -22.6417
        2785.0         8.5000       107.2200         1.6000         1.6700       0.390400         2.3455         1.7500       -22.8164
        2786.0         8.5000       110.3900         1.6500         1.7100       0.371200         2.3246         1.9100       -22.9811
        2787.0         8.5000       111.5100         1.7300         1.7600       0.338200         2.3148         2.1500       -22.9857
        2788.0         8.5000       107.4600         1.6100         1.6700       0.351000         2.3454         2.0000       -20.7904
        2789.0         8.5000       114.0200         1.4700         1.5400       0.406800         2.2569         1.7800       -17.2350
        2790.0         8.5000       100.9000         1.3500         1.3900       0.473800         2.2377         1.4800       -36.9397
        2791.0         8.5000        90.6700         1.2800         1.3200       0.491000         2.2902         1.3900       -17.1344
        2792.0         8.5000        93.8100         1.2400         1.2600       0.423500         2.2808         1.5200       -17.0490
        2793.0         8.5000       102.0300         1.2200         1.2200       0.478900         2.2551         1.4800       -37.7037
        2794.0         8.5000       100.9700         1.1900         1.1800       0.490600         2.2450         1.3000       -17.6683
        2795.0         8.5000        92.5700         1.1700         1.1600       0.509600         2.2502         1.3100       -19.7830
        2796.0         8.5000        96.9300         1.1500         1.1400       0.455700         2.2476         1.3000       -21.1877
        2797.0         8.5000        95.8700         1.1400         1.1500       0.448000         2.2691         1.3000       -21.6423
        2798.0         8.5000       107.2600         1.1900         1.1800       0.486600         2.2858         1.3900       -21.8470
        2799.0         8.5000       106.0100         1.2500         1.2500       0.449300         2.2787         1.5800       -22.2716
        2800.0         8.5000       106.7900         1.3300         1.3300       0.453000         2.2688         1.6800       -22.9663
        2801.0         8.5000       107.4800         1.4100         1.4100       0.463400         2.2766         1.6700       -23.8910
        2802.0         8.5000       108.4200         1.4700         1.4800       0.409600         2.2840         1.6900       -24.9256
        2803.0         8.5000       104.2600         1.4900         1.5300       0.418500         2.2836         1.7300       -25.9403
        2804.0         8.5000       101.8500         1.5100         1.5500       0.405700         2.2884         1.7500       -26.5849
        2805.0         8.5000       107.1600         1.5300         1.5400       0.441300         2.2908         1.6700       -26.5396
        2806.0         8.5000       101.7400         1.5600         1.5400       0.417500         2.2831         1.7300       -26.3243
        2807.0         8.5000       103.7100         1.5900         1.5500       0.387700         2.2996         1.8700       -26.0989
        2808.0         8.5000        95.9300         1.5700         1.5400       0.433600         2.2834         1.7800       -25.7136
        2809.0         8.5000       103.8000         1.5000         1.4800       0.415500         2.2743         1.6400       -25.3782
        2810.0         8.5000        94.2600         1.4500         1.4300       0.472600         2.2521         1.5100       -25.0029
        2811.0         8.5000        99.1500         1.4200         1.4000       0.402000         2.2691         1.5500       -24.5976
        2812.0         8.5000       109.8000         1.4300         1.3900       0.398400         2.2611         1.6000       -24.3322
        2813.0         8.5000       101.6400         1.4700         1.4200       0.436500         2.2971         1.6300       -24.2469
        2814.0         8.5000       108.6600         1.5600         1.5000       0.443800         2.3134         1.6700       -24.5515
        2815.0         8.5000       105.3700         1.7000         1.6400       0.406200         2.2982         1.9700       -25.2962
        2816.0         8.5000        93.3600         1.8700         1.8000       0.365300         2.3521         2.2400       -26.6709
        2817.0         8.5000       100.0500         1.8700         1.8100       0.368300         2.3713         2.1100       -28.4455
        2818.0         8.5000       109.6100         1.7500         1.6800       0.399200         2.3433         1.9900       -28.6902
        2819.0         8.5000       107.7100         1.6000         1.5800       0.419700         2.3078         1.7400       -28.6648
        2820.0         8.5000       108.0900         1.5900         1.6000       0.411200         2.3024         1.7700       -28.3195
        2821.0         8.5000       105.0200         1.6500         1.6500       0.417200         2.3065         1.9000       -27.5442
        2822.0         8.5000       105.8400         1.8600         1.7200       0.395200         2.2958         2.2400       -27.6888
        2823.0         8.5000       115.0700         1.8200         1.7900       0.393400         2.3234         2.0800       -27.9835
        2824.0         8.5000       106.7400         1.8700         1.8300       0.352900         2.3059         2.1700       -27.9281
        2825.0         8.5000        99.6100         1.9300         1.8300       0.401200         2.2881         2.2800       -28.0528
        2826.0         8.5000       104.9500         1.8100         1.7900       0.394700         2.2843         2.0300       -29.3075
        2827.0         8.5000       108.5300         1.7600         1.7600       0.414000         2.2780         1.9500       -30.2121
        2828.0         8.5000       117.6000         1.8100         1.7800       0.408500         2.2838         1.8600       -29.7568
        2829.0         8.5000       102.5300         1.9200         1.8700       0.370000         2.2899         1.9600       -29.1614
        2830.0         8.5000       100.6700         2.2200         1.9700       0.355600         2.3126         2.5500       -29.4061
        2831.0         8.5000       104.2600         2.2800         2.0600       0.391400         2.3268         2.5600       -29.9507
        2832.0         8.5000       109.6900         2.1000         2.1500       0.378900         2.3308         2.2500       -30.1754
        2833.0         8.5000       110.7200         2.2600         2.1600       0.345500         2.3296         2.5200       -30.4401
        2834.0         8.5000       112.7000         2.1800         2.0500       0.369200         2.3506         2.3900       -30.8247
        2835.0         8.5000       110.9300         1.9300         1.9200       0.381800         2.3385         2.1100       -31.2694
        2836.0         8.5000       118.5400         1.8900         1.8800       0.415400         2.2998         1.9700       -30.6140
        2837.0         8.5000       103.2400         1.9300         1.9300       0.428200         2.2857         2.1000       -29.8087
        2838.0         8.5000       108.0900         2.0800         1.9900       0.355800         2.3072         2.3900       -29.5534
        2839.0         8.5000       110.8100         2.1600         2.0400       0.411700         2.3107         2.5300       -29.5780
