~Version Information Block
VERS .                 2.00:  CWLS LOG ASCII STANDARD - VERSION 2.00
WRAP .                   NO:  One line per depth step
~Well Information Block
#MNEM.UNIT        Data Type   Information
#---------- ----------------  -----------
STRT .Ft             1820.0:  START DEPTH
STOP .Ft             5489.0:  STOP DEPTH
STEP .Ft                1.0:  STEP
NULL .              -999.25:  NULL VALUE
COMP .                     :  COMPANY
WELL .               SIRIUS:  WELL
FLD  .                     :  FIELD
LOC  .                     :  LOCATION
CTRY .                     :  COUNTRY
STAT .                     :  STATE
CNTY .                     :  COUNTY
API  .                     :  API NUMBER
UWI  .                     :  UNIQUE WELL ID
SRVC .                     :  SERVICE COMPANY
DATE .                     :  LOG DATE
~Curve Information Block
#MNEM.UNIT         API CODE   Curve Description
#---------- ----------------  -----------------
DEPTH.Ft                   :  
BS   .IN                   :  Created using text_insert
GR   .GAPI                 :  
ILD  .OHMM                 :  
ILM  .OHMM                 :  
NPHI .V/V                  :  
RHOB .G/C3                 :  
SFLU .OHMM                 :  
SP   .MV                   :  Curve edited
~Parameter Information Block
#MNEM.UNIT            Value   Description
#---------- ----------------  -----------
SET  .                 WIRE:  
DATE_LOGGED.           29/02/2002:  
DATUM_ELEVATION.                  MSL:  
TD   .Ft     5170.603674541:  
APIN .                   17:  
CN   .         UNIVERSE CO.:  
TDD  .Ft               5489:  
ELZ  .Ft     567.0603674541:  
LATI .     16 39' 16.000" S:  
FL   .     MILKY WAY GALAXY:  
LONG .     154 25' 57.000" E:  
LMF  .                   KB:  
OPER .                COMET:  
EGL  .Ft      553.937007874:  
SYMBOL.                 WOGS:  
UWID .               SIRIUS:  
WELL_NAME.               SIRIUS:  
XOFFSET_BOTTOM.Ft                  0:  
XREF .Ft     2141635.666018:  
YOFFSET_BOTTOM.Ft     88.74886698094:  
YREF .Ft     26765477.77954:  
~Other Information Block
COMMENT:
COMMENT1:
Ref No.:2        Report No.: 28556  "Drill cuttings, Formation tests, Geothermal gradients, Lithology, Water analysis, Well velocity surveys, Wire line logging"          WELL COMPLETION REPORT
Ref No.:2        Report No.: 28556  "Drill cuttings, Formation tests, Geothermal gradients, Lithology, Water analysis, Well velocity surveys, Wire line logging"          WELL COMPLETION REPORT
Ref No.:2        Report No.: 28556  "Drill cuttings, Formation tests, Geothermal gradients, Lithology, Water analysis, Well velocity surveys, Wire line logging"          WELL COMPLETION REPORT
Ref No.:2        Report No.: 28556  "Drill cuttings, Formation tests, Geothermal gradients, Lithology, Water analysis, Well velocity surveys, Wire line logging"          WELL COMPLETION REPORT
COMMENT2:
Ref no.:1        Report No.: 25780
Ref no.:1        Report No.: 25780
Ref no.:1        Report No.: 25780
Ref no.:1        Report No.: 25780

#        DEPTH             BS             GR            ILD            ILM           NPHI           RHOB           SFLU             SP 
~A
# ...
        4940.0         8.5000        99.5500         0.7900         0.8000       0.467100         2.2809         1.0400       -14.9531
        4941.0         8.5000       106.7100         0.8500         0.8100       0.436400         2.2820         1.0200       -15.7043
        4942.0         8.5000       101.3200         1.0400         1.0300       0.458500         2.2871         0.8700       -16.3155
        4943.0         8.5000        83.4700         1.4100         1.3600       0.324200         2.4110         1.2200       -33.4667
        4944.0         8.5000        45.0900         1.9700         2.1900       0.234900         2.4974         2.3000       -56.1379
        4945.0         8.5000        36.3300         2.6500         3.7800       0.146300         2.5312        12.3000       -84.2491
        4946.0         8.5000        35.6700         2.8300         3.7700       0.181000         2.4801        16.8300       -92.3503
        4947.0         8.5000        36.4400         2.2500         2.9100       0.273000         2.3046         7.5500      -101.9120
        4948.0         8.5000        34.4700         1.8700         2.3700       0.284600         2.2805         6.1200      -106.1930
        4949.0         8.5000        35.0300         1.7300         2.0900       0.257400         2.3041         6.0200      -105.9040
        4950.0         8.5000        32.7400         1.6400         1.8900       0.264600         2.3111         6.5600      -109.9950
        4951.0         8.5000        37.5500         1.5500         1.6400       0.307800         2.2389         5.0700      -115.6860
        4952.0         8.5000        41.3500         1.4800         1.5000       0.322000         2.2331         3.9700      -118.2280
        4953.0         8.5000        43.2200         1.4200         1.4700       0.316400         2.2313         3.5800      -118.1690
        4954.0         8.5000        44.4900         1.3800         1.4800       0.300500         2.3087         4.2100      -119.6500
        4955.0         8.5000        43.6500         1.3500         1.4800       0.304900         2.2715         4.9100      -120.7210
        4956.0         8.5000        38.0900         1.3400         1.4700       0.303200         2.2558         4.9100      -120.1220
        4957.0         8.5000        38.0400         1.3400         1.4600       0.307300         2.2635         4.8300      -119.5140
        4958.0         8.5000        39.8900         1.3400         1.4700       0.305100         2.2627         4.6400      -119.1150
        4959.0         8.5000        42.3200         1.3400         1.4900       0.278300         2.3308         5.4600      -118.7660
        4960.0         8.5000        57.1100         1.3400         1.5100       0.303200         2.3013         5.7200      -118.1770
        4961.0         8.5000        64.7800         1.3600         1.5300       0.285800         2.2578         5.1100      -114.2980
        4962.0         8.5000        63.0800         1.3800         1.5600       0.270500         2.3106         5.3700      -110.7300
        4963.0         8.5000        61.8200         1.3900         1.5900       0.282600         2.2979         5.0700      -111.9510
        4964.0         8.5000        60.5600         1.4000         1.6100       0.318500         2.3152         5.0400      -113.2120
        4965.0         8.5000        62.9500         1.3900         1.5300       0.295900         2.2812         4.0800      -112.8430
        4966.0         8.5000        60.7900         1.3800         1.4800       0.324300         2.2924         4.2400      -110.1840
        4967.0         8.5000        67.6700         1.3600         1.5000       0.334400         2.2388         3.9900      -107.2550
        4968.0         8.5000        77.5800         1.4400         1.5500       0.303100         2.2219         4.0500       -92.7166
        4969.0         8.5000        81.9000         1.5600         1.6600       0.266500         2.2701         3.1100       -82.0478
        4970.0         8.5000        81.0900         1.7300         1.8600       0.284000         2.2836         3.0700       -76.6490
        4971.0         8.5000        77.0100         1.9300         2.0900       0.286200         2.2910         3.2300       -74.4102
        4972.0         8.5000        63.7000         2.0000         2.3300       0.281000         2.3112         4.0800       -76.7914
        4973.0         8.5000        61.0800         1.9900         2.4000       0.274400         2.3124         6.7300       -75.2826
        4974.0         8.5000        69.4700         2.0000         2.1100       0.277000         2.2836         4.5400       -59.9138
        4975.0         8.5000        64.9100         2.0600         2.0700       0.284200         2.3491         1.8200       -57.0150
        4976.0         8.5000        56.9600         2.1700         2.2800       0.300600         2.3246         3.3400       -67.1962
        4977.0         8.5000        53.4100         2.2900         2.4800       0.273700         2.3143         4.2500       -76.8574
        4978.0         8.5000        63.3900         2.3900         2.6400       0.230100         2.3261         9.2500       -72.8286
        4979.0         8.5000        66.4900         2.4100         2.6600       0.245800         2.3946         4.6300       -50.8998
        4980.0         8.5000        66.3300         2.3900         2.5300       0.277300         2.3666         2.8400       -46.6310
        4981.0         8.5000        69.5300         2.3200         2.3900       0.280400         2.3476         3.0600       -41.6722
        4982.0         8.5000        73.2800         2.2700         2.3400       0.276100         2.3764         2.6000       -16.0734
        4983.0         8.5000        74.7900         2.2600         2.3500       0.266700         2.3752         2.5200       -18.6346
        4984.0         8.5000        70.1000         2.2700         2.3800       0.273100         2.3623         2.6000       -19.8158
        4985.0         8.5000        72.7800         2.2800         2.4400       0.253100         2.4851         2.5300       -21.1470
        4986.0         8.5000        78.8500         2.5700         2.4100       0.251300         2.4698         3.1800       -22.8482
        4987.0         8.5000        84.8800         2.3400         2.3200       0.273000         2.3969         2.6200       -24.8894
        4988.0         8.5000        89.2800         2.3600         2.3900       0.274100         2.4073         2.3700       -26.3306
        4989.0         8.5000        86.5900         2.4100         2.4900       0.275100         2.4354         2.7400       -25.8818
        4990.0         8.5000        82.0000         2.5500         2.5600       0.263200         2.4539         2.9700       -24.8830
        4991.0         8.5000        94.9400         2.4500         2.4700       0.252100         2.4774         2.9200       -24.2442
        4992.0         8.5000       110.4500         2.3700         2.3400       0.269800         2.4686         2.7300       -25.8654
        4993.0         8.5000       122.7300         2.2700         2.2500       0.288000         2.4979         2.4200       -28.2466
        4994.0         8.5000       119.7100         2.2100         2.2100       0.282700         2.5137         2.3400       -27.8978
        4995.0         8.5000       111.8600         2.2600         2.2500       0.276800         2.5248         2.4600       -25.8790
        4996.0         8.5000        99.7700         2.3300         2.3400       0.235800         2.5320         2.6800       -25.2402
        4997.0         8.5000        85.5300         2.5500         2.5000       0.227700         2.5589         2.9200       -25.9513
        4998.0         8.5000        84.4900         2.5300         2.5800       0.261000         2.5419         2.9000       -26.9325
        4999.0         8.5000        86.2100         2.6200         2.7200       0.229100         2.4836         2.3200       -25.6837
