~Version Information Block
VERS .                 2.00:  CWLS LOG ASCII STANDARD - VERSION 2.00
WRAP .                   NO:  One line per depth step
~Well Information Block
#MNEM.UNIT        Data Type   Information
#---------- ----------------  -----------
STRT .Ft             1820.0:  START DEPTH
STOP .Ft             5489.0:  STOP DEPTH
STEP .Ft                1.0:  STEP
NULL .              -999.25:  NULL VALUE
COMP .                     :  COMPANY
WELL .               SIRIUS:  WELL
FLD  .                     :  FIELD
LOC  .                     :  LOCATION
CTRY .                     :  COUNTRY
STAT .                     :  STATE
CNTY .                     :  COUNTY
API  .                     :  API NUMBER
UWI  .                     :  UNIQUE WELL ID
SRVC .                     :  SERVICE COMPANY
DATE .                     :  LOG DATE
~Curve Information Block
#MNEM.UNIT         API CODE   Curve Description
#---------- ----------------  -----------------
DEPTH.Ft                   :  
BS   .IN                   :  Created using text_insert
GR   .GAPI                 :  
ILD  .OHMM                 :  
ILM  .OHMM                 :  
NPHI .V/V                  :  
RHOB .G/C3                 :  
SFLU .OHMM                 :  
SP   .MV                   :  Curve edited
~Parameter Information Block
#MNEM.UNIT            Value   Description
#---------- ----------------  -----------
SET  .                 WIRE:  
DATE_LOGGED.           29/02/2002:  
DATUM_ELEVATION.                  MSL:  
TD   .Ft     5170.603674541:  
APIN .                   17:  
CN   .         UNIVERSE CO.:  
TDD  .Ft               5489:  
ELZ  .Ft     567.0603674541:  
LATI .     16 39' 16.000" S:  
FL   .     MILKY WAY GALAXY:  
LONG .     154 25' 57.000" E:  
LMF  .                   KB:  
OPER .                COMET:  
EGL  .Ft      553.937007874:  
SYMBOL.                 WOGS:  
UWID .               SIRIUS:  
WELL_NAME.               SIRIUS:  
XOFFSET_BOTTOM.Ft                  0:  
XREF .Ft     2141635.666018:  
YOFFSET_BOTTOM.Ft     88.74886698094:  
YREF .Ft     26765477.77954:  
~Other Information Block
COMMENT:
COMMENT1:
Ref No.:2        Report No.: 28556  "Drill cuttings, Formation tests, Geothermal gradients, Lithology, Water analysis, Well velocity surveys, Wire line logging"          WELL COMPLETION REPORT
Ref No.:2        Report No.: 28556  "Drill cuttings, Formation tests, Geothermal gradients, Lithology, Water analysis, Well velocity surveys, Wire line logging"          WELL COMPLETION REPORT
Ref No.:2        Report No.: 28556  "Drill cuttings, Formation tests, Geothermal gradients, Lithology, Water analysis, Well velocity surveys, Wire line logging"          WELL COMPLETION REPORT
Ref No.:2        Report No.: 28556  "Drill cuttings, Formation tests, Geothermal gradients, Lithology, Water analysis, Well velocity surveys, Wire line logging"          WELL COMPLETION REPORT
COMMENT2:
Ref no.:1        Report No.: 25780
Ref no.:1        Report No.: 25780
Ref no.:1        Report No.: 25780
Ref no.:1        Report No.: 25780

#        DEPTH             BS             GR            ILD            ILM           NPHI           RHOB           SFLU             SP 
~A
# ...
        4700.0         8.5000        91.0700         1.4400         1.3400       0.329800         2.4729         1.7200      -115.9250
        4701.0         8.5000        89.1000         1.5300         1.3600       0.310100         2.4841         1.8400      -116.6330
        4702.0         8.5000       109.4700         1.0700         1.2500       0.323100         2.4506         1.1200      -117.1710
        4703.0         8.5000       121.3500         1.0400         1.0600       0.326400         2.4354         1.0300      -116.9990
        4704.0         8.5000       110.6300         1.1400         1.0700       0.330200         2.4384         1.4600      -116.0380
        4705.0         8.5000       104.6500         1.0100         1.0600       0.321400         2.3718         1.2300      -115.2660
        4706.0         8.5000        94.2500         0.9700         0.9800       0.373700         2.3794         1.2200      -115.1340
        4707.0         8.5000        94.5300         0.8900         0.8900       0.398000         2.3289         1.0800      -115.2720
        4708.0         8.5000        95.1200         0.9000         0.8200       0.368300         2.3524         1.1300      -115.2600
        4709.0         8.5000       110.3600         0.8000         0.7700       0.421900         2.2799         0.9800      -115.1890
        4710.0         8.5000       116.0900         0.7800         0.7900       0.463500         2.2780         0.7900      -114.9070
        4711.0         8.5000       104.5500         0.8700         0.9000       0.440600         2.3150         0.9600      -114.4650
        4712.0         8.5000        97.5400         1.3800         1.0800       0.400900         2.3560         1.8500      -114.3930
        4713.0         8.5000       104.6800         1.3500         1.1800       0.414200         2.3227         1.6400      -116.2910
        4714.0         8.5000       108.8400         1.2900         1.2500       0.428200         2.3216         1.4600      -118.8600
        4715.0         8.5000       112.9400         1.3000         1.2600       0.422300         2.3576         1.4500      -119.7180
        4716.0         8.5000       108.0700         1.2900         1.2600       0.471700         2.3153         1.3500      -119.9660
        4717.0         8.5000       113.5000         1.2800         1.2700       0.472700         2.3172         1.3300      -119.7540
        4718.0         8.5000       103.6300         1.2900         1.2800       0.460400         2.3259         1.4200      -119.2430
        4719.0         8.5000        99.9300         1.3100         1.2900       0.426500         2.3430         1.4700      -118.7110
        4720.0         8.5000        93.2700         1.2600         1.2800       0.396200         2.3699         1.4600      -118.1990
        4721.0         8.5000        91.4300         1.2400         1.2400       0.390300         2.3828         1.4100      -118.0370
        4722.0         8.5000        97.3800         1.2000         1.1900       0.420400         2.3521         1.3300      -117.9450
        4723.0         8.5000        98.4300         1.1500         1.1500       0.407200         2.3459         1.2100      -117.8840
        4724.0         8.5000       105.4100         1.2800         1.1400       0.382300         2.3578         1.5800      -117.8620
        4725.0         8.5000       106.3600         1.3100         1.1300       0.376400         2.3867         1.5800      -117.8800
        4726.0         8.5000       111.3600         1.0900         1.1200       0.384300         2.3918         1.4200      -117.7880
        4727.0         8.5000        95.0300         1.2900         1.2100       0.428900         2.4157         0.9600      -117.4960
        4728.0         8.5000        91.4900         1.6500         1.8400       0.332100         2.5243         1.2900      -116.8550
        4729.0         8.5000        74.7800         3.4300         2.4700       0.147500         2.5916         5.3400      -114.9730
        4730.0         8.5000        74.4100         9.1600         3.6900       0.173800         2.5539        16.3700      -133.6410
        4731.0         8.5000        78.0900         5.8400         5.8600       0.227500         2.3547         8.9700      -136.9090
        4732.0         8.5000        80.3400         5.5500         5.8300       0.202300         2.2901         8.6800      -133.0780
        4733.0         8.5000        91.9000         3.4800         3.1200       0.268400         2.3267         4.5900      -116.2860
        4734.0         8.5000       113.5700         1.7200         1.6100       0.361300         2.4001         1.7700      -122.0940
        4735.0         8.5000       142.4000         1.1300         1.1400       0.523600         2.3006         1.3100      -121.0120
        4736.0         8.5000       165.9600         0.8500         0.8600       0.566900         2.1993         0.8700      -117.7900
        4737.0         8.5000       161.5000         0.8100         0.8200       0.530300         2.2235         0.8200      -115.9690
        4738.0         8.5000       149.4100         0.9200         0.9000       0.505600         2.2816         1.0900      -113.9270
        4739.0         8.5000       124.7100         1.0700         1.0600       0.401600         2.3547         1.4000      -132.7150
        4740.0         8.5000       107.7300         1.3600         1.2300       0.351100         2.4328         2.0100      -113.4130
        4741.0         8.5000        93.1300         1.3700         1.3700       0.352700         2.4030         1.7600      -115.6410
        4742.0         8.5000        89.9700         1.4200         1.4400       0.353600         2.3742         1.5900      -118.6400
        4743.0         8.5000        97.4600         1.2800         1.3300       0.377900         2.3926         1.4500      -120.4180
        4744.0         8.5000       102.5500         1.1600         1.2100       0.397800         2.3952         1.3400      -120.6860
        4745.0         8.5000       109.1000         1.1100         1.1500       0.421400         2.3401         1.2900      -120.5240
        4746.0         8.5000       116.3800         1.1300         1.1600       0.420700         2.3573         1.2700      -120.2630
        4747.0         8.5000       118.4000         1.2000         1.2200       0.386400         2.3925         1.4000      -119.9610
        4748.0         8.5000       104.8300         1.4600         1.2600       0.306300         2.4532         1.8700      -119.9690
        4749.0         8.5000        94.5000         1.3500         1.2200       0.381900         2.4441         1.7600      -120.1470
        4750.0         8.5000       102.7300         1.2200         1.2000       0.450800         2.3471         1.2100      -120.6250
        4751.0         8.5000       105.6200         1.2600         1.2200       0.457800         2.3089         1.1900      -121.0640
        4752.0         8.5000       103.0700         1.3200         1.2600       0.410200         2.3413         1.3700      -121.5020
        4753.0         8.5000        98.2300         1.3800         1.3400       0.392500         2.3779         1.6500      -122.2200
        4754.0         8.5000        95.9000         1.4000         1.3900       0.375200         2.3791         1.6100      -122.8780
        4755.0         8.5000        92.5800         1.4300         1.3800       0.366900         2.4099         1.6300      -123.6960
        4756.0         8.5000        95.4900         1.3700         1.3400       0.375700         2.3995         1.5300      -124.3650
        4757.0         8.5000        99.8000         1.2900         1.2700       0.392200         2.4100         1.4300      -124.8130
        4758.0         8.5000        98.6500         1.2100         1.1900       0.386200         2.3995         1.3500      -124.6310
        4759.0         8.5000       105.1700         1.1400         1.1400       0.381900         2.4235         1.2800      -124.0890
