~Version Information Block
VERS .                 2.00:  CWLS LOG ASCII STANDARD - VERSION 2.00
WRAP .                   NO:  One line per depth step
~Well Information Block
#MNEM.UNIT        Data Type   Information
#---------- ----------------  -----------
STRT .Ft             1820.0:  START DEPTH
STOP .Ft             5489.0:  STOP DEPTH
STEP .Ft                1.0:  STEP
NULL .              -999.25:  NULL VALUE
COMP .                     :  COMPANY
WELL .               SIRIUS:  WELL
FLD  .                     :  FIELD
LOC  .                     :  LOCATION
CTRY .                     :  COUNTRY
STAT .                     :  STATE
CNTY .                     :  COUNTY
API  .                     :  API NUMBER
UWI  .                     :  UNIQUE WELL ID
SRVC .                     :  SERVICE COMPANY
DATE .                     :  LOG DATE
~Curve Information Block
#MNEM.UNIT         API CODE   Curve Description
#---------- ----------------  -----------------
DEPTH.Ft                   :  
BS   .IN                   :  Created using text_insert
GR   .GAPI                 :  
ILD  .OHMM                 :  
ILM  .OHMM                 :  
NPHI .V/V                  :  
RHOB .G/C3                 :  
SFLU .OHMM                 :  
SP   .MV                   :  Curve edited
~Parameter Information Block
#MNEM.UNIT            Value   Description
#---------- ----------------  -----------
SET  .                 WIRE:  
DATE_LOGGED.           29/02/2002:  
DATUM_ELEVATION.                  MSL:  
TD   .Ft     5170.603674541:  
APIN .                   17:  
CN   .         UNIVERSE CO.:  
TDD  .Ft               5489:  
ELZ  .Ft     567.0603674541:  
LATI .     16 39' 16.000" S:  
FL   .     MILKY WAY GALAXY:  
LONG .     154 25' 57.000" E:  
LMF  .                   KB:  
OPER .                COMET:  
EGL  .Ft      553.937007874:  
SYMBOL.                 WOGS:  
UWID .               SIRIUS:  
WELL_NAME.               SIRIUS:  
XOFFSET_BOTTOM.Ft                  0:  
XREF .Ft     2141635.666018:  
YOFFSET_BOTTOM.Ft     88.74886698094:  
YREF .Ft     26765477.77954:  
~Other Information Block
COMMENT:
COMMENT1:
Ref No.:2        Report No.: 28556  "Drill cuttings, Formation tests, Geothermal gradients, Lithology, Water analysis, Well velocity surveys, Wire line logging"          WELL COMPLETION REPORT
Ref No.:2        Report No.: 28556  "Drill cuttings, Formation tests, Geothermal gradients, Lithology, Water analysis, Well velocity surveys, Wire line logging"          WELL COMPLETION REPORT
Ref No.:2        Report No.: 28556  "Drill cuttings, Formation tests, Geothermal gradients, Lithology, Water analysis, Well velocity surveys, Wire line logging"          WELL COMPLETION REPORT
Ref No.:2        Report No.: 28556  "Drill cuttings, Formation tests, Geothermal gradients, Lithology, Water analysis, Well velocity surveys, Wire line logging"          WELL COMPLETION REPORT
COMMENT2:
Ref no.:1        Report No.: 25780
Ref no.:1        Report No.: 25780
Ref no.:1        Report No.: 25780
Ref no.:1        Report No.: 25780

#        DEPTH             BS             GR            ILD            ILM           NPHI           RHOB           SFLU             SP 
~A
# ...
        2060.0         8.5000        84.0600         1.1700         1.1600       0.404000         2.3424         1.3600       -32.9898
        2061.0         8.5000        76.5400         1.1900         1.1900       0.413900         2.3307         1.3900       -33.6831
        2062.0         8.5000        78.5000         1.2000         1.2000       0.448800         2.2919         1.4200       -32.9965
        2063.0         8.5000        77.9300         1.1900         1.1700       0.388300         2.3371         1.4800       -31.3698
        2064.0         8.5000        76.1000         1.1600         1.1300       0.408500         2.2795         1.3500       -29.4431
        2065.0         8.5000        67.5700         1.1300         1.0900       0.425900         2.2179         1.0900       -29.2065
        2066.0         8.5000        71.9500         1.1100         1.0800       0.403900         2.3057         1.2700       -29.3898
        2067.0         8.5000        91.9100         1.1100         1.0900       0.399100         2.3402         1.2100       -28.1331
        2068.0         8.5000        98.2200         1.1300         1.1200       0.466900         2.2874         1.2400       -27.8465
        2069.0         8.5000       112.6800         1.1600         1.1600       0.421800         2.2843         1.2800       -28.8598
        2070.0         8.5000        95.6200         1.2000         1.2100       0.412200         2.3127         1.3400       -29.5831
        2071.0         8.5000        88.4600         1.2300         1.2400       0.405700         2.3195         1.4700       -30.3365
        2072.0         8.5000        90.0400         1.2600         1.2700       0.394900         2.3226         1.3300       -31.3698
        2073.0         8.5000        88.3300         1.3100         1.3000       0.412300         2.3470         1.4400       -32.6031
        2074.0         8.5000        77.1100         1.3500         1.3400       0.351800         2.4159         1.6300       -33.5265
        2075.0         8.5000        81.3800         1.3900         1.3700       0.352000         2.4157         1.6700       -34.3798
        2076.0         8.5000        83.7500         1.4300         1.3900       0.372700         2.3942         1.5500       -35.1231
        2077.0         8.5000        85.9700         1.4000         1.3900       0.350000         2.3906         1.4900       -35.7165
        2078.0         8.5000        81.8900         1.3800         1.3700       0.384300         2.3789         1.5300       -36.1698
        2079.0         8.5000        79.0600         1.3200         1.3400       0.380300         2.4042         1.5100       -36.7431
        2080.0         8.5000        89.2100         1.2600         1.2800       0.360900         2.4044         1.4500       -37.3065
        2081.0         8.5000        90.7300         1.2000         1.1900       0.395200         2.3778         1.4000       -36.8898
        2082.0         8.5000        87.3800         1.1800         1.1800       0.379400         2.3593         1.4000       -36.1131
        2083.0         8.5000        88.6500         1.2600         1.2600       0.351500         2.3599         1.4700       -35.7665
        2084.0         8.5000        85.2300         1.3000         1.3000       0.363500         2.3601         1.4900       -35.5298
        2085.0         8.5000        84.3400         1.2500         1.2300       0.382400         2.3518         1.4400       -35.4331
        2086.0         8.5000        90.8200         1.2500         1.2000       0.363400         2.3515         1.4600       -35.4265
        2087.0         8.5000        89.7600         1.3000         1.2800       0.352000         2.3768         1.4900       -35.5198
        2088.0         8.5000        90.2500         1.3500         1.3400       0.368200         2.3514         1.5100       -35.6631
        2089.0         8.5000        82.6100         1.4000         1.3900       0.346200         2.3499         1.5600       -35.8065
        2090.0         8.5000        82.4100         1.4300         1.4100       0.343600         2.3662         1.6100       -36.0998
        2091.0         8.5000        75.3100         1.4400         1.4300       0.345700         2.3814         1.6500       -36.4131
        2092.0         8.5000        82.2500         1.4000         1.4100       0.351200         2.3620         1.6700       -36.7265
        2093.0         8.5000        83.3000         1.3500         1.3400       0.378400         2.3665         1.5000       -36.9698
        2094.0         8.5000        82.4600         1.3100         1.3000       0.347700         2.3460         1.4000       -36.7531
        2095.0         8.5000        80.4500         1.2700         1.2500       0.326500         2.3517         1.5100       -35.8265
        2096.0         8.5000        87.0400         1.2100         1.1900       0.310400         2.3505         1.5000       -34.1498
        2097.0         8.5000        85.2200         1.1500         1.1400       0.343400         2.3604         1.3800       -31.3031
        2098.0         8.5000        85.0900         1.1300         1.1200       0.414700         2.3598         1.1600       -52.0065
        2099.0         8.5000        83.2200         1.1300         1.1100       0.348800         2.3607         1.1500       -53.0998
        2100.0         8.5000        76.7500         1.1300         1.1100       0.400600         2.3552         1.3700       -53.9731
        2101.0         8.5000        76.7700         1.1100         1.1100       0.411400         2.3156         1.4900       -54.1665
        2102.0         8.5000        80.4800         1.0700         1.0900       0.456300         2.3234         1.2200       -53.5598
        2103.0         8.5000        91.5600         1.0400         1.0700       0.431500         2.3353         1.1300       -52.7431
        2104.0         8.5000        85.8400         1.0300         1.0500       0.425100         2.3145         1.2400       -52.0765
        2105.0         8.5000        83.2000         1.0100         1.0300       0.390900         2.3286         1.3000       -32.3198
        2106.0         8.5000        85.0100         1.0000         1.0100       0.440100         2.3339         1.2600       -32.9431
        2107.0         8.5000        89.2700         0.9800         1.0000       0.386100         2.3445         1.2900       -32.8765
        2108.0         8.5000        97.0400         0.9700         0.9800       0.409800         2.2853         1.0100       -52.4198
        2109.0         8.5000        95.7100         0.9700         0.9800       0.418800         2.2663         1.0600       -52.6031
        2110.0         8.5000        91.4300         0.9600         0.9800       0.428800         2.2893         1.1300       -32.7565
        2111.0         8.5000        93.3600         0.9500         0.9700       0.371800         2.2802         1.1000       -33.3198
        2112.0         8.5000       108.5600         0.9500         0.9600       0.425700         2.2789         1.0700       -33.0931
        2113.0         8.5000       133.7700         0.9600         0.9700       0.424600         2.2427         0.9600       -54.0365
        2114.0         8.5000       117.5000         1.0100         1.0100       0.418400         2.2900         1.2200       -54.5098
        2115.0         8.5000        93.7200         1.0700         1.0900       0.397500         2.3377         1.4900       -54.0431
        2116.0         8.5000        94.4200         1.1400         1.1600       0.390000         2.3384         1.4400       -34.3365
        2117.0         8.5000        95.8900         1.1700         1.1800       0.388000         2.3426         1.3800       -36.0098
        2118.0         8.5000        90.2300         1.1500         1.1700       0.388100         2.3377         1.3400       -36.5031
        2119.0         8.5000        88.1900         1.1700         1.1700       0.413300         2.3419         1.3500       -36.9465
