~Version Information Block
VERS .                 2.00:  CWLS LOG ASCII STANDARD - VERSION 2.00
WRAP .                   NO:  One line per depth step
~Well Information Block
#MNEM.UNIT        Data Type   Information
#---------- ----------------  -----------
STRT .Ft             1820.0:  START DEPTH
STOP .Ft             5489.0:  STOP DEPTH
STEP .Ft                1.0:  STEP
NULL .              -999.25:  NULL VALUE
COMP .                     :  COMPANY
WELL .               SIRIUS:  WELL
FLD  .                     :  FIELD
LOC  .                     :  LOCATION
CTRY .                     :  COUNTRY
STAT .                     :  STATE
CNTY .                     :  COUNTY
API  .                     :  API NUMBER
UWI  .                     :  UNIQUE WELL ID
SRVC .                     :  SERVICE COMPANY
DATE .                     :  LOG DATE
~Curve Information Block
#MNEM.UNIT         API CODE   Curve Description
#---------- ----------------  -----------------
DEPTH.Ft                   :  
BS   .IN                   :  Created using text_insert
GR   .GAPI                 :  
ILD  .OHMM                 :  
ILM  .OHMM                 :  
NPHI .V/V                  :  
RHOB .G/C3                 :  
SFLU .OHMM                 :  
SP   .MV                   :  Curve edited
~Parameter Information Block
#MNEM.UNIT            Value   Description
#---------- ----------------  -----------
SET  .                 WIRE:  
DATE_LOGGED.           29/02/2002:  
DATUM_ELEVATION.                  MSL:  
TD   .Ft     5170.603674541:  
APIN .                   17:  
CN   .         UNIVERSE CO.:  
TDD  .Ft               5489:  
ELZ  .Ft     567.0603674541:  
LATI .     16 39' 16.000" S:  
FL   .     MILKY WAY GALAXY:  
LONG .     154 25' 57.000" E:  
LMF  .                   KB:  
OPER .                COMET:  
EGL  .Ft      553.937007874:  
SYMBOL.                 WOGS:  
UWID .               SIRIUS:  
WELL_NAME.               SIRIUS:  
XOFFSET_BOTTOM.Ft                  0:  
XREF .Ft     2141635.666018:  
YOFFSET_BOTTOM.Ft     88.74886698094:  
YREF .Ft     26765477.77954:  
~Other Information Block
COMMENT:
COMMENT1:
Ref No.:2        Report No.: 28556  "Drill cuttings, Formation tests, Geothermal gradients, Lithology, Water analysis, Well velocity surveys, Wire line logging"          WELL COMPLETION REPORT
Ref No.:2        Report No.: 28556  "Drill cuttings, Formation tests, Geothermal gradients, Lithology, Water analysis, Well velocity surveys, Wire line logging"          WELL COMPLETION REPORT
Ref No.:2        Report No.: 28556  "Drill cuttings, Formation tests, Geothermal gradients, Lithology, Water analysis, Well velocity surveys, Wire line logging"          WELL COMPLETION REPORT
Ref No.:2        Report No.: 28556  "Drill cuttings, Formation tests, Geothermal gradients, Lithology, Water analysis, Well velocity surveys, Wire line logging"          WELL COMPLETION REPORT
COMMENT2:
Ref no.:1        Report No.: 25780
Ref no.:1        Report No.: 25780
Ref no.:1        Report No.: 25780
Ref no.:1        Report No.: 25780

#        DEPTH             BS             GR            ILD            ILM           NPHI           RHOB           SFLU             SP 
~A
# ...
        3020.0         8.5000       136.4100         1.7100         1.8500       0.411700         2.3467         1.1900       -39.4615
        3021.0         8.5000       123.0100         1.5900         1.6200       0.397400         2.3540         1.4300       -41.0361
        3022.0         8.5000       123.8400         1.4700         1.4300       0.419600         2.3640         1.5300       -40.5108
        3023.0         8.5000       141.7900         1.3800         1.3900       0.424400         2.3511         1.5700       -40.7554
        3024.0         8.5000       137.5900         1.4300         1.4700       0.404700         2.3226         1.6200       -42.2001
        3025.0         8.5000       139.1500         1.5600         1.5600       0.366900         2.3514         1.7400       -41.6148
        3026.0         8.5000       118.6200         1.7500         1.7700       0.350500         2.4168         1.9500       -41.9294
        3027.0         8.5000       117.4600         1.9300         1.9900       0.352200         2.3747         2.1300       -42.8841
        3028.0         8.5000       118.9000         2.0000         2.0800       0.359000         2.3689         2.3400       -44.5287
        3029.0         8.5000       122.3000         2.0500         2.0400       0.332900         2.3670         2.3300       -46.0334
        3030.0         8.5000       123.7600         2.0400         2.0300       0.363700         2.3742         2.2700       -46.9081
        3031.0         8.5000       114.8300         2.0900         2.0300       0.342000         2.3742         2.3200       -47.2327
        3032.0         8.5000       119.8100         2.1000         2.0400       0.338100         2.3913         2.3700       -46.9274
        3033.0         8.5000       124.0400         2.0300         2.0500       0.334700         2.3557         2.3100       -46.2420
        3034.0         8.5000       121.1100         2.1000         2.1200       0.331400         2.3563         2.3200       -45.4367
        3035.0         8.5000       118.7000         2.1700         2.2300       0.322600         2.3418         2.4100       -44.3314
        3036.0         8.5000       121.4600         2.2100         2.2700       0.313800         2.3202         2.5800       -43.2360
        3037.0         8.5000       125.6900         2.2100         2.2100       0.326700         2.3281         2.7200       -44.6107
        3038.0         8.5000       119.8300         2.0300         2.0400       0.331400         2.3360         2.3700       -46.0853
        3039.0         8.5000       122.0200         1.8700         1.8300       0.337700         2.3599         2.0500       -46.8700
        3040.0         8.5000       109.1900         1.7500         1.6500       0.383800         2.3694         1.8100       -46.9547
        3041.0         8.5000       108.5200         1.5900         1.6300       0.369000         2.3659         1.6400       -46.8493
        3042.0         8.5000       119.3500         1.6000         1.6400       0.375200         2.3300         1.7300       -46.8340
        3043.0         8.5000       124.1200         1.6500         1.6600       0.385900         2.3381         1.8500       -46.8286
        3044.0         8.5000       126.4700         1.7100         1.7000       0.378200         2.3502         1.9500       -46.7633
        3045.0         8.5000       127.4300         1.7800         1.7700       0.357100         2.3278         2.0200       -46.8680
        3046.0         8.5000       124.7400         1.8600         1.8500       0.368000         2.3427         2.1600       -46.8326
        3047.0         8.5000       129.5600         1.9700         1.8800       0.331800         2.3466         2.3400       -46.7273
        3048.0         8.5000       111.9000         1.7800         1.8200       0.354900         2.3754         2.0900       -46.5919
        3049.0         8.5000       108.0400         1.7200         1.7500       0.384600         2.4092         1.8500       -46.4666
        3050.0         8.5000       122.7700         1.7100         1.7300       0.403500         2.4226         1.7100       -46.8213
        3051.0         8.5000       138.9200         1.7600         1.7800       0.397400         2.3346         1.9000       -46.8759
        3052.0         8.5000       135.0100         1.9400         1.9400       0.364700         2.3244         2.3300       -46.3006
        3053.0         8.5000       130.6800         2.1400         2.1100       0.365500         2.3156         2.6600       -45.4652
        3054.0         8.5000       130.0900         2.2100         2.2600       0.335500         2.3138         2.5600       -44.3399
        3055.0         8.5000       129.3800         2.3200         2.3700       0.324900         2.3063         2.6700       -43.3846
        3056.0         8.5000       126.9300         2.4900         2.4300       0.308500         2.3163         3.3700       -43.4692
        3057.0         8.5000       128.9500         2.4100         2.4400       0.335500         2.3147         3.0000       -44.7539
        3058.0         8.5000       126.0300         2.3200         2.4000       0.326000         2.3039         2.9400       -45.8385
        3059.0         8.5000       120.8300         2.3100         2.3300       0.338800         2.3220         2.2500       -46.4132
        3060.0         8.5000       123.1000         2.3500         2.3300       0.330600         2.2973         2.6000       -45.4679
        3061.0         8.5000       126.5700         2.4300         2.4400       0.350000         2.3042         2.6500       -44.0925
        3062.0         8.5000       123.0500         2.5900         2.7500       0.318100         2.3109         2.7200       -61.0072
        3063.0         8.5000       116.0100         2.7400         2.9500       0.300800         2.3719         5.2300       -66.4618
        3064.0         8.5000       122.8600         2.8400         2.9700       0.321400         2.3306         4.6200       -70.8565
        3065.0         8.5000       125.8400         2.9800         2.9300       0.328900         2.2751         2.6100       -64.1212
        3066.0         8.5000       114.0300         3.1400         3.3100       0.290800         2.3760         2.9800       -65.0358
        3067.0         8.5000       103.4200         5.4600         3.8300       0.234900         2.3911        11.4300       -70.8105
        3068.0         8.5000       123.4200         6.3200         3.9400       0.236700         2.4026        11.6400       -64.6851
        3069.0         8.5000       133.0700         3.2600         3.0500       0.327800         2.3698         4.2700       -45.4798
        3070.0         8.5000       132.9900         2.7600         2.3600       0.392200         2.3288         2.4400       -47.8145
        3071.0         8.5000       134.0000         2.6200         2.6800       0.340600         2.2970         2.8800       -46.7091
        3072.0         8.5000       124.0600         2.7400         2.8800       0.278900         2.3444         3.5400       -44.7738
        3073.0         8.5000       126.0300         2.9000         2.9200       0.354400         2.3132         4.2300       -43.1684
        3074.0         8.5000       125.5300         2.9500         3.0200       0.375100         2.3198         3.0000       -60.9131
        3075.0         8.5000       107.2300         3.1300         3.8200       0.265000         2.3157         5.9300       -79.4478
        3076.0         8.5000       114.0000         3.2400         3.9900       0.306100         2.3303         6.9600       -87.7424
        3077.0         8.5000       117.0700         3.1000         4.0200       0.282800         2.2682         7.9400       -84.5671
        3078.0         8.5000       120.9000         3.3100         3.1600       0.289400         2.2957         6.5400       -66.3417
        3079.0         8.5000       135.5400         2.0700         2.1000       0.363600         2.3386         1.5200       -50.6964
