~Version Information Block
VERS .                 2.00:  CWLS LOG ASCII STANDARD - VERSION 2.00
WRAP .                   NO:  One line per depth step
~Well Information Block
#MNEM.UNIT        Data Type   Information
#---------- ----------------  -----------
STRT .Ft             1820.0:  START DEPTH
STOP .Ft             5489.0:  STOP DEPTH
STEP .Ft                1.0:  STEP
NULL .              -999.25:  NULL VALUE
COMP .                     :  COMPANY
WELL .               SIRIUS:  WELL
FLD  .                     :  FIELD
LOC  .                     :  LOCATION
CTRY .                     :  COUNTRY
STAT .                     :  STATE
CNTY .                     :  COUNTY
API  .                     :  API NUMBER
UWI  .                     :  UNIQUE WELL ID
SRVC .                     :  SERVICE COMPANY
DATE .                     :  LOG DATE
~Curve Information Block
#MNEM.UNIT         API CODE   Curve Description
#---------- ----------------  -----------------
DEPTH.Ft                   :  
BS   .IN                   :  Created using text_insert
GR   .GAPI                 :  
ILD  .OHMM                 :  
ILM  .OHMM                 :  
NPHI .V/V                  :  
RHOB .G/C3                 :  
SFLU .OHMM                 :  
SP   .MV                   :  Curve edited
~Parameter Information Block
#MNEM.UNIT            Value   Description
#---------- ----------------  -----------
SET  .                 WIRE:  
DATE_LOGGED.           29/02/2002:  
DATUM_ELEVATION.                  MSL:  
TD   .Ft     5170.603674541:  
APIN .                   17:  
CN   .         UNIVERSE CO.:  
TDD  .Ft               5489:  
ELZ  .Ft     567.0603674541:  
LATI .     16 39' 16.000" S:  
FL   .     MILKY WAY GALAXY:  
LONG .     154 25' 57.000" E:  
LMF  .                   KB:  
OPER .                COMET:  
EGL  .Ft      553.937007874:  
SYMBOL.                 WOGS:  
UWID .               SIRIUS:  
WELL_NAME.               SIRIUS:  
XOFFSET_BOTTOM.Ft                  0:  
XREF .Ft     2141635.666018:  
YOFFSET_BOTTOM.Ft     88.74886698094:  
YREF .Ft     26765477.77954:  
~Other Information Block
COMMENT:
COMMENT1:
Ref No.:2        Report No.: 28556  "Drill cuttings, Formation tests, Geothermal gradients, Lithology, Water analysis, Well velocity surveys, Wire line logging"          WELL COMPLETION REPORT
Ref No.:2        Report No.: 28556  "Drill cuttings, Formation tests, Geothermal gradients, Lithology, Water analysis, Well velocity surveys, Wire line logging"          WELL COMPLETION REPORT
Ref No.:2        Report No.: 28556  "Drill cuttings, Formation tests, Geothermal gradients, Lithology, Water analysis, Well velocity surveys, Wire line logging"          WELL COMPLETION REPORT
Ref No.:2        Report No.: 28556  "Drill cuttings, Formation tests, Geothermal gradients, Lithology, Water analysis, Well velocity surveys, Wire line logging"          WELL COMPLETION REPORT
COMMENT2:
Ref no.:1        Report No.: 25780
Ref no.:1        Report No.: 25780
Ref no.:1        Report No.: 25780
Ref no.:1        Report No.: 25780

#        DEPTH             BS             GR            ILD            ILM           NPHI           RHOB           SFLU             SP 
~A
        1820.0         8.5000        81.6100         1.5900         1.5700       0.406900         2.4048         1.8700        -1.8986
        1821.0         8.5000        75.5800         1.6800         1.6500       0.368000         2.4411         1.8700        -2.8586
        1822.0         8.5000        82.5900         1.7600         1.7300       0.400300         2.4206         2.0400        -3.5286
        1823.0         8.5000        72.2300         1.8500         1.8100       0.343500         2.4109         1.6300        -3.9398
        1824.0         8.5000        68.0400         1.9400         1.9000       0.336900         2.4629         2.3200        -4.1931
        1825.0         8.5000        68.3100         2.0600         2.0300       0.306000         2.4954         2.2900        -4.4565
        1826.0         8.5000        72.3400         2.1700         2.1500       0.266700         2.5005         2.2900        -4.7098
        1827.0         8.5000        68.0100         2.2900         2.2500       0.265000         2.4743         2.6400        -4.6531
        1828.0         8.5000        67.0100         2.2500         2.2700       0.278100         2.4658         2.3800        -4.2065
        1829.0         8.5000        65.8500         2.2300         2.1200       0.246000         2.4584         2.6900        -2.9898
        1830.0         8.5000        68.2000         1.9200         1.9200       0.373500         2.4032         2.2500         0.1669
        1831.0         8.5000        78.6000         1.8000         1.7700       0.388100         2.3874         1.4500         0.5835
        1832.0         8.5000        77.3300         1.7400         1.7000       0.304200         2.4065         1.5300         0.1102
        1833.0         8.5000        70.5700         1.7200         1.7100       0.281800         2.4430         2.2100         1.5169
        1834.0         8.5000        73.2300         1.7600         1.7700       0.316900         2.4280         2.2100         2.7535
        1835.0         8.5000        73.0400         1.8300         1.8500       0.301100         2.4262         2.1800         1.0402
        1836.0         8.5000        76.9500         1.9100         1.9200       0.281300         2.4393         2.1800        -0.4131
        1837.0         8.5000        73.2300         1.9600         1.9600       0.290200         2.4462         2.2000        -1.5665
        1838.0         8.5000        75.0000         1.9500         1.9800       0.268500         2.4634         2.2100        -2.7298
        1839.0         8.5000        71.8400         1.9400         1.9700       0.265800         2.4440         2.2000        -3.3431
        1840.0         8.5000        75.2400         1.9300         1.9600       0.282200         2.4511         2.1800        -3.7665
        1841.0         8.5000        76.5900         1.9400         1.9700       0.276600         2.4660         2.1600        -3.9298
        1842.0         8.5000        74.9500         2.0000         2.0100       0.264100         2.4679         2.1600        -3.9631
        1843.0         8.5000        69.7300         2.0800         2.0600       0.246100         2.4588         2.2700        -4.0865
        1844.0         8.5000        68.6400         2.1500         2.1200       0.250100         2.4598         2.3600        -4.3998
        1845.0         8.5000        66.1300         2.2000         2.1600       0.241500         2.4636         2.4200        -4.8031
        1846.0         8.5000        62.6300         2.2300         2.2000       0.244600         2.4529         2.4600        -5.2465
        1847.0         8.5000        70.7500         2.2400         2.2100       0.234300         2.4752         2.5100        -5.8798
        1848.0         8.5000        61.9700         2.2400         2.2300       0.243600         2.4868         2.5100        -6.5231
        1849.0         8.5000        63.1900         2.2600         2.2500       0.246000         2.4779         2.5200        -7.2965
        1850.0         8.5000        60.5900         2.2800         2.2700       0.227000         2.4879         2.5200        -7.9098
        1851.0         8.5000        62.8000         2.3100         2.3000       0.225400         2.5082         2.5100        -8.1131
        1852.0         8.5000        60.9500         2.3100         2.3200       0.242300         2.4882         2.5200        -7.9165
        1853.0         8.5000        57.3500         2.2500         2.3300       0.229300         2.4631         2.5200        -7.5298
        1854.0         8.5000        55.0600         2.3900         2.3700       0.255900         2.4442         2.8100        -6.7831
        1855.0         8.5000        49.8700         2.1700         2.3100       0.252000         2.4405         2.6300        -5.2865
        1856.0         8.5000        52.5100         1.9300         2.1700       0.270500         2.4197         2.3800       -21.7798
        1857.0         8.5000        46.6400         1.9000         2.1100       0.262100         2.4026         2.5700       -31.9131
        1858.0         8.5000        51.3100         1.9600         2.1500       0.269300         2.3870         2.8200       -38.3965
        1859.0         8.5000        49.2600         2.0500         2.3000       0.264100         2.3258         3.9200       -42.1698
        1860.0         8.5000        44.8300         2.1200         2.5100       0.251600         2.3095         4.2600       -39.5331
        1861.0         8.5000        51.2900         2.3200         2.4900       0.208300         2.3721         4.4900       -25.5865
        1862.0         8.5000        63.6500         1.9400         2.0800       0.262500         2.4509         2.1900        -5.5698
        1863.0         8.5000        66.8200         1.7000         1.7100       0.398800         2.4385         1.5700        -8.0931
        1864.0         8.5000        78.0500         1.5200         1.5100       0.412000         2.3341         1.3100        -8.0565
        1865.0         8.5000        68.5200         1.4100         1.4400       0.355100         2.3758         1.4200        -9.1798
        1866.0         8.5000        61.8700         1.4800         1.4600       0.330900         2.4322         1.6600       -10.0431
        1867.0         8.5000        68.9600         1.5500         1.5000       0.336500         2.4255         1.7500        -9.6065
        1868.0         8.5000        70.4200         1.5200         1.5300       0.327100         2.4458         1.7700        -8.8598
        1869.0         8.5000        66.4800         1.5200         1.5600       0.404600         2.4273         1.7200        -8.0831
        1870.0         8.5000        74.6800         1.5400         1.5800       0.363000         2.4350         1.6500        -8.0365
        1871.0         8.5000        73.9000         1.5300         1.5800       0.364300         2.4336         1.7200        -7.3898
        1872.0         8.5000        68.2500         1.5000         1.5600       0.324100         2.4198         1.7300        -3.0531
        1873.0         8.5000        72.0800         1.4400         1.4900       0.318500         2.4301         1.6800       -25.4365
        1874.0         8.5000        85.8200         1.3800         1.3800       0.363500         2.4109         1.4900       -26.2598
        1875.0         8.5000        93.6100         1.3000         1.2900       0.399800         2.3241         1.2900       -24.3031
        1876.0         8.5000        83.7700         1.2400         1.2300       0.414600         2.3501         1.3000       -22.1265
        1877.0         8.5000        85.5100         1.2200         1.2200       0.440700         2.3352         1.2400        -2.1098
        1878.0         8.5000        95.3200         1.3100         1.3000       0.373200         2.3708         1.4300        -2.7231
        1879.0         8.5000        86.9800         1.4600         1.4600       0.339500         2.4187         1.7500        -3.2965
