~Version Information Block
VERS .                 2.00:  CWLS LOG ASCII STANDARD - VERSION 2.00
WRAP .                   NO:  One line per depth step
~Well Information Block
#MNEM.UNIT        Data Type   Information
#---------- ----------------  -----------
STRT .Ft             1820.0:  START DEPTH
STOP .Ft             5489.0:  STOP DEPTH
STEP .Ft                1.0:  STEP
NULL .              -999.25:  NULL VALUE
COMP .                     :  COMPANY
WELL .               SIRIUS:  WELL
FLD  .                     :  FIELD
LOC  .                     :  LOCATION
CTRY .                     :  COUNTRY
STAT .                     :  STATE
CNTY .                     :  COUNTY
API  .                     :  API NUMBER
UWI  .                     :  UNIQUE WELL ID
SRVC .                     :  SERVICE COMPANY
DATE .                     :  LOG DATE
~Curve Information Block
#MNEM.UNIT         API CODE   Curve Description
#---------- ----------------  -----------------
DEPTH.Ft                   :  
BS   .IN                   :  Created using text_insert
GR   .GAPI                 :  
ILD  .OHMM                 :  
ILM  .OHMM                 :  
NPHI .V/V                  :  
RHOB .G/C3                 :  
SFLU .OHMM                 :  
SP   .MV                   :  Curve edited
~Parameter Information Block
#MNEM.UNIT            Value   Description
#---------- ----------------  -----------
SET  .                 WIRE:  
DATE_LOGGED.           29/02/2002:  
DATUM_ELEVATION.                  MSL:  
TD   .Ft     5170.603674541:  
APIN .                   17:  
CN   .         UNIVERSE CO.:  
TDD  .Ft               5489:  
ELZ  .Ft     567.0603674541:  
LATI .     16 39' 16.000" S:  
FL   .     MILKY WAY GALAXY:  
LONG .     154 25' 57.000" E:  
LMF  .                   KB:  
OPER .                COMET:  
EGL  .Ft      553.937007874:  
SYMBOL.                 WOGS:  
UWID .               SIRIUS:  
WELL_NAME.               SIRIUS:  
XOFFSET_BOTTOM.Ft                  0:  
XREF .Ft     2141635.666018:  
YOFFSET_BOTTOM.Ft     88.74886698094:  
YREF .Ft     26765477.77954:  
~Other Information Block
COMMENT:
COMMENT1:
Ref No.:2        Report No.: 28556  "Drill cuttings, Formation tests, Geothermal gradients, Lithology, Water analysis, Well velocity surveys, Wire line logging"          WELL COMPLETION REPORT
Ref No.:2        Report No.: 28556  "Drill cuttings, Formation tests, Geothermal gradients, Lithology, Water analysis, Well velocity surveys, Wire line logging"          WELL COMPLETION REPORT
Ref No.:2        Report No.: 28556  "Drill cuttings, Formation tests, Geothermal gradients, Lithology, Water analysis, Well velocity surveys, Wire line logging"          WELL COMPLETION REPORT
Ref No.:2        Report No.: 28556  "Drill cuttings, Formation tests, Geothermal gradients, Lithology, Water analysis, Well velocity surveys, Wire line logging"          WELL COMPLETION REPORT
COMMENT2:
Ref no.:1        Report No.: 25780
Ref no.:1        Report No.: 25780
Ref no.:1        Report No.: 25780
Ref no.:1        Report No.: 25780

#        DEPTH             BS             GR            ILD            ILM           NPHI           RHOB           SFLU             SP 
~A
# ...
        2540.0         8.5000        61.8300         2.5300         2.5900       0.278800         2.4955         2.4500        -5.5547
        2541.0         8.5000        65.0500         2.8600         2.7300       0.250400         2.5340         3.2100        -5.7494
        2542.0         8.5000        69.0500         2.8700         2.5000       0.273900         2.4901         3.4100        -5.5341
        2543.0         8.5000        65.2500         2.2700         2.3200       0.312900         2.4400         2.1800        -5.2387
        2544.0         8.5000        65.4000         2.2000         2.2400       0.303800         2.4717         2.1600        -4.7334
        2545.0         8.5000        68.3300         2.1000         2.1300       0.281800         2.4899         2.5100        -3.6880
        2546.0         8.5000        75.8100         1.9700         2.0200       0.322500         2.4255         2.5200        -1.9527
        2547.0         8.5000        73.9700         1.8400         1.8900       0.411500         2.4110         1.8600         0.4926
        2548.0         8.5000        67.0900         1.7500         1.7900       0.311800         2.4475         1.5700         1.1480
        2549.0         8.5000        72.0000         1.7000         1.7200       0.411900         2.3991         2.4200         1.4033
        2550.0         8.5000        81.3500         1.6200         1.7000       0.372500         2.3543         1.8300         1.7887
        2551.0         8.5000        80.6500         1.6300         1.6800       0.429700         2.3301         1.9800         2.3340
        2552.0         8.5000        78.9100         1.5000         1.6900       0.416900         2.3276         1.4000         3.2093
        2553.0         8.5000        72.3000         1.7500         1.8100       0.339000         2.4416         2.0600         1.1547
        2554.0         8.5000        71.1700         2.0200         2.0100       0.306700         2.4979         2.5200        -1.1300
        2555.0         8.5000        62.7600         2.2800         2.2400       0.291000         2.5121         2.5900        -2.2546
        2556.0         8.5000        71.3600         2.3600         2.5100       0.292000         2.5014         2.8700        -2.2793
        2557.0         8.5000        70.9000         2.3400         2.5700       0.260300         2.4702         2.9700        -2.1140
        2558.0         8.5000        73.9500         2.1300         2.2300       0.334100         2.4712         2.8900        -1.8386
        2559.0         8.5000        76.2800         1.7300         1.8200       0.406700         2.3948         1.5800        -1.3933
        2560.0         8.5000        77.1900         1.4800         1.5600       0.430600         2.3924         1.5800        -0.6679
        2561.0         8.5000        80.8600         1.3100         1.3800       0.475000         2.3108         1.4700         0.8574
        2562.0         8.5000        95.9400         1.2500         1.2900       0.501500         2.2784         1.2200         2.2127
        2563.0         8.5000        76.9100         1.2700         1.2600       0.457600         2.2858         1.2900       -18.3319
        2564.0         8.5000        78.1500         1.3300         1.3100       0.461600         2.2855         1.4300       -18.1166
        2565.0         8.5000        78.9000         1.4100         1.4100       0.429700         2.3252         1.5300         1.6988
        2566.0         8.5000        80.2900         1.4500         1.4700       0.404000         2.3621         1.9600         0.1941
        2567.0         8.5000        83.3300         1.4200         1.4400       0.436400         2.3223         1.7600        -1.3505
        2568.0         8.5000        75.5200         1.3800         1.4000       0.440800         2.2717         1.4400        -2.3052
        2569.0         8.5000        73.6000         1.3900         1.4000       0.480700         2.2773         1.3400        -2.5699
        2570.0         8.5000        69.6900         1.4700         1.5100       0.426300         2.3905         1.3000        -2.3545
        2571.0         8.5000        62.3800         1.7500         1.7200       0.318700         2.4828         2.4200        -2.0992
        2572.0         8.5000        73.9200         1.8100         1.7100       0.395400         2.3729         2.6400        -1.9938
        2573.0         8.5000        80.7100         1.4900         1.6200       0.445300         2.2596         1.4400        -1.8485
        2574.0         8.5000        83.0700         1.4100         1.6200       0.391300         2.3210         1.2600        -1.2432
        2575.0         8.5000        69.8400         1.4100         1.6700       0.381100         2.4204         2.2500       -19.3678
        2576.0         8.5000        71.5800         1.4300         1.3700       0.487600         2.3035         2.3100       -19.7425
        2577.0         8.5000        70.0900         1.1700         1.2200       0.500400         2.2475         1.0800         0.3529
        2578.0         8.5000        73.3900         1.1100         1.1500       0.478200         2.2426         1.2300        -0.5618
        2579.0         8.5000        81.4700         1.0700         1.1100       0.407700         2.2974         1.0800        -0.0165
        2580.0         8.5000        86.6200         1.0700         1.1100       0.495900         2.2591         1.3900        -0.5511
        2581.0         8.5000        84.7400         1.0900         1.1200       0.453700         2.2497         1.2600        -1.1658
        2582.0         8.5000        72.0000         1.1100         1.1400       0.409800         2.2969         1.4000        -2.0304
        2583.0         8.5000        72.4500         1.1300         1.1700       0.452500         2.3155         1.4600        -2.9751
        2584.0         8.5000        78.2400         1.1500         1.1900       0.446300         2.2545         1.1900        -4.5198
        2585.0         8.5000        75.6200         1.1600         1.2100       0.415400         2.3037         1.3300        -6.2944
        2586.0         8.5000        69.0800         1.1900         1.2100       0.414100         2.3450         1.4200        -7.1291
        2587.0         8.5000        67.4200         1.1600         1.1700       0.419500         2.3264         1.3700        -7.4137
        2588.0         8.5000        61.5100         1.1200         1.1100       0.429900         2.3399         1.3400        -6.9884
        2589.0         8.5000        62.2600         1.0500         1.0400       0.474800         2.3227         1.3000        -6.4131
        2590.0         8.5000        57.7700         0.9600         0.9800       0.489500         2.2637         1.0600        -6.3977
        2591.0         8.5000        65.9000         0.9700         0.9800       0.409500         2.3147         1.1000        -6.9324
        2592.0         8.5000        66.8100         1.0200         1.0300       0.384200         2.3246         1.2100        -5.4270
        2593.0         8.5000        71.1900         1.1200         1.1300       0.409100         2.3352         1.3100        -3.6217
        2594.0         8.5000        75.1700         1.2500         1.2600       0.461900         2.3253         1.4800        -2.2564
        2595.0         8.5000        85.8200         1.4000         1.4200       0.519700         2.3168         1.7300        -2.1110
        2596.0         8.5000        88.2300         1.5600         1.5900       0.418700         2.3534         1.7000        -3.1757
        2597.0         8.5000        79.4200         1.7300         1.7300       0.381200         2.3946         2.1300        -4.2103
        2598.0         8.5000        78.7200         1.8200         1.8500       0.407100         2.4048         1.9700        -5.1550
        2599.0         8.5000        80.6600         1.8200         1.9000       0.390900         2.4288         1.9500        -5.3897
