~Version Information Block
VERS .                 2.00:  CWLS LOG ASCII STANDARD - VERSION 2.00
WRAP .                   NO:  One line per depth step
~Well Information Block
#MNEM.UNIT        Data Type   Information
#---------- ----------------  -----------
STRT .Ft             1820.0:  START DEPTH
STOP .Ft             5489.0:  STOP DEPTH
STEP .Ft                1.0:  STEP
NULL .              -999.25:  NULL VALUE
COMP .                     :  COMPANY
WELL .               SIRIUS:  WELL
FLD  .                     :  FIELD
LOC  .                     :  LOCATION
CTRY .                     :  COUNTRY
STAT .                     :  STATE
CNTY .                     :  COUNTY
API  .                     :  API NUMBER
UWI  .                     :  UNIQUE WELL ID
SRVC .                     :  SERVICE COMPANY
DATE .                     :  LOG DATE
~Curve Information Block
#MNEM.UNIT         API CODE   Curve Description
#---------- ----------------  -----------------
DEPTH.Ft                   :  
BS   .IN                   :  Created using text_insert
GR   .GAPI                 :  
ILD  .OHMM                 :  
ILM  .OHMM                 :  
NPHI .V/V                  :  
RHOB .G/C3                 :  
SFLU .OHMM                 :  
SP   .MV                   :  Curve edited
~Parameter Information Block
#MNEM.UNIT            Value   Description
#---------- ----------------  -----------
SET  .                 WIRE:  
DATE_LOGGED.           29/02/2002:  
DATUM_ELEVATION.                  MSL:  
TD   .Ft     5170.603674541:  
APIN .                   17:  
CN   .         UNIVERSE CO.:  
TDD  .Ft               5489:  
ELZ  .Ft     567.0603674541:  
LATI .     16 39' 16.000" S:  
FL   .     MILKY WAY GALAXY:  
LONG .     154 25' 57.000" E:  
LMF  .                   KB:  
OPER .                COMET:  
EGL  .Ft      553.937007874:  
SYMBOL.                 WOGS:  
UWID .               SIRIUS:  
WELL_NAME.               SIRIUS:  
XOFFSET_BOTTOM.Ft                  0:  
XREF .Ft     2141635.666018:  
YOFFSET_BOTTOM.Ft     88.74886698094:  
YREF .Ft     26765477.77954:  
~Other Information Block
COMMENT:
COMMENT1:
Ref No.:2        Report No.: 28556  "Drill cuttings, Formation tests, Geothermal gradients, Lithology, Water analysis, Well velocity surveys, Wire line logging"          WELL COMPLETION REPORT
Ref No.:2        Report No.: 28556  "Drill cuttings, Formation tests, Geothermal gradients, Lithology, Water analysis, Well velocity surveys, Wire line logging"          WELL COMPLETION REPORT
Ref No.:2        Report No.: 28556  "Drill cuttings, Formation tests, Geothermal gradients, Lithology, Water analysis, Well velocity surveys, Wire line logging"          WELL COMPLETION REPORT
Ref No.:2        Report No.: 28556  "Drill cuttings, Formation tests, Geothermal gradients, Lithology, Water analysis, Well velocity surveys, Wire line logging"          WELL COMPLETION REPORT
COMMENT2:
Ref no.:1        Report No.: 25780
Ref no.:1        Report No.: 25780
Ref no.:1        Report No.: 25780
Ref no.:1        Report No.: 25780

#        DEPTH             BS             GR            ILD            ILM           NPHI           RHOB           SFLU             SP 
~A
# ...
        3500.0         8.5000        76.5200         1.9000         1.7300       0.353200         2.3314         2.5100       -81.1582
        3501.0         8.5000        96.6700         1.7000         1.7100       0.415600         2.2979         2.1200       -82.8328
        3502.0         8.5000       112.2200         1.5800         1.6200       0.414000         2.3028         1.7700       -84.6975
        3503.0         8.5000       100.3100         1.4800         1.4800       0.417300         2.3246         1.6600       -85.4422
        3504.0         8.5000        93.2400         1.4200         1.4200       0.400200         2.3384         1.6000       -84.8568
        3505.0         8.5000        92.1900         1.4800         1.4700       0.407000         2.3080         1.6500       -84.1215
        3506.0         8.5000       103.7500         1.5800         1.6000       0.417800         2.3330         1.6600       -83.6461
        3507.0         8.5000       108.7600         1.7000         1.7800       0.399000         2.3654         2.0000       -83.4608
        3508.0         8.5000       102.0300         2.2100         1.8700       0.331200         2.4041         2.7100       -84.3255
        3509.0         8.5000       100.5000         2.0700         1.9200       0.349200         2.4421         2.4900       -85.8401
        3510.0         8.5000       108.3300         1.9900         2.0300       0.383600         2.4184         1.9500       -87.5648
        3511.0         8.5000       107.7600         2.0800         2.1600       0.343600         2.3739         2.3800       -86.7194
        3512.0         8.5000        96.2300         3.1100         2.2600       0.314400         2.4031         3.7100       -86.9141
        3513.0         8.5000       106.9600         2.6600         2.3200       0.344600         2.3748         3.0900       -87.6888
        3514.0         8.5000       105.1900         2.4900         2.4900       0.336400         2.3757         2.1100       -87.6534
        3515.0         8.5000        95.1200         2.6700         2.7800       0.272300         2.4089         2.4300       -86.3381
        3516.0         8.5000       102.0600         4.3900         3.0700       0.244000         2.4137         5.7300       -86.0827
        3517.0         8.5000       110.2200         3.9200         2.9400       0.281900         2.3706         5.1900       -86.7874
        3518.0         8.5000       108.8100         2.6400         2.7200       0.326000         2.3653         2.8300       -87.4621
        3519.0         8.5000       116.1300         2.5700         2.6000       0.334200         2.3509         2.5000       -87.6367
        3520.0         8.5000       101.4200         2.5600         2.7100       0.285300         2.3578         2.3100       -85.5714
        3521.0         8.5000       101.9300         3.7200         2.9500       0.274500         2.3484         5.3600       -83.1960
        3522.0         8.5000       114.2800         3.1300         2.9300       0.318400         2.3250         4.4200       -84.6207
        3523.0         8.5000       120.2600         2.7000         2.8500       0.293600         2.3733         2.4400       -85.4654
        3524.0         8.5000       118.5800         2.7100         2.7800       0.281200         2.4273         3.3900       -85.8600
        3525.0         8.5000       128.7000         2.1200         2.0800       0.331600         2.4439         2.5500       -85.7747
        3526.0         8.5000       107.8000         1.6400         1.7000       0.417500         2.3846         1.6500       -84.1193
        3527.0         8.5000       103.0900         1.5000         1.5400       0.431700         2.3323         1.4800       -82.6440
        3528.0         8.5000       100.5200         1.4900         1.4700       0.408500         2.3074         1.6700       -82.3187
        3529.0         8.5000       105.8900         1.5200         1.5100       0.374300         2.3482         1.7700       -82.3833
        3530.0         8.5000       103.5700         1.5700         1.5600       0.374900         2.4241         1.8700       -82.5180
        3531.0         8.5000        97.5500         1.6100         1.5700       0.346600         2.4141         1.8400       -82.7726
        3532.0         8.5000       101.7300         1.6100         1.6100       0.351700         2.4310         1.7800       -83.6873
        3533.0         8.5000       100.3900         1.5700         1.6500       0.348100         2.4283         1.9600       -84.7620
        3534.0         8.5000        99.2800         1.5200         1.6200       0.355100         2.4092         1.9300       -84.9766
        3535.0         8.5000        99.5900         1.4500         1.5500       0.388300         2.4086         1.7900       -84.6813
        3536.0         8.5000        97.7000         1.3800         1.4200       0.416300         2.2998         1.4900       -84.2859
        3537.0         8.5000        99.3900         1.3300         1.3700       0.398000         2.2957         1.4200       -84.0106
        3538.0         8.5000       100.2400         1.2900         1.3100       0.445300         2.3272         1.6900       -84.4553
        3539.0         8.5000       113.9100         1.2500         1.3000       0.439000         2.2624         1.4200       -86.0599
        3540.0         8.5000       125.6600         1.3200         1.5400       0.402600         2.3516         1.5800       -87.5046
        3541.0         8.5000       120.7900         1.6500         1.9000       0.324800         2.3901         1.9500       -87.0792
        3542.0         8.5000       100.5000         2.9500         2.2600       0.275200         2.3788         4.4400       -85.6639
        3543.0         8.5000       103.8800         3.0300         2.2400       0.282900         2.3964         4.0200       -87.6486
        3544.0         8.5000        92.9000         1.8100         1.8700       0.391600         2.3768         1.6100       -89.6832
        3545.0         8.5000        88.2600         1.5600         1.6100       0.430200         2.3261         1.4600       -89.4179
        3546.0         8.5000        94.5700         1.5600         1.5600       0.386100         2.3293         1.4500       -88.7125
        3547.0         8.5000       114.6200         1.7200         1.7700       0.317500         2.3950         1.5700       -87.8672
        3548.0         8.5000       115.3000         2.4000         2.1300       0.276900         2.3740         3.2700       -86.8719
        3549.0         8.5000       122.8700         3.0400         2.2200       0.288700         2.3491         3.9300       -86.5065
        3550.0         8.5000       110.7600         1.7100         1.7500       0.380800         2.3193         1.8400       -87.0312
        3551.0         8.5000       101.1300         1.5900         1.6100       0.438200         2.3096         1.3700       -88.0658
        3552.0         8.5000       102.3700         1.5800         1.5400       0.401600         2.3537         1.3700       -89.1105
        3553.0         8.5000        94.6700         1.6800         1.6000       0.318000         2.4148         1.8900       -89.0052
        3554.0         8.5000        78.9400         2.0000         1.7700       0.316900         2.4453         2.4600       -88.1598
        3555.0         8.5000        86.4200         2.2100         1.9600       0.334200         2.4151         2.7500       -87.6345
        3556.0         8.5000        92.7300         1.9800         1.8600       0.383100         2.3155         2.5300       -88.7291
        3557.0         8.5000        91.5300         1.5800         1.6100       0.418100         2.2893         1.4200       -90.6038
        3558.0         8.5000        95.4900         1.4400         1.5000       0.422400         2.3136         1.4900       -91.8585
        3559.0         8.5000       103.8400         1.5400         1.4500       0.414300         2.3230         1.7700       -91.9931
