~Version Information Block
VERS .                 2.00:  CWLS LOG ASCII STANDARD - VERSION 2.00
WRAP .                   NO:  One line per depth step
~Well Information Block
#MNEM.UNIT        Data Type   Information
#---------- ----------------  -----------
STRT .Ft             1820.0:  START DEPTH
STOP .Ft             5489.0:  STOP DEPTH
STEP .Ft                1.0:  STEP
NULL .              -999.25:  NULL VALUE
COMP .                     :  COMPANY
WELL .               SIRIUS:  WELL
FLD  .                     :  FIELD
LOC  .                     :  LOCATION
CTRY .                     :  COUNTRY
STAT .                     :  STATE
CNTY .                     :  COUNTY
API  .                     :  API NUMBER
UWI  .                     :  UNIQUE WELL ID
SRVC .                     :  SERVICE COMPANY
DATE .                     :  LOG DATE
~Curve Information Block
#MNEM.UNIT         API CODE   Curve Description
#---------- ----------------  -----------------
DEPTH.Ft                   :  
BS   .IN                   :  Created using text_insert
GR   .GAPI                 :  
ILD  .OHMM                 :  
ILM  .OHMM                 :  
NPHI .V/V                  :  
RHOB .G/C3                 :  
SFLU .OHMM                 :  
SP   .MV                   :  Curve edited
~Parameter Information Block
#MNEM.UNIT            Value   Description
#---------- ----------------  -----------
SET  .                 WIRE:  
DATE_LOGGED.           29/02/2002:  
DATUM_ELEVATION.                  MSL:  
TD   .Ft     5170.603674541:  
APIN .                   17:  
CN   .         UNIVERSE CO.:  
TDD  .Ft               5489:  
ELZ  .Ft     567.0603674541:  
LATI .     16 39' 16.000" S:  
FL   .     MILKY WAY GALAXY:  
LONG .     154 25' 57.000" E:  
LMF  .                   KB:  
OPER .                COMET:  
EGL  .Ft      553.937007874:  
SYMBOL.                 WOGS:  
UWID .               SIRIUS:  
WELL_NAME.               SIRIUS:  
XOFFSET_BOTTOM.Ft                  0:  
XREF .Ft     2141635.666018:  
YOFFSET_BOTTOM.Ft     88.74886698094:  
YREF .Ft     26765477.77954:  
~Other Information Block
COMMENT:
COMMENT1:
Ref No.:2        Report No.: 28556  "Drill cuttings, Formation tests, Geothermal gradients, Lithology, Water analysis, Well velocity surveys, Wire line logging"          WELL COMPLETION REPORT
Ref No.:2        Report No.: 28556  "Drill cuttings, Formation tests, Geothermal gradients, Lithology, Water analysis, Well velocity surveys, Wire line logging"          WELL COMPLETION REPORT
Ref No.:2        Report No.: 28556  "Drill cuttings, Formation tests, Geothermal gradients, Lithology, Water analysis, Well velocity surveys, Wire line logging"          WELL COMPLETION REPORT
Ref No.:2        Report No.: 28556  "Drill cuttings, Formation tests, Geothermal gradients, Lithology, Water analysis, Well velocity surveys, Wire line logging"          WELL COMPLETION REPORT
COMMENT2:
Ref no.:1        Report No.: 25780
Ref no.:1        Report No.: 25780
Ref no.:1        Report No.: 25780
Ref no.:1        Report No.: 25780

#        DEPTH             BS             GR            ILD            ILM           NPHI           RHOB           SFLU             SP 
~A
# ...
        3740.0         8.5000        94.5000         1.2100         1.2400       0.462000         2.3225         1.3800        -1.8788
        3741.0         8.5000       104.0700         1.2400         1.2600       0.410600         2.3413         1.3900        -1.6070
        3742.0         8.5000       107.5700         1.3300         1.2900       0.332200         2.3627         1.6100        -1.5252
        3743.0         8.5000        89.0600         1.3500         1.3100       0.416000         2.3141         1.6400        -1.8734
        3744.0         8.5000        96.3800         1.2700         1.3000       0.421000         2.3018         1.4100        -3.3016
        3745.0         8.5000        99.4000         1.2700         1.2800       0.387300         2.3120         1.3000        -4.2498
        3746.0         8.5000        91.8300         1.2700         1.2700       0.364200         2.3490         1.4000        -4.4381
        3747.0         8.5000        99.0700         1.5200         1.2800       0.337000         2.3676         1.8100        -4.2963
        3748.0         8.5000        95.0000         1.2800         1.2800       0.400200         2.3212         1.3000        -4.0445
        3749.0         8.5000        95.7600         1.3000         1.2900       0.437200         2.2611         1.2700        -3.7527
        3750.0         8.5000        95.3800         1.3100         1.3200       0.436500         2.3177         1.3500        -3.5209
        3751.0         8.5000        86.7100         1.3400         1.3500       0.445000         2.3468         1.6100        -3.4291
        3752.0         8.5000        88.4200         1.3900         1.4300       0.443600         2.3453         1.6000        -3.6173
        3753.0         8.5000        94.0300         1.5200         1.5900       0.363900         2.3807         1.6900        -4.1156
        3754.0         8.5000       100.7800         1.8600         1.8200       0.311300         2.4212         2.1900        -4.6638
        3755.0         8.5000        96.8100         2.1900         2.1800       0.272300         2.4704         2.5000        -5.0520
        3756.0         8.5000        87.0300         2.6300         2.6100       0.251000         2.4451         3.1200        -5.0502
        3757.0         8.5000        95.8200         2.8500         3.0200       0.263100         2.4033         3.2700        -4.7684
        3758.0         8.5000       102.0900         3.3300         2.5600       0.249100         2.3811         3.9200        -5.4366
        3759.0         8.5000       109.1300         2.6900         2.2100       0.295500         2.3972         3.5400        -6.8348
        3760.0         8.5000       116.5200         2.0500         2.0700       0.326000         2.3677         1.4500        -6.0531
        3761.0         8.5000       120.0400         2.1000         2.1400       0.289000         2.3257         2.5800        -3.3413
        3762.0         8.5000       118.8200         2.8000         2.3400       0.265600         2.2779         3.7400        -1.6995
        3763.0         8.5000       124.0600         2.7300         2.3200       0.278300         2.3019         3.6500        -2.1077
        3764.0         8.5000       127.4000         2.1600         2.1600       0.299900         2.3506         2.3300        -4.0959
        3765.0         8.5000       121.8600         1.9000         1.9100       0.293700         2.3542         2.0300        -4.9741
        3766.0         8.5000       117.7900         1.7100         1.7600       0.344100         2.3503         1.8400        -5.1323
        3767.0         8.5000       107.8600         1.6300         1.6800       0.338800         2.3646         1.6100        -4.3706
        3768.0         8.5000        99.3900         1.6200         1.6500       0.310200         2.3714         1.7300        -3.6288
        3769.0         8.5000       107.8700         1.7600         1.6400       0.330500         2.3700         2.2700        -3.7370
        3770.0         8.5000       107.6800         1.6600         1.6300       0.348500         2.3618         1.7500        -4.1252
        3771.0         8.5000       113.5700         1.7200         1.6500       0.326500         2.3520         1.7700        -4.1734
        3772.0         8.5000       104.9400         1.7900         1.7300       0.306000         2.3575         1.9500        -3.2916
        3773.0         8.5000       101.8800         1.9200         1.9700       0.306000         2.3563         2.1900        -2.7298
        3774.0         8.5000       114.5200         2.0400         2.0400       0.298600         2.3522         2.3800        -2.5381
        3775.0         8.5000       118.0200         2.1200         2.1300       0.307100         2.3499         2.2900        -2.5463
        3776.0         8.5000       120.2600         2.0800         2.1900       0.298400         2.3511         2.4600        -2.7545
        3777.0         8.5000       110.6100         1.9700         2.2000       0.281300         2.3735         2.6200        -3.2127
        3778.0         8.5000       106.5500         1.5500         1.5000       0.296600         2.3968         2.1100        -4.2209
        3779.0         8.5000       123.8400         1.0600         1.0900       0.452100         2.1982         1.1300        -5.3391
        3780.0         8.5000       122.4800         0.9300         0.9700       0.495200         2.1874         0.8100        -4.6473
        3781.0         8.5000       110.7100         0.9200         0.9500       0.503700         2.2173         1.0300        -3.4056
        3782.0         8.5000       113.0900         0.9400         0.9700       0.485000         2.2464         1.2200        -2.1038
        3783.0         8.5000       127.8000         0.9800         1.0100       0.492700         2.2617         1.3200        -2.1320
        3784.0         8.5000       116.8100         1.0300         1.0500       0.439100         2.2391         1.2200        -2.8102
        3785.0         8.5000       101.6700         1.0700         1.1000       0.416400         2.2669         1.3000        -4.3384
        3786.0         8.5000       109.9600         1.1000         1.1100       0.398600         2.2920         1.3700        -5.9066
        3787.0         8.5000       109.8100         1.1200         1.1300       0.433400         2.3282         1.2000        -6.7948
        3788.0         8.5000       108.5600         1.1400         1.1900       0.390300         2.3577         1.3600        -7.1131
        3789.0         8.5000       105.1800         1.3500         1.2400       0.345100         2.3734         1.6900        -7.0813
        3790.0         8.5000       112.6600         1.3000         1.2800       0.398100         2.3775         1.5700        -7.3595
        3791.0         8.5000       100.5100         1.2700         1.3100       0.323800         2.3814         1.5100        -7.6477
        3792.0         8.5000        88.6100         1.3400         1.4000       0.381600         2.3598         1.6400        -7.4859
        3793.0         8.5000        80.4600         1.2700         1.3900       0.373300         2.3704         1.5300        -7.6541
        3794.0         8.5000        95.0300         1.2100         1.2300       0.380000         2.3296         1.3700        -8.0523
        3795.0         8.5000       104.9100         1.1300         1.1100       0.458700         2.3197         1.3000        -8.4606
        3796.0         8.5000        95.2200         1.0800         1.0500       0.456500         2.2536         1.2100        -8.0688
        3797.0         8.5000        92.9000         1.1000         1.0500       0.513300         2.2445         1.1500        -7.6070
        3798.0         8.5000        97.1900         1.1400         1.1100       0.465200         2.3119         1.2400        -7.2452
        3799.0         8.5000        90.6400         1.1600         1.1600       0.424200         2.3651         1.4200        -6.9234
