~Version Information Block
VERS .                 2.00:  CWLS LOG ASCII STANDARD - VERSION 2.00
WRAP .                   NO:  One line per depth step
~Well Information Block
#MNEM.UNIT        Data Type   Information
#---------- ----------------  -----------
STRT .Ft             1820.0:  START DEPTH
STOP .Ft             5489.0:  STOP DEPTH
STEP .Ft                1.0:  STEP
NULL .              -999.25:  NULL VALUE
COMP .                     :  COMPANY
WELL .               SIRIUS:  WELL
FLD  .                     :  FIELD
LOC  .                     :  LOCATION
CTRY .                     :  COUNTRY
STAT .                     :  STATE
CNTY .                     :  COUNTY
API  .                     :  API NUMBER
UWI  .                     :  UNIQUE WELL ID
SRVC .                     :  SERVICE COMPANY
DATE .                     :  LOG DATE
~Curve Information Block
#MNEM.UNIT         API CODE   Curve Description
#---------- ----------------  -----------------
DEPTH.Ft                   :  
BS   .IN                   :  Created using text_insert
GR   .GAPI                 :  
ILD  .OHMM                 :  
ILM  .OHMM                 :  
NPHI .V/V                  :  
RHOB .G/C3                 :  
SFLU .OHMM                 :  
SP   .MV                   :  Curve edited
~Parameter Information Block
#MNEM.UNIT            Value   Description
#---------- ----------------  -----------
SET  .                 WIRE:  
DATE_LOGGED.           29/02/2002:  
DATUM_ELEVATION.                  MSL:  
TD   .Ft     5170.603674541:  
APIN .                   17:  
CN   .         UNIVERSE CO.:  
TDD  .Ft               5489:  
ELZ  .Ft     567.0603674541:  
LATI .     16 39' 16.000" S:  
FL   .     MILKY WAY GALAXY:  
LONG .     154 25' 57.000" E:  
LMF  .                   KB:  
OPER .                COMET:  
EGL  .Ft      553.937007874:  
SYMBOL.                 WOGS:  
UWID .               SIRIUS:  
WELL_NAME.               SIRIUS:  
XOFFSET_BOTTOM.Ft                  0:  
XREF .Ft     2141635.666018:  
YOFFSET_BOTTOM.Ft     88.74886698094:  
YREF .Ft     26765477.77954:  
~Other Information Block
COMMENT:
COMMENT1:
Ref No.:2        Report No.: 28556  "Drill cuttings, Formation tests, Geothermal gradients, Lithology, Water analysis, Well velocity surveys, Wire line logging"          WELL COMPLETION REPORT
Ref No.:2        Report No.: 28556  "Drill cuttings, Formation tests, Geothermal gradients, Lithology, Water analysis, Well velocity surveys, Wire line logging"          WELL COMPLETION REPORT
Ref No.:2        Report No.: 28556  "Drill cuttings, Formation tests, Geothermal gradients, Lithology, Water analysis, Well velocity surveys, Wire line logging"          WELL COMPLETION REPORT
Ref No.:2        Report No.: 28556  "Drill cuttings, Formation tests, Geothermal gradients, Lithology, Water analysis, Well velocity surveys, Wire line logging"          WELL COMPLETION REPORT
COMMENT2:
Ref no.:1        Report No.: 25780
Ref no.:1        Report No.: 25780
Ref no.:1        Report No.: 25780
Ref no.:1        Report No.: 25780

#        DEPTH             BS             GR            ILD            ILM           NPHI           RHOB           SFLU             SP 
~A
# ...
        4460.0         8.5000        57.9500         4.0000         4.9400       0.219800         2.3460         5.1100      -128.6730
        4461.0         8.5000        53.4500         3.5800         4.8900       0.222400         2.3820         5.2200      -114.2410
        4462.0         8.5000        63.9900         3.3000         4.1000       0.195200         2.4593         4.8500      -101.6000
        4463.0         8.5000        92.9400         3.5400         2.6100       0.257400         2.4162         4.4400       -88.1878
        4464.0         8.5000       101.0600         1.5400         1.7700       0.364700         2.3534         1.2800       -90.1760
        4465.0         8.5000        89.4100         1.3100         1.4100       0.397300         2.4060         1.1400       -89.8743
        4466.0         8.5000        81.2300         1.2600         1.3100       0.333400         2.4821         1.2900       -89.3425
        4467.0         8.5000        83.6400         1.4600         1.3600       0.289800         2.4877         1.7500       -88.5707
        4468.0         8.5000        83.9500         1.5400         1.4000       0.339300         2.4665         1.9300       -88.0189
        4469.0         8.5000        86.6700         1.4200         1.4300       0.313800         2.4639         1.6000       -88.2471
        4470.0         8.5000        93.5000         1.4100         1.4500       0.323900         2.3929         1.6500       -89.1053
        4471.0         8.5000        91.8900         1.4000         1.4400       0.330800         2.4425         1.5600       -89.9235
        4472.0         8.5000        87.0900         1.4100         1.4400       0.324500         2.4582         1.5400       -90.2018
        4473.0         8.5000        88.9200         1.4600         1.4600       0.343400         2.4110         1.7300       -90.1100
        4474.0         8.5000        84.9000         1.4200         1.4700       0.309500         2.4357         1.5600       -89.9982
        4475.0         8.5000        86.7400         1.4900         1.4600       0.357000         2.4811         1.7700       -89.8764
        4476.0         8.5000        92.4600         1.4400         1.4300       0.374700         2.4112         1.7800       -89.6446
        4477.0         8.5000        94.9100         1.4000         1.3700       0.373500         2.3626         1.3700       -89.6228
        4478.0         8.5000        97.4000         1.3500         1.2900       0.403200         2.3801         1.4100       -89.7910
        4479.0         8.5000        96.3000         1.2500         1.1900       0.425200         2.3174         1.3900       -90.1593
        4480.0         8.5000       105.9500         1.1200         1.1200       0.439500         2.2204         1.2400       -90.6375
        4481.0         8.5000        99.5100         1.1000         1.1200       0.419100         2.2890         1.0200       -90.5357
        4482.0         8.5000        90.1200         1.1600         1.1900       0.345500         2.3423         1.0800       -89.6039
        4483.0         8.5000        86.5200         1.3100         1.3800       0.300900         2.4272         1.4600       -88.9421
        4484.0         8.5000        87.0600         1.5500         1.5400       0.305700         2.4545         1.9400       -88.9703
        4485.0         8.5000        79.8800         1.7400         1.7200       0.310100         2.4428         2.0700       -90.0885
        4486.0         8.5000        89.9400         1.7500         1.7900       0.315800         2.4471         2.0000       -91.3968
        4487.0         8.5000        98.1700         1.8700         1.8100       0.357600         2.4287         2.1700       -92.2150
        4488.0         8.5000        96.8300         1.7300         1.8200       0.345500         2.4070         1.8000       -92.8232
        4489.0         8.5000        91.7700         1.8100         1.8600       0.323100         2.4184         1.8000       -93.1314
        4490.0         8.5000        86.9300         2.1900         2.4700       0.214100         2.5335         2.3800       -93.1096
        4491.0         8.5000        74.5000         3.8000         3.5900       0.121400         2.5894         4.2700       -92.1978
        4492.0         8.5000        75.8900         6.0800         3.6200       0.168100         2.5828         8.9000       -91.5160
        4493.0         8.5000        80.3800         4.2000         3.7000       0.151700         2.5477         4.4100       -93.1843
        4494.0         8.5000        88.0200         2.7700         2.6800       0.315700         2.4179         3.9600       -93.8525
        4495.0         8.5000        96.7100         1.7400         1.8200       0.406500         2.4050         1.2300       -93.8607
        4496.0         8.5000        99.1300         1.6300         1.7400       0.348900         2.3959         1.8900       -93.4089
        4497.0         8.5000        95.9200         1.6900         1.8000       0.303800         2.4506         2.0000       -91.7871
        4498.0         8.5000        92.4500         1.7700         1.9000       0.292200         2.4722         2.1600       -90.5253
        4499.0         8.5000        81.1400         2.3100         2.0900       0.266200         2.5183         2.7500       -91.2235
        4500.0         8.5000        73.9500         3.0700         2.3600       0.214200         2.5571         3.6700       -92.1118
        4501.0         8.5000        78.3300         2.7400         2.4200       0.237600         2.5596         3.1800       -92.9300
        4502.0         8.5000        82.0600         2.3700         2.3500       0.239900         2.5632         2.6900       -93.5782
        4503.0         8.5000        72.9200         2.2800         1.9700       0.257500         2.5470         2.5900       -94.1264
        4504.0         8.5000        86.6200         2.0000         1.9300       0.320400         2.5148         2.3000       -93.9546
        4505.0         8.5000        83.0600         2.0200         2.0100       0.384600         2.4794         1.8500       -93.2728
        4506.0         8.5000        70.4300         2.2400         2.2200       0.220600         2.5445         2.8200       -92.7210
        4507.0         8.5000        72.4700         3.0200         2.5700       0.204400         2.5614         3.6200       -92.9293
        4508.0         8.5000        81.4200         2.5500         2.8700       0.216300         2.5528         2.8300       -93.6075
        4509.0         8.5000        76.6500         2.9200         2.9600       0.200200         2.5645         3.1400       -94.1957
        4510.0         8.5000        82.8800         3.1900         2.7900       0.228200         2.5445         3.6800       -94.9839
        4511.0         8.5000        86.1700         2.5700         2.5400       0.282000         2.5150         2.8800       -95.3521
        4512.0         8.5000        85.7300         2.1900         2.2000       0.298400         2.5022         2.3400       -95.2003
        4513.0         8.5000        80.5300         2.2100         1.9500       0.242400         2.5081         2.0600       -93.8685
        4514.0         8.5000        81.3200         2.3200         2.1500       0.222600         2.5409         2.8500       -92.6368
        4515.0         8.5000        83.8900         2.4500         2.5000       0.281400         2.5258         3.2000       -92.2250
        4516.0         8.5000        91.6000         3.0100         2.7900       0.208200         2.5048         3.9300       -92.5332
        4517.0         8.5000       119.0300         2.6900         2.3500       0.286300         2.4174         4.4100       -92.9714
        4518.0         8.5000       114.7400         1.3500         1.4300       0.420800         2.3597         1.1800       -93.3496
        4519.0         8.5000       107.2500         1.0700         1.0600       0.444800         2.3337         1.1100       -93.2578
