~Version Information Block
VERS .                 2.00:  CWLS LOG ASCII STANDARD - VERSION 2.00
WRAP .                   NO:  One line per depth step
~Well Information Block
#MNEM.UNIT        Data Type   Information
#---------- ----------------  -----------
STRT .Ft             1820.0:  START DEPTH
STOP .Ft             5489.0:  STOP DEPTH
STEP .Ft                1.0:  STEP
NULL .              -999.25:  NULL VALUE
COMP .                     :  COMPANY
WELL .               SIRIUS:  WELL
FLD  .                     :  FIELD
LOC  .                     :  LOCATION
CTRY .                     :  COUNTRY
STAT .                     :  STATE
CNTY .                     :  COUNTY
API  .                     :  API NUMBER
UWI  .                     :  UNIQUE WELL ID
SRVC .                     :  SERVICE COMPANY
DATE .                     :  LOG DATE
~Curve Information Block
#MNEM.UNIT         API CODE   Curve Description
#---------- ----------------  -----------------
DEPTH.Ft                   :  
BS   .IN                   :  Created using text_insert
GR   .GAPI                 :  
ILD  .OHMM                 :  
ILM  .OHMM                 :  
NPHI .V/V                  :  
RHOB .G/C3                 :  
SFLU .OHMM                 :  
SP   .MV                   :  Curve edited
~Parameter Information Block
#MNEM.UNIT            Value   Description
#---------- ----------------  -----------
SET  .                 WIRE:  
DATE_LOGGED.           29/02/2002:  
DATUM_ELEVATION.                  MSL:  
TD   .Ft     5170.603674541:  
APIN .                   17:  
CN   .         UNIVERSE CO.:  
TDD  .Ft               5489:  
ELZ  .Ft     567.0603674541:  
LATI .     16 39' 16.000" S:  
FL   .     MILKY WAY GALAXY:  
LONG .     154 25' 57.000" E:  
LMF  .                   KB:  
OPER .                COMET:  
EGL  .Ft      553.937007874:  
SYMBOL.                 WOGS:  
UWID .               SIRIUS:  
WELL_NAME.               SIRIUS:  
XOFFSET_BOTTOM.Ft                  0:  
XREF .Ft     2141635.666018:  
YOFFSET_BOTTOM.Ft     88.74886698094:  
YREF .Ft     26765477.77954:  
~Other Information Block
COMMENT:
COMMENT1:
Ref No.:2        Report No.: 28556  "Drill cuttings, Formation tests, Geothermal gradients, Lithology, Water analysis, Well velocity surveys, Wire line logging"          WELL COMPLETION REPORT
Ref No.:2        Report No.: 28556  "Drill cuttings, Formation tests, Geothermal gradients, Lithology, Water analysis, Well velocity surveys, Wire line logging"          WELL COMPLETION REPORT
Ref No.:2        Report No.: 28556  "Drill cuttings, Formation tests, Geothermal gradients, Lithology, Water analysis, Well velocity surveys, Wire line logging"          WELL COMPLETION REPORT
Ref No.:2        Report No.: 28556  "Drill cuttings, Formation tests, Geothermal gradients, Lithology, Water analysis, Well velocity surveys, Wire line logging"          WELL COMPLETION REPORT
COMMENT2:
Ref no.:1        Report No.: 25780
Ref no.:1        Report No.: 25780
Ref no.:1        Report No.: 25780
Ref no.:1        Report No.: 25780

#        DEPTH             BS             GR            ILD            ILM           NPHI           RHOB           SFLU             SP 
~A
# ...
        5180.0         8.5000        93.4800         1.2200         1.2200       0.313200         2.5060         1.5300       -40.4204
        5181.0         8.5000        90.6400         1.1500         1.1500       0.319900         2.4850         1.3300       -40.3416
        5182.0         8.5000        91.4200         1.1000         1.1200       0.349700         2.4744         1.2700       -39.8628
        5183.0         8.5000        96.6600         1.0500         1.0600       0.363300         2.4949         1.2900       -39.3040
        5184.0         8.5000        96.1000         0.9700         0.9900       0.354900         2.5098         1.2200       -38.8152
        5185.0         8.5000        90.9700         0.9200         0.9300       0.379800         2.4984         1.0600       -38.3364
        5186.0         8.5000        94.0000         0.8800         0.8900       0.379300         2.4882         1.0400       -38.6276
        5187.0         8.5000       120.1400         0.8500         0.8600       0.392200         2.4222         0.9800       -39.0788
        5188.0         8.5000       133.0200         0.8200         0.8400       0.405900         2.3971         1.0000       -39.3900
        5189.0         8.5000       130.3600         0.7900         0.8300       0.379100         2.3957         1.0900       -39.4112
        5190.0         8.5000       127.0200         0.7700         0.8000       0.403500         2.3839         1.0900       -39.1024
        5191.0         8.5000       133.9100         0.7600         0.7500       0.444600         2.3462         1.0000       -39.0436
        5192.0         8.5000       138.3100         0.7600         0.7600       0.454500         2.2761         0.8100       -59.2147
        5193.0         8.5000       126.7600         0.8000         0.7900       0.435700         2.2947         0.8700       -59.6059
        5194.0         8.5000       115.9700         0.8700         0.9400       0.398300         2.4257         1.1600       -59.6071
        5195.0         8.5000       109.6800         0.9900         1.0500       0.340000         2.4800         1.4500       -39.4283
        5196.0         8.5000        96.6800         1.0100         1.0600       0.369600         2.5009         1.3000       -40.3695
        5197.0         8.5000        94.1100         1.0300         1.0700       0.368000         2.4772         1.2400       -41.4007
        5198.0         8.5000        87.8500         0.9600         1.0500       0.365700         2.4644         1.3000       -42.1119
        5199.0         8.5000        92.8200         0.8900         0.9100       0.386300         2.4471         1.1700       -42.4831
        5200.0         8.5000       110.2100         0.8500         0.8800       0.386000         2.4227         1.0300       -42.6843
        5201.0         8.5000       111.5200         0.8500         0.8900       0.363000         2.4507         1.0500       -42.7655
        5202.0         8.5000       110.6000         0.9200         0.9800       0.383600         2.4505         1.2100       -42.8567
        5203.0         8.5000       132.0300         1.0400         1.1200       0.351100         2.4481         1.2800       -43.1379
        5204.0         8.5000       149.2300         1.2200         1.2100       0.326600         2.4282         1.7200       -43.6491
        5205.0         8.5000       147.5100         1.3500         1.0700       0.349000         2.3856         1.9800       -44.3003
        5206.0         8.5000       199.2600         0.7100         0.6500       0.459500         2.2716         1.1900       -45.0815
        5207.0         8.5000       178.8000         0.6700         0.6000       0.542400         2.1771         0.4500       -45.0527
        5208.0         8.5000       150.8400         0.7200         0.7200       0.359900         2.3284         0.8300       -42.4539
        5209.0         8.5000       119.1500         1.0700         0.9400       0.278700         2.4030         1.6200       -62.5251
        5210.0         8.5000       103.6100         2.0000         1.3000       0.280300         2.4111         3.0100       -41.0363
        5211.0         8.5000        99.3100         1.7200         1.7600       0.272700         2.4218         2.1800       -45.7575
        5212.0         8.5000        88.7900         1.8800         2.0000       0.240900         2.4462         1.9200       -47.4287
        5213.0         8.5000        84.6400         3.1600         2.1600       0.229000         2.4791         3.9200       -48.8799
        5214.0         8.5000        94.8800         2.9000         1.9400       0.297800         2.4437         4.0900       -50.1511
        5215.0         8.5000       111.0100         1.3400         1.2400       0.340600         2.4140         1.5000       -51.0023
        5216.0         8.5000       115.6800         0.9900         1.0000       0.343600         2.3633         1.1800       -49.8235
        5217.0         8.5000       113.7600         0.8300         0.8400       0.351100         2.3903         0.9500       -45.1747
        5218.0         8.5000       119.3900         0.7700         0.7700       0.386300         2.3540         1.0600       -43.3659
        5219.0         8.5000       121.7100         0.7900         0.7700       0.415700         2.3119         0.9700       -42.8371
        5220.0         8.5000       122.9900         0.8500         0.7700       0.385800         2.3165         1.2400       -42.6083
        5221.0         8.5000       122.6600         0.9700         0.7800       0.413600         2.3260         1.5300       -42.3595
        5222.0         8.5000       132.1100         0.8400         0.8600       0.464100         2.2566         0.9300       -42.4707
        5223.0         8.5000       107.0500         1.0300         1.0600       0.313200         2.2870         0.6800       -67.8119
        5224.0         8.5000        71.9700         1.4200         1.4400       0.149000         2.4265         0.9800       -80.9430
        5225.0         8.5000        71.6800         3.7900         2.0800       0.161900         2.4717         8.5200       -75.1242
        5226.0         8.5000       102.6900         3.7400         2.3300       0.268800         2.4619         6.2600       -43.4854
        5227.0         8.5000        73.9600         2.7100         2.8900       0.165700         2.4733         2.8800       -45.2966
        5228.0         8.5000        70.5600         4.1700         3.8100       0.151500         2.4946         8.1700       -68.8778
        5229.0         8.5000       102.0700         6.1300         2.3000       0.227400         2.4280        16.1000       -67.6790
        5230.0         8.5000       122.1000         1.8200         1.4900       0.393900         2.4527         1.2600       -50.7802
        5231.0         8.5000        96.2200         1.7500         1.4700       0.269000         2.5268         1.1200       -51.9214
        5232.0         8.5000        76.9900         2.3700         1.6600       0.179200         2.6201         3.6900       -49.4526
        5233.0         8.5000        96.2300         2.9900         2.0800       0.227900         2.5249         4.4600       -48.0438
        5234.0         8.5000        97.2800         2.4500         2.9500       0.150000         2.5230         2.3000       -48.3850
        5235.0         8.5000       123.6000         4.4100         2.6200       0.268600         2.5109        10.2400       -48.7262
        5236.0         8.5000       143.0800         1.5100         1.4800       0.362400         2.4566         1.4600       -49.5474
        5237.0         8.5000       152.2800         1.1000         1.0900       0.380900         2.4468         0.8900       -49.7886
        5238.0         8.5000       177.9800         0.8900         0.9200       0.388500         2.4398         1.0600       -48.8498
        5239.0         8.5000       227.0400         0.9300         0.9100       0.329400         2.4197         0.8700       -47.7010
