~Version Information Block
VERS .                 2.00:  CWLS LOG ASCII STANDARD - VERSION 2.00
WRAP .                   NO:  One line per depth step
~Well Information Block
#MNEM.UNIT        Data Type   Information
#---------- ----------------  -----------
STRT .Ft             1820.0:  START DEPTH
STOP .Ft             5489.0:  STOP DEPTH
STEP .Ft                1.0:  STEP
NULL .              -999.25:  NULL VALUE
COMP .                     :  COMPANY
WELL .               SIRIUS:  WELL
FLD  .                     :  FIELD
LOC  .                     :  LOCATION
CTRY .                     :  COUNTRY
STAT .                     :  STATE
CNTY .                     :  COUNTY
API  .                     :  API NUMBER
UWI  .                     :  UNIQUE WELL ID
SRVC .                     :  SERVICE COMPANY
DATE .                     :  LOG DATE
~Curve Information Block
#MNEM.UNIT         API CODE   Curve Description
#---------- ----------------  -----------------
DEPTH.Ft                   :  
BS   .IN                   :  Created using text_insert
GR   .GAPI                 :  
ILD  .OHMM                 :  
ILM  .OHMM                 :  
NPHI .V/V                  :  
RHOB .G/C3                 :  
SFLU .OHMM                 :  
SP   .MV                   :  Curve edited
~Parameter Information Block
#MNEM.UNIT            Value   Description
#---------- ----------------  -----------
SET  .                 WIRE:  
DATE_LOGGED.           29/02/2002:  
DATUM_ELEVATION.                  MSL:  
TD   .Ft     5170.603674541:  
APIN .                   17:  
CN   .         UNIVERSE CO.:  
TDD  .Ft               5489:  
ELZ  .Ft     567.0603674541:  
LATI .     16 39' 16.000" S:  
FL   .     MILKY WAY GALAXY:  
LONG .     154 25' 57.000" E:  
LMF  .                   KB:  
OPER .                COMET:  
EGL  .Ft      553.937007874:  
SYMBOL.                 WOGS:  
UWID .               SIRIUS:  
WELL_NAME.               SIRIUS:  
XOFFSET_BOTTOM.Ft                  0:  
XREF .Ft     2141635.666018:  
YOFFSET_BOTTOM.Ft     88.74886698094:  
YREF .Ft     26765477.77954:  
~Other Information Block
COMMENT:
COMMENT1:
Ref No.:2        Report No.: 28556  "Drill cuttings, Formation tests, Geothermal gradients, Lithology, Water analysis, Well velocity surveys, Wire line logging"          WELL COMPLETION REPORT
Ref No.:2        Report No.: 28556  "Drill cuttings, Formation tests, Geothermal gradients, Lithology, Water analysis, Well velocity surveys, Wire line logging"          WELL COMPLETION REPORT
Ref No.:2        Report No.: 28556  "Drill cuttings, Formation tests, Geothermal gradients, Lithology, Water analysis, Well velocity surveys, Wire line logging"          WELL COMPLETION REPORT
Ref No.:2        Report No.: 28556  "Drill cuttings, Formation tests, Geothermal gradients, Lithology, Water analysis, Well velocity surveys, Wire line logging"          WELL COMPLETION REPORT
COMMENT2:
Ref no.:1        Report No.: 25780
Ref no.:1        Report No.: 25780
Ref no.:1        Report No.: 25780
Ref no.:1        Report No.: 25780

#        DEPTH             BS             GR            ILD            ILM           NPHI           RHOB           SFLU             SP 
~A
# ...
        2300.0         8.5000        66.0900         1.9200         2.2100       0.350900         2.4200         5.5100      -100.4700
        2301.0         8.5000        66.3100         1.8200         1.8900       0.374300         2.3808         2.9800      -102.5130
        2302.0         8.5000        59.3200         1.6900         1.9700       0.290400         2.3434         4.3800      -122.0370
        2303.0         8.5000        57.9500         1.6400         1.8600       0.268100         2.3497         4.1000      -119.8000
        2304.0         8.5000        64.8600         1.9500         1.9400       0.230600         2.3246         4.4500       -96.0631
        2305.0         8.5000        63.1500         2.0800         1.8600       0.373300         2.4417         4.5900       -81.2065
        2306.0         8.5000        73.3300         1.6700         1.5100       0.421000         2.3129         1.2200       -62.4898
        2307.0         8.5000        63.4800         1.6800         1.6700       0.332800         2.4028         1.5100       -80.0231
        2308.0         8.5000        55.3200         1.7500         2.0000       0.306700         2.4117         2.8800      -101.0670
        2309.0         8.5000        52.6000         1.8900         2.2300       0.267400         2.3888         4.4000      -110.2500
        2310.0         8.5000        61.7900         1.9800         2.2100       0.295700         2.4103         4.0100       -92.9431
        2311.0         8.5000        69.9700         1.9200         2.1200       0.354700         2.4041         1.7700       -92.0465
        2312.0         8.5000        54.1400         1.8100         2.2100       0.297300         2.3274         2.1600      -114.8900
        2313.0         8.5000        52.5700         1.7500         2.1800       0.282000         2.2958         5.2600      -126.1630
        2314.0         8.5000        52.0500         1.7900         2.0900       0.273500         2.3692         3.2700      -124.1170
        2315.0         8.5000        52.4400         1.8500         2.0900       0.295200         2.3529         3.4100      -124.0300
        2316.0         8.5000        54.1700         1.8800         2.1100       0.293300         2.3370         3.3000      -123.8430
        2317.0         8.5000        64.6400         1.8700         2.1400       0.316600         2.3897         3.8900      -119.6370
        2318.0         8.5000        53.4800         1.8000         2.1700       0.290300         2.3774         3.4600      -111.2500
        2319.0         8.5000        60.8100         1.7300         2.0700       0.334400         2.4008         2.9000      -102.6930
        2320.0         8.5000        78.3800         1.6600         1.7400       0.347100         2.3161         2.0500       -90.2865
        2321.0         8.5000        87.8000         1.6300         1.6300       0.374100         2.3062         1.5600       -83.0798
        2322.0         8.5000        78.4000         1.6400         1.6600       0.360500         2.3038         1.7200       -83.5831
        2323.0         8.5000        77.9600         1.7000         1.7600       0.337800         2.3082         1.9800       -85.6765
        2324.0         8.5000        69.9800         1.7900         1.8800       0.329200         2.2655         2.1200       -86.5098
        2325.0         8.5000        70.4000         1.8700         1.9600       0.358300         2.2307         2.1600       -85.0631
        2326.0         8.5000        69.8100         1.8600         1.9500       0.365400         2.2855         2.1300       -83.5165
        2327.0         8.5000        65.4200         1.8000         1.9400       0.366900         2.3342         2.1200       -82.7498
        2328.0         8.5000        73.1800         1.7400         1.9600       0.401000         2.3163         2.1700       -82.1631
        2329.0         8.5000        70.4400         1.7500         2.0300       0.389200         2.3009         2.2600       -62.2465
        2330.0         8.5000        69.5300         2.0300         2.2400       0.355800         2.4233         2.3900       -63.8498
        2331.0         8.5000        61.5300         2.3300         2.5600       0.261200         2.4711         2.8600       -64.1531
        2332.0         8.5000        60.9200         2.6200         2.7200       0.238600         2.4404         3.9200       -64.9065
        2333.0         8.5000        63.5900         2.6900         2.8200       0.326900         2.3058         2.2200       -66.6998
        2334.0         8.5000        56.0900         2.6000         3.1400       0.209100         2.4152         3.5800       -85.2531
        2335.0         8.5000        55.3600         2.5300         2.8100       0.291700         2.4110         4.8500       -89.0865
        2336.0         8.5000        55.9800         2.4200         2.6000       0.323300         2.4045         2.0400       -98.2398
        2337.0         8.5000        55.8800         2.2400         2.6300       0.272600         2.3683         6.7400      -109.5530
        2338.0         8.5000        64.1800         2.1800         2.2300       0.289300         2.4265         5.2100      -103.0970
        2339.0         8.5000        68.6700         2.3000         2.2900       0.348400         2.3864         1.4400       -99.7098
        2340.0         8.5000        56.0900         2.1500         2.4500       0.268600         2.3538         5.2800      -101.2230
        2341.0         8.5000        55.4700         3.2900         2.1700       0.278400         2.3731         6.4700       -89.9365
        2342.0         8.5000        72.7700         1.8700         1.9100       0.411100         2.2816         1.2600       -68.8798
        2343.0         8.5000        71.0100         1.9500         2.1500       0.333400         2.3971         1.5700       -87.2831
        2344.0         8.5000        60.3000         2.0400         2.3100       0.294600         2.3575         3.1200      -103.3270
        2345.0         8.5000        60.7400         2.1200         2.3100       0.310100         2.3051         4.1000      -113.0900
        2346.0         8.5000        58.9600         2.1700         2.4300       0.300700         2.3630         2.5200      -117.8130
        2347.0         8.5000        51.1100         1.9800         2.5800       0.280700         2.4030         6.8200      -128.8870
        2348.0         8.5000        55.1800         1.7900         2.2700       0.250000         2.4411         6.8100      -133.0600
        2349.0         8.5000        64.2000         1.6500         1.8500       0.306500         2.3296         4.3800      -131.8530
        2350.0         8.5000        57.8800         1.5400         1.6700       0.361700         2.3207         1.6800      -124.5670
        2351.0         8.5000        63.2500         1.4600         1.7600       0.363100         2.3056         2.4300      -119.9000
        2352.0         8.5000        54.7000         1.4000         1.7100       0.320900         2.3394         4.0000      -123.7130
        2353.0         8.5000        58.9300         1.3700         1.6100       0.358900         2.2841         3.3000      -125.9370
        2354.0         8.5000        53.5600         1.3100         1.5200       0.315000         2.2747         2.9900      -126.8200
        2355.0         8.5000        63.0200         1.2500         1.4600       0.331500         2.2603         2.6600      -126.4630
        2356.0         8.5000        59.7000         1.2400         1.4200       0.347900         2.2749         2.4600      -126.0270
        2357.0         8.5000        57.3000         1.2500         1.4300       0.365300         2.2519         2.6100      -125.1900
        2358.0         8.5000        60.8900         1.2900         1.4700       0.322200         2.2864         2.8900      -121.5030
        2359.0         8.5000        66.6800         1.3300         1.5000       0.341700         2.3160         2.6100      -116.2570
