~Version Information Block
VERS .                 2.00:  CWLS LOG ASCII STANDARD - VERSION 2.00
WRAP .                   NO:  One line per depth step
~Well Information Block
#MNEM.UNIT        Data Type   Information
#---------- ----------------  -----------
STRT .Ft             1820.0:  START DEPTH
STOP .Ft             5489.0:  STOP DEPTH
STEP .Ft                1.0:  STEP
NULL .              -999.25:  NULL VALUE
COMP .                     :  COMPANY
WELL .               SIRIUS:  WELL
FLD  .                     :  FIELD
LOC  .                     :  LOCATION
CTRY .                     :  COUNTRY
STAT .                     :  STATE
CNTY .                     :  COUNTY
API  .                     :  API NUMBER
UWI  .                     :  UNIQUE WELL ID
SRVC .                     :  SERVICE COMPANY
DATE .                     :  LOG DATE
~Curve Information Block
#MNEM.UNIT         API CODE   Curve Description
#---------- ----------------  -----------------
DEPTH.Ft                   :  
BS   .IN                   :  Created using text_insert
GR   .GAPI                 :  
ILD  .OHMM                 :  
ILM  .OHMM                 :  
NPHI .V/V                  :  
RHOB .G/C3                 :  
SFLU .OHMM                 :  
SP   .MV                   :  Curve edited
~Parameter Information Block
#MNEM.UNIT            Value   Description
#---------- ----------------  -----------
SET  .                 WIRE:  
DATE_LOGGED.           29/02/2002:  
DATUM_ELEVATION.                  MSL:  
TD   .Ft     5170.603674541:  
APIN .                   17:  
CN   .         UNIVERSE CO.:  
TDD  .Ft               5489:  
ELZ  .Ft     567.0603674541:  
LATI .     16 39' 16.000" S:  
FL   .     MILKY WAY GALAXY:  
LONG .     154 25' 57.000" E:  
LMF  .                   KB:  
OPER .                COMET:  
EGL  .Ft      553.937007874:  
SYMBOL.                 WOGS:  
UWID .               SIRIUS:  
WELL_NAME.               SIRIUS:  
XOFFSET_BOTTOM.Ft                  0:  
XREF .Ft     2141635.666018:  
YOFFSET_BOTTOM.Ft     88.74886698094:  
YREF .Ft     26765477.77954:  
~Other Information Block
COMMENT:
COMMENT1:
Ref No.:2        Report No.: 28556  "Drill cuttings, Formation tests, Geothermal gradients, Lithology, Water analysis, Well velocity surveys, Wire line logging"          WELL COMPLETION REPORT
Ref No.:2        Report No.: 28556  "Drill cuttings, Formation tests, Geothermal gradients, Lithology, Water analysis, Well velocity surveys, Wire line logging"          WELL COMPLETION REPORT
Ref No.:2        Report No.: 28556  "Drill cuttings, Formation tests, Geothermal gradients, Lithology, Water analysis, Well velocity surveys, Wire line logging"          WELL COMPLETION REPORT
Ref No.:2        Report No.: 28556  "Drill cuttings, Formation tests, Geothermal gradients, Lithology, Water analysis, Well velocity surveys, Wire line logging"          WELL COMPLETION REPORT
COMMENT2:
Ref no.:1        Report No.: 25780
Ref no.:1        Report No.: 25780
Ref no.:1        Report No.: 25780
Ref no.:1        Report No.: 25780

#        DEPTH             BS             GR            ILD            ILM           NPHI           RHOB           SFLU             SP 
~A
# ...
        4220.0         8.5000        88.4000         0.8800         0.9200       0.443900         2.2337         0.7300       -56.7317
        4221.0         8.5000        81.0200         1.0000         1.0800       0.345100         2.3812         1.3200       -55.5999
        4222.0         8.5000        78.3800         1.4900         1.2300       0.334400         2.4497         2.0900       -55.4681
        4223.0         8.5000        79.8700         1.4500         1.4500       0.356500         2.4642         1.5700       -58.7964
        4224.0         8.5000        72.4200         1.7500         1.5800       0.324300         2.5176         2.0500       -61.1746
        4225.0         8.5000        72.7400         1.9600         1.6400       0.321400         2.4974         2.2500       -61.8028
        4226.0         8.5000        79.1500         1.7300         1.6300       0.343000         2.4765         1.8500       -62.6910
        4227.0         8.5000        87.1100         1.6500         1.5200       0.362000         2.4441         1.8700       -62.3492
        4228.0         8.5000        97.0300         1.3800         1.3800       0.402400         2.3886         1.5600       -60.8974
        4229.0         8.5000        87.3000         1.3000         1.3200       0.456900         2.3411         1.5200       -60.7056
        4230.0         8.5000        87.5800         1.3300         1.4900       0.516100         2.3046         1.1600       -60.3239
        4231.0         8.5000        76.8100         1.6800         1.7500       0.287100         2.4076         1.5900       -56.4521
        4232.0         8.5000        67.7200         2.2900         2.4300       0.246200         2.4721         4.1900       -80.0003
        4233.0         8.5000        62.6500         3.0900         3.5600       0.225800         2.4090         6.4600       -91.5485
        4234.0         8.5000        64.5500         4.0600         4.1800       0.255900         2.3535         7.7900       -90.1267
        4235.0         8.5000        74.2400         4.5100         4.7900       0.272600         2.3397         4.8400       -86.3749
        4236.0         8.5000        57.9600         4.0700         5.3400       0.222400         2.3533         6.8400       -80.1331
        4237.0         8.5000        57.0900         6.9800         4.8900       0.221500         2.4519        10.6300       -54.9614
        4238.0         8.5000        80.8100         3.5500         3.6000       0.240100         2.5082         3.7800       -63.4396
        4239.0         8.5000        87.2000         2.5000         2.5200       0.283900         2.5510         2.3700       -64.0278
        4240.0         8.5000        89.8200         2.1500         2.0400       0.279500         2.5519         2.2100       -63.0760
        4241.0         8.5000        96.1800         1.6900         1.6500       0.319900         2.4982         1.8900       -61.7442
        4242.0         8.5000       106.4000         1.3900         1.3900       0.358500         2.4033         1.6200       -60.4924
        4243.0         8.5000       101.1600         1.2200         1.2300       0.413500         2.3798         1.4300       -58.8406
        4244.0         8.5000        96.4900         1.1500         1.1600       0.402900         2.3795         1.3200       -58.2689
        4245.0         8.5000       109.1900         1.1500         1.1400       0.417500         2.3763         1.3400       -57.8571
        4246.0         8.5000       109.0900         1.1700         1.1600       0.415900         2.3872         1.3700       -57.8953
        4247.0         8.5000        97.7200         1.1900         1.1900       0.432100         2.3854         1.3900       -58.3835
        4248.0         8.5000       102.0200         1.2100         1.2200       0.431600         2.3618         1.3600       -59.1417
        4249.0         8.5000       109.8300         1.2400         1.2400       0.413700         2.3367         1.3200       -60.0099
        4250.0         8.5000        91.0100         1.2900         1.3800       0.398600         2.3663         1.6200       -60.7281
        4251.0         8.5000        90.5200         1.5100         1.5300       0.372400         2.4409         1.8500       -61.3764
        4252.0         8.5000        84.9700         1.6500         1.5900       0.350200         2.4362         1.9700       -62.1746
        4253.0         8.5000        90.3100         1.8500         1.5900       0.348200         2.4408         2.2400       -63.1828
        4254.0         8.5000       102.0800         1.6400         1.5000       0.362800         2.4282         1.8500       -64.1610
        4255.0         8.5000       101.5500         1.6000         1.4300       0.363200         2.4495         1.9000       -64.7892
        4256.0         8.5000       105.3800         1.4700         1.5100       0.398800         2.4395         1.3500       -64.2774
        4257.0         8.5000        86.4400         1.6900         1.8800       0.230300         2.5324         1.4600       -62.7056
        4258.0         8.5000        77.6900         5.2500         2.4300       0.150300         2.5077         7.9400       -62.1439
        4259.0         8.5000        88.0000         4.1700         2.2000       0.286500         2.4376         5.5400       -62.4621
        4260.0         8.5000        92.5200         1.7800         1.8600       0.346500         2.4157         1.9700       -63.6503
        4261.0         8.5000        86.5000         1.4300         1.5800       0.346600         2.3970         1.6900       -64.0785
        4262.0         8.5000        88.5700         1.3300         1.3900       0.379000         2.4154         1.6600       -63.5467
        4263.0         8.5000        92.9600         1.0200         1.0800       0.393800         2.3260         1.1700       -63.9949
        4264.0         8.5000        97.6700         0.9300         0.8900       0.400500         2.3130         1.1300       -63.4031
        4265.0         8.5000        98.3800         0.8600         0.8500       0.396500         2.3410         1.0700       -62.3714
        4266.0         8.5000        94.7500         0.8400         0.8600       0.438600         2.3418         1.0600       -61.5196
        4267.0         8.5000        89.9000         0.9600         0.9400       0.350800         2.4002         1.1900       -61.2578
        4268.0         8.5000        93.5000         1.2400         1.1000       0.328200         2.3823         1.6800       -61.9860
        4269.0         8.5000        87.8000         1.2600         1.3000       0.336500         2.3892         1.4800       -63.6442
        4270.0         8.5000        87.0900         1.6400         1.5600       0.337500         2.4054         1.9000       -65.0724
        4271.0         8.5000        95.1600         1.9900         1.6500       0.300300         2.3915         2.3500       -66.2606
        4272.0         8.5000        96.4300         1.7900         1.6600       0.305200         2.3858         1.9500       -67.7189
        4273.0         8.5000        92.2100         1.6300         1.6000       0.330800         2.3854         1.8300       -68.3671
        4274.0         8.5000        87.2100         1.4900         1.5500       0.321200         2.3779         1.6100       -67.9053
        4275.0         8.5000        86.4100         1.7000         1.5300       0.313600         2.3767         1.9900       -67.5535
        4276.0         8.5000        90.0300         1.4700         1.4300       0.332300         2.3847         1.6200       -67.4217
        4277.0         8.5000        82.8300         1.3900         1.3900       0.337900         2.3819         1.5700       -67.3899
        4278.0         8.5000        81.5500         1.3500         1.3600       0.342700         2.3772         1.5300       -67.3281
        4279.0         8.5000        80.5800         1.3100         1.3300       0.362200         2.3821         1.4900       -67.2064
