~Version
VERS  .             3.0                                 : CWLS LOG ASCII STANDARD - VERSION 3.0
WRAP  .             NO                                  : One line per depth step
DLM   .             COMMA                               : Delimiter character between data columns
#Delimiting character ( SPACE TAB OR COMMA ).

~Well
#MNEM.UNIT          DATA                                DESCRIPTION
#----- ----        -----------------                   -----------
STRT  .M                 9.936480                       : FIRST INDEX VALUE
STOP  .M              1530.918963                       : LAST INDEX VALUE
STEP  .M                 0.030480                       : STEP OF INDEX
NULL  .             -999.25                             : NULL VALUE
COMP  .                                                 : COMPANY
WELL  .             TALITHA                             : WELL
FLD   .                                                 : FIELD
LOC   .                                                 : LOCATION
SRVC  .                                                 : SERVICE COMPANY
CTRY  .                                                 : COUNTRY
PROV  .                                                 : PROVINCE
UWI   .                                                 : UNIQUE WELL ID
LIC   .                                                 : LICENSE NUMBER
STAT  .                                                 : STATE
CNTY  .                                                 : COUNTY
API   .                                                 : API NUMBER
DATE  .                                                 : LOG DATE
X     .             653720.586786                       : X OR EAST-WEST COORDINATE
Y     .             8158169.199339                      : Y OR NORTH-SOUTH COORDINATE
HZCS  .                                                 : HORIZONTAL CO-ORDINATE SYSTEM
LATI  .             -16.65391666667                     : LATITUDE
LONG  .             154.4414027778                      : LONGITUDE
GDAT  .                                                 : GEODETIC DATUM

~DEVIATION_PARAMETER 
#MNEM.UNIT                    VALUE                        DESCRIPTION
#--------------- ---         ------------                 -----------------

~DEVIATION_DEFINITION 
#MNEM.UNIT                 LOG CODE                  CURVE DESCRIPTION
#----------- ----         ------------              -----------------
DEPTH       .M                                      :     {F}
AZIMUTH     .DEG                                    :     {F}
DEVIATION   .DEG                                    : 90-DIP    {F}

~DEVIATION_DATA | DEVIATION_DEFINITION
       10.0000,        0.0000,        0.0000
       26.1300,        0.0000,        0.7500
       44.9000,        0.0000,        0.2000
       63.6700,        0.0000,        0.1500
       82.4400,        0.0000,        0.1500
      101.2100,        0.0000,        0.4000
      119.9800,        0.0000,        0.7000
      138.7500,        0.0000,        0.8500
      157.0300,        0.0000,        0.8500
      175.3100,        0.0000,        0.7500
      193.5900,        0.0000,        0.6000
      212.9500,        0.0000,        0.3000
      232.3100,        0.0000,        0.2500
      251.6700,        0.0000,        0.2000
      271.0300,        0.0000,        0.2000
      290.3900,        0.0000,        0.3000
      309.7500,        0.0000,        0.7500
      329.1100,        0.0000,        0.7500
      348.4700,        0.0000,        0.8000
      367.8300,        0.0000,        0.6000
      387.1900,        0.0000,        0.2500
      406.5500,        0.0000,        0.3000
      425.9100,        0.0000,        0.5000
      445.2700,        0.0000,        0.7500
      464.6300,        0.0000,        0.8500
      483.9900,        0.0000,        0.9000
      503.3500,        0.0000,        1.0000
      522.7100,        0.0000,        0.9000
      542.0700,        0.0000,        0.9000
      561.4300,        0.0000,        1.0000
      580.7900,        0.0000,        1.2000
      600.1500,      274.0000,        1.6000
      619.5100,      270.0000,        2.0000
      631.9600,      263.0000,        2.2500
      647.4200,      263.0000,        3.8000
      666.8000,      265.0000,        6.0000
      686.2300,      270.0000,        8.2000
      705.6100,      254.0000,        9.9000
      715.3000,      257.0000,       11.0000
      724.9800,      260.0000,       12.2000
      734.6600,      239.0000,       13.2000
      744.3200,      240.0000,       14.2000
      767.4000,      247.0000,       15.7000
      796.4700,      231.0000,       18.0000
      825.3900,      230.0000,       19.9000
      854.4900,      224.3000,       21.2000
      883.3100,      204.0000,       22.4000
      912.4100,      191.0000,       24.2000
      930.2500,      195.0000,       25.2000
      959.4000,      190.2000,       24.4000
      998.2500,      187.0000,       24.0000
     1056.3500,      184.0000,       23.4000
     1104.8200,      169.0000,       23.0000
     1162.9800,      170.0000,       22.2000
     1189.1900,      169.4000,       22.0000
     1198.8700,      169.0000,       22.5000
     1208.1500,      158.7000,       22.8000
     1232.7400,      147.0000,       25.1000
     1261.8300,      142.1000,       25.8000
     1310.3500,      140.3000,       26.5000
     1358.8200,      140.6000,       27.2000
     1406.8000,      140.0000,       28.0000
     1435.8800,      138.9000,       28.1000
     1513.2900,      139.0000,       31.9000
     1530.0000,      136.2000,       32.7400

~TOPS_PARAMETER 
#MNEM.UNIT                    VALUE                        DESCRIPTION
#--------------- ---         ------------                 -----------------

~TOPS_DEFINITION 
#MNEM.UNIT                 LOG CODE                  CURVE DESCRIPTION
#----------- ----         ------------              -----------------
DEPTH       .M                                      :     {F}
TOPS        .                                       : Values changed using TEXT_EDIT    {S30}

~TOPS_DATA | TOPS_DEFINITION
        5.0000,Doyles Creek Subgroup         
      447.0000,Horseshoe Creek Subgroup      
      526.5000,Apple Tree Flat Subgroup      
      731.5000,Watts Sandstone               
      750.5000,Denman Fm                     
      875.0000,Mt Leonard Fm                 
     1020.0000,Althorpe Fm                   
     1083.0000,Malabar Fm                    
     1123.0000,Mt Ogilvie Fm                 
     1193.5000,Mt Thorley Fm                 
     1253.5000,Burnamwood Fm                 
     1351.5000,Archerfield Sandstone         
     1381.0000,Mulbring Siltstone            
     1442.5000,Muree Sandstone               

~PARAMETER 
#MNEM.UNIT                    VALUE                        DESCRIPTION
#--------------- ---         ------------                 -----------------

~CURVE 
#MNEM.UNIT                 LOG CODE                  CURVE DESCRIPTION
#----------- ----         ------------              -----------------
DEPTH       .M                                      :     {F}
GR          .GAPI                                   :     {F}
LLD         .OHMM                                   :     {F}
NPHI        .V/V                                    :     {F}
RHOB        .K/M3                                   :     {F}

~ASCII | CURVE 
# ...
   1317.741843,      124.4460,       11.3771,      0.259732,     2456.0500
   1317.772323,      124.2160,       11.3366,      0.260446,     2455.9800
   1317.802803,      123.2270,       11.2793,      0.261052,     2456.2900
   1317.833283,      122.6170,       11.2136,      0.261514,     2456.8000
   1317.863763,      122.3860,       11.1360,      0.261863,     2457.4200
   1317.894243,      122.0690,       11.0513,      0.262112,     2458.3500
   1317.924723,      122.2600,       10.9527,      0.262247,     2459.2900
   1317.955203,      121.9520,       10.8393,      0.262275,     2460.3600
   1317.985683,      121.7350,       10.7301,      0.262280,     2461.9300
   1318.016163,      121.9630,       10.6111,      0.262254,     2463.5700
   1318.046643,      122.8860,       10.4866,      0.262220,     2464.9700
   1318.077123,      123.9780,       10.3743,      0.262192,     2466.4400
   1318.107603,      124.7080,       10.2719,      0.262228,     2467.7200
   1318.138083,      124.9290,       10.1706,      0.262399,     2468.9900
   1318.168563,      125.8590,       10.0874,      0.262631,     2470.3500
   1318.199043,      126.8470,       10.0143,      0.262922,     2471.4200
   1318.229523,      127.4190,        9.9389,      0.263237,     2472.2300
   1318.260003,      127.4200,        9.8663,      0.263630,     2473.3600
   1318.290483,      127.3790,        9.7988,      0.264081,     2474.2100
   1318.320963,      127.5320,        9.7287,      0.264527,     2474.8600
   1318.351443,      127.0540,        9.6613,      0.264929,     2475.2800
   1318.381923,      126.2400,        9.6007,      0.265207,     2475.2200
   1318.412403,      125.4380,        9.5458,      0.265280,     2474.9700
   1318.442883,      125.2380,        9.5015,      0.265054,     2474.4200
   1318.473363,      124.3280,        9.4728,      0.264512,     2473.3200
   1318.503843,      123.4150,        9.4555,      0.263571,     2472.1000
   1318.534323,      122.1940,        9.4559,      0.262203,     2470.6300
   1318.564803,      121.2670,        9.4840,      0.260421,     2469.1900
   1318.595283,      120.8590,        9.5326,      0.258236,     2468.0900
   1318.625763,      119.7440,        9.6023,      0.255693,     2466.6800
   1318.656243,      118.7100,        9.6946,      0.252802,     2465.1400
   1318.686723,      117.9590,        9.8255,      0.249578,     2464.0700
   1318.717203,      117.6690,        9.9851,      0.246089,     2463.2600
   1318.747683,      117.5190,       10.1809,      0.242358,     2462.2600
   1318.778163,      117.3730,       10.4224,      0.238381,     2461.6400
   1318.808643,      117.2020,       10.6950,      0.234145,     2460.8800
   1318.839123,      116.9480,       10.9835,      0.229735,     2460.3700
   1318.869603,      117.2640,       11.3050,      0.225201,     2460.3600
   1318.900083,      117.6340,       11.6566,      0.220530,     2460.0800
   1318.930563,      117.5840,       12.0391,      0.215837,     2460.2500
   1318.961043,      118.1110,       12.4478,      0.211169,     2460.6800
   1318.991523,      118.2830,       12.8966,      0.206611,     2461.4300
   1319.022003,      118.3930,       13.3759,      0.202183,     2462.7100
   1319.052483,      118.2310,       13.8880,      0.197961,     2463.9100
   1319.082963,      118.2640,       14.4218,      0.193953,     2465.3600
   1319.113443,      117.5020,       14.9655,      0.190196,     2467.2400
   1319.143923,      116.5010,       15.5423,      0.186726,     2469.4900
   1319.174403,      115.7030,       16.1450,      0.183566,     2471.6600
   1319.204883,      114.8310,       16.7557,      0.180736,     2473.7900
   1319.235363,      113.5120,       17.3847,      0.178279,     2475.6800
   1319.265843,      112.3510,       18.0054,      0.176230,     2477.2300
   1319.296323,      111.3100,       18.6027,      0.174635,     2478.9500
   1319.326803,      109.6570,       19.1411,      0.173571,     2480.3200
   1319.357283,      107.7270,       19.6167,      0.173020,     2481.1100
   1319.387763,      106.5130,       20.0146,      0.172876,     2482.1100
   1319.418243,      105.6310,       20.3393,      0.173127,     2482.6100
   1319.448723,      104.4100,       20.5958,      0.173730,     2482.8400
   1319.479203,      102.8850,       20.7730,      0.174450,     2482.7900
   1319.509683,      101.6700,       20.8799,      0.175150,     2482.1500
   1319.540163,      100.3670,       20.9181,      0.175747,     2481.1600
   1319.570643,       99.8674,       20.8825,      0.176105,     2479.9300
   1319.601123,       98.3065,       20.7769,      0.176195,     2478.7000
   1319.631603,       97.3783,       20.5856,      0.176052,     2476.8600
   1319.662083,       96.0567,       20.3201,      0.175757,     2474.7000
   1319.692563,       94.9998,       19.9692,      0.175381,     2472.4800
   1319.723043,       93.4488,       19.5586,      0.175067,     2470.2500
   1319.753523,       93.0431,       19.0982,      0.174931,     2468.1000
   1319.784003,       92.3950,       18.5745,      0.175128,     2465.7000
   1319.814483,       91.8744,       17.9837,      0.175756,     2463.4200
   1319.844963,       91.3972,       17.3295,      0.176941,     2461.3900
   1319.875443,       90.8931,       16.6148,      0.178753,     2459.7100
   1319.905923,       91.1139,       15.8687,      0.181272,     2458.4600
   1319.936403,       91.5644,       15.1131,      0.184573,     2457.5100
   1319.966883,       92.4828,       14.3745,      0.188623,     2456.8200
   1319.997363,       93.9939,       13.6584,      0.193427,     2456.7100
   1320.027843,       94.7037,       12.9745,      0.199006,     2456.8300
   1320.058323,       95.8783,       12.3189,      0.205254,     2457.2000
   1320.088803,       97.8999,       11.6860,      0.211979,     2457.6700
   1320.119283,      100.2350,       11.1074,      0.219073,     2458.4100
   1320.149763,      102.5970,       10.5663,      0.226336,     2459.2700
   1320.180243,      104.6610,       10.0566,      0.233480,     2460.4400
   1320.210723,      106.5130,        9.5834,      0.240290,     2461.6700
   1320.241203,      108.7460,        9.1555,      0.246506,     2462.6700
   1320.271683,      110.6920,        8.7631,      0.251889,     2463.8400
   1320.302163,      112.4560,        8.4059,      0.256380,     2465.0600
   1320.332643,      114.1320,        8.0828,      0.260022,     2466.5700
   1320.363123,      114.9950,        7.7913,      0.262962,     2467.7500
   1320.393603,      115.3690,        7.5287,      0.265361,     2468.7100
   1320.424083,      115.9990,        7.2882,      0.267452,     2469.2800
   1320.454563,      116.9580,        7.0767,      0.269491,     2469.8300
   1320.485043,      117.3580,        6.8963,      0.271673,     2470.2500
   1320.515523,      118.2090,        6.7393,      0.274164,     2470.4400
   1320.546003,      118.9920,        6.6052,      0.276986,     2470.4400
   1320.576483,      119.1420,        6.4873,      0.280159,     2470.0000
   1320.606963,      120.3260,        6.3767,      0.283671,     2469.3300
   1320.637443,      120.8200,        6.2791,      0.287425,     2468.6400
   1320.667923,      121.4890,        6.1881,      0.291313,     2467.9100
   1320.698403,      122.1880,        6.0991,      0.295985,     2467.0500
   1320.728883,      122.6240,        6.0194,      0.300896,     2466.3700
   1320.759363,      123.3760,        5.9412,      0.306557,     2465.7900
   1320.789843,      124.1100,        5.8647,      0.312126,     2465.3400
   1320.820323,      124.9570,        5.7917,      0.317518,     2464.8600
   1320.850803,      125.2050,        5.7259,      0.322455,     2464.4500
   1320.881283,      125.1740,        5.6620,      0.326782,     2464.1000
   1320.911763,      125.2310,        5.5997,      0.330397,     2463.8700
   1320.942243,      125.1410,        5.5451,      0.333109,     2463.6400
   1320.972723,      124.5500,        5.5071,      0.334763,     2462.9400
