~Version
VERS  .             3.0                                 : CWLS LOG ASCII STANDARD - VERSION 3.0
WRAP  .             NO                                  : One line per depth step
DLM   .             COMMA                               : Delimiter character between data columns
#Delimiting character ( SPACE TAB OR COMMA ).

~Well
#MNEM.UNIT          DATA                                DESCRIPTION
#----- ----        -----------------                   -----------
STRT  .M                 9.936480                       : FIRST INDEX VALUE
STOP  .M              1530.918963                       : LAST INDEX VALUE
STEP  .M                 0.030480                       : STEP OF INDEX
NULL  .             -999.25                             : NULL VALUE
COMP  .                                                 : COMPANY
WELL  .             TALITHA                             : WELL
FLD   .                                                 : FIELD
LOC   .                                                 : LOCATION
SRVC  .                                                 : SERVICE COMPANY
CTRY  .                                                 : COUNTRY
PROV  .                                                 : PROVINCE
UWI   .                                                 : UNIQUE WELL ID
LIC   .                                                 : LICENSE NUMBER
STAT  .                                                 : STATE
CNTY  .                                                 : COUNTY
API   .                                                 : API NUMBER
DATE  .                                                 : LOG DATE
X     .             653720.586786                       : X OR EAST-WEST COORDINATE
Y     .             8158169.199339                      : Y OR NORTH-SOUTH COORDINATE
HZCS  .                                                 : HORIZONTAL CO-ORDINATE SYSTEM
LATI  .             -16.65391666667                     : LATITUDE
LONG  .             154.4414027778                      : LONGITUDE
GDAT  .                                                 : GEODETIC DATUM

~DEVIATION_PARAMETER 
#MNEM.UNIT                    VALUE                        DESCRIPTION
#--------------- ---         ------------                 -----------------

~DEVIATION_DEFINITION 
#MNEM.UNIT                 LOG CODE                  CURVE DESCRIPTION
#----------- ----         ------------              -----------------
DEPTH       .M                                      :     {F}
AZIMUTH     .DEG                                    :     {F}
DEVIATION   .DEG                                    : 90-DIP    {F}

~DEVIATION_DATA | DEVIATION_DEFINITION
       10.0000,        0.0000,        0.0000
       26.1300,        0.0000,        0.7500
       44.9000,        0.0000,        0.2000
       63.6700,        0.0000,        0.1500
       82.4400,        0.0000,        0.1500
      101.2100,        0.0000,        0.4000
      119.9800,        0.0000,        0.7000
      138.7500,        0.0000,        0.8500
      157.0300,        0.0000,        0.8500
      175.3100,        0.0000,        0.7500
      193.5900,        0.0000,        0.6000
      212.9500,        0.0000,        0.3000
      232.3100,        0.0000,        0.2500
      251.6700,        0.0000,        0.2000
      271.0300,        0.0000,        0.2000
      290.3900,        0.0000,        0.3000
      309.7500,        0.0000,        0.7500
      329.1100,        0.0000,        0.7500
      348.4700,        0.0000,        0.8000
      367.8300,        0.0000,        0.6000
      387.1900,        0.0000,        0.2500
      406.5500,        0.0000,        0.3000
      425.9100,        0.0000,        0.5000
      445.2700,        0.0000,        0.7500
      464.6300,        0.0000,        0.8500
      483.9900,        0.0000,        0.9000
      503.3500,        0.0000,        1.0000
      522.7100,        0.0000,        0.9000
      542.0700,        0.0000,        0.9000
      561.4300,        0.0000,        1.0000
      580.7900,        0.0000,        1.2000
      600.1500,      274.0000,        1.6000
      619.5100,      270.0000,        2.0000
      631.9600,      263.0000,        2.2500
      647.4200,      263.0000,        3.8000
      666.8000,      265.0000,        6.0000
      686.2300,      270.0000,        8.2000
      705.6100,      254.0000,        9.9000
      715.3000,      257.0000,       11.0000
      724.9800,      260.0000,       12.2000
      734.6600,      239.0000,       13.2000
      744.3200,      240.0000,       14.2000
      767.4000,      247.0000,       15.7000
      796.4700,      231.0000,       18.0000
      825.3900,      230.0000,       19.9000
      854.4900,      224.3000,       21.2000
      883.3100,      204.0000,       22.4000
      912.4100,      191.0000,       24.2000
      930.2500,      195.0000,       25.2000
      959.4000,      190.2000,       24.4000
      998.2500,      187.0000,       24.0000
     1056.3500,      184.0000,       23.4000
     1104.8200,      169.0000,       23.0000
     1162.9800,      170.0000,       22.2000
     1189.1900,      169.4000,       22.0000
     1198.8700,      169.0000,       22.5000
     1208.1500,      158.7000,       22.8000
     1232.7400,      147.0000,       25.1000
     1261.8300,      142.1000,       25.8000
     1310.3500,      140.3000,       26.5000
     1358.8200,      140.6000,       27.2000
     1406.8000,      140.0000,       28.0000
     1435.8800,      138.9000,       28.1000
     1513.2900,      139.0000,       31.9000
     1530.0000,      136.2000,       32.7400

~TOPS_PARAMETER 
#MNEM.UNIT                    VALUE                        DESCRIPTION
#--------------- ---         ------------                 -----------------

~TOPS_DEFINITION 
#MNEM.UNIT                 LOG CODE                  CURVE DESCRIPTION
#----------- ----         ------------              -----------------
DEPTH       .M                                      :     {F}
TOPS        .                                       : Values changed using TEXT_EDIT    {S30}

~TOPS_DATA | TOPS_DEFINITION
        5.0000,Doyles Creek Subgroup         
      447.0000,Horseshoe Creek Subgroup      
      526.5000,Apple Tree Flat Subgroup      
      731.5000,Watts Sandstone               
      750.5000,Denman Fm                     
      875.0000,Mt Leonard Fm                 
     1020.0000,Althorpe Fm                   
     1083.0000,Malabar Fm                    
     1123.0000,Mt Ogilvie Fm                 
     1193.5000,Mt Thorley Fm                 
     1253.5000,Burnamwood Fm                 
     1351.5000,Archerfield Sandstone         
     1381.0000,Mulbring Siltstone            
     1442.5000,Muree Sandstone               

~PARAMETER 
#MNEM.UNIT                    VALUE                        DESCRIPTION
#--------------- ---         ------------                 -----------------

~CURVE 
#MNEM.UNIT                 LOG CODE                  CURVE DESCRIPTION
#----------- ----         ------------              -----------------
DEPTH       .M                                      :     {F}
GR          .GAPI                                   :     {F}
LLD         .OHMM                                   :     {F}
NPHI        .V/V                                    :     {F}
RHOB        .K/M3                                   :     {F}

~ASCII | CURVE 
# ...
   1519.946163,       46.3756,       40.2127,      0.184967,     2325.3700
   1519.976643,       46.5964,       40.2451,      0.183975,     2323.6700
   1520.007123,       46.7572,       40.2460,      0.183044,     2322.2100
   1520.037603,       47.0410,       40.2591,      0.182270,     2321.2500
   1520.068083,       47.1659,       40.2496,      0.181667,     2321.0200
   1520.098563,       47.3872,       40.2015,      0.181282,     2321.1000
   1520.129043,       47.6553,       40.1330,      0.181140,     2322.0000
   1520.159523,       47.5981,       40.1016,      0.181265,     2323.0400
   1520.190003,       47.3855,       40.1076,      0.181654,     2324.0200
   1520.220483,       47.6420,       40.1303,      0.182310,     2325.3400
   1520.250963,       47.3086,       40.1235,      0.183178,     2326.7000
   1520.281443,       47.2117,       40.0877,      0.184255,     2328.3300
   1520.311923,       47.1168,       40.0537,      0.185464,     2330.1600
   1520.342403,       46.7090,       40.0186,      0.186814,     2331.5800
   1520.372883,       46.6163,       39.9625,      0.188245,     2332.8400
   1520.403363,       46.6106,       39.8720,      0.189739,     2333.8600
   1520.433843,       46.4205,       39.8054,      0.191212,     2334.7200
   1520.464323,       46.3302,       39.6624,      0.192657,     2335.2500
   1520.494803,       46.4787,       39.5284,      0.194042,     2335.6700
   1520.525283,       46.4366,       39.3554,      0.195308,     2335.5400
   1520.555763,       46.7791,       39.1822,      0.196421,     2335.0600
   1520.586243,       46.7574,       38.9804,      0.197425,     2334.4400
   1520.616723,       46.8371,       38.7599,      0.198259,     2333.5000
   1520.647203,       47.0425,       38.5322,      0.198952,     2332.3800
   1520.677683,       47.0829,       38.2860,      0.199492,     2331.1500
   1520.708163,       47.4437,       38.0712,      0.199878,     2329.5700
   1520.738643,       47.5880,       37.8870,      0.200125,     2328.1500
   1520.769123,       47.5097,       37.6735,      0.200234,     2326.3600
   1520.799603,       47.5526,       37.4672,      0.200182,     2324.4900
   1520.830083,       47.5885,       37.2696,      0.200018,     2323.1300
   1520.860563,       47.1941,       37.0648,      0.199746,     2321.9500
   1520.891043,       47.2890,       36.8409,      0.199413,     2320.8900
   1520.921523,       47.0092,       36.6690,      0.198995,     2320.2800
   1520.952003,       46.9965,       36.5172,      0.198536,     2319.7900
   1520.982483,       46.9792,       36.3454,      0.198017,     2319.7700
   1521.012963,       46.6933,       36.2173,      0.197475,     2320.8500
   1521.043443,       46.2886,       36.0762,      0.196974,     2322.4100
   1521.073923,       46.2833,       35.9364,      0.196537,     2324.2100
   1521.104403,       46.4667,       35.8244,      0.196168,     2326.1200
   1521.134883,       46.2032,       35.6940,      0.195882,     2328.3800
   1521.165363,       46.4572,       35.6005,      0.195679,     2331.0200
   1521.195843,       46.4633,       35.5320,      0.195578,     2334.0500
   1521.226323,       46.9181,       35.4681,      0.195554,     2337.1400
   1521.256803,       47.0285,       35.4347,      0.195652,     2340.4200
   1521.287283,       47.4727,       35.4224,      0.195779,     2343.7300
   1521.317763,       47.5542,       35.4057,      0.195906,     2346.6200
   1521.348243,       47.6044,       35.3936,      0.196017,     2349.1600
   1521.378723,       47.8380,       35.3836,      0.196076,     2351.5100
   1521.409203,       48.1877,       35.3920,      0.196099,     2353.2600
   1521.439683,       48.4846,       35.4144,      0.196138,     2354.7900
   1521.470163,       48.6469,       35.3975,      0.196195,     2355.6600
   1521.500643,       49.0870,       35.3777,      0.196305,     2356.1300
   1521.531123,       49.0905,       35.3998,      0.196499,     2356.3600
   1521.561603,       49.4202,       35.4098,      0.196852,     2356.2100
   1521.592083,       49.2639,       35.3907,      0.197389,     2355.6800
   1521.622563,       49.6003,       35.3898,      0.198145,     2354.8100
   1521.653043,       50.1205,       35.3694,      0.199134,     2353.2900
   1521.683523,       50.5512,       35.3566,      0.200287,     2351.3300
   1521.714003,       50.6542,       35.3503,      0.201606,     2349.2200
   1521.744483,       50.7063,       35.3469,      0.203159,     2346.9900
   1521.774963,       50.9984,       35.3390,      0.204867,     2344.3000
   1521.805443,       50.9154,       35.3343,      0.206715,     2341.7000
   1521.835923,       50.9690,       35.3382,      0.208682,     2339.2700
   1521.866403,       50.9256,       35.3529,      0.210728,     2336.6500
   1521.896883,       50.8931,       35.3533,      0.212790,     2334.6100
   1521.927363,       50.6812,       35.3594,      0.214874,     2333.0000
   1521.957843,       50.4841,       35.3786,      0.216916,     2332.2600
   1521.988323,       50.2770,       35.3825,      0.218884,     2331.8000
   1522.018803,       49.9440,       35.3908,      0.220762,     2331.7700
   1522.049283,       49.7937,       35.3805,      0.222492,     2332.3900
   1522.079763,       49.1126,       35.3745,      0.224033,     2333.7100
   1522.110243,       48.6972,       35.3788,      0.225397,     2335.5900
   1522.140723,       48.4085,       35.4009,      0.226613,     2337.8500
   1522.171203,       48.0177,       35.4063,      0.227638,     2340.5000
   1522.201683,       47.9042,       35.4093,      0.228368,     2343.4200
   1522.232163,       47.5732,       35.4287,      0.228908,     2346.6100
   1522.262643,       47.2360,       35.4294,      0.229300,     2349.8900
   1522.293123,       47.0617,       35.4408,      0.229585,     2353.0700
   1522.323603,       47.0648,       35.4593,      0.229793,     2356.5000
   1522.354083,       47.0755,       35.4663,      0.229939,     2360.0500
   1522.384563,       46.9380,       35.4697,      0.229986,     2363.6200
   1522.415043,       46.9414,       35.4794,      0.229974,     2367.2400
   1522.445523,       46.8856,       35.4856,      0.229895,     2370.4600
   1522.476003,       46.7519,       35.4913,      0.229719,     2373.3000
   1522.506483,       46.6865,       35.4910,      0.229497,     2376.0000
   1522.536963,       46.4938,       35.4944,      0.229249,     2378.0200
   1522.567443,       46.2541,       35.4863,      0.228977,     2379.4000
   1522.597923,       46.0457,       35.4838,      0.228685,     2380.0500
   1522.628403,       45.8540,       35.4767,      0.228429,     2380.4400
   1522.658883,       45.5527,       35.4527,      0.228229,     2380.4600
   1522.689363,       45.0936,       35.4573,      0.228088,     2380.1600
   1522.719843,       45.2864,       35.4464,      0.227940,     2379.4500
   1522.750323,       44.9707,       35.4520,      0.227794,     2378.7600
   1522.780803,       44.7386,       35.4395,      0.227597,     2377.8600
   1522.811283,       44.8328,       35.4501,      0.227336,     2376.5700
   1522.841763,       44.4651,       35.4442,      0.227066,     2375.3500
   1522.872243,       44.7181,       35.4283,      0.226714,     2373.9500
   1522.902723,       44.6869,       35.4160,      0.226253,     2372.8500
   1522.933203,       44.7486,       35.4007,      0.225687,     2371.5400
   1522.963683,       44.7066,       35.3911,      0.225052,     2370.4800
   1522.994163,       44.8815,       35.3894,      0.224437,     2369.4300
   1523.024643,       45.0113,       35.3946,      0.223860,     2368.4100
   1523.055123,       45.2631,       35.4036,      0.223356,     2367.8000
   1523.085603,       45.6088,       35.4063,      0.222944,     2367.5500
   1523.116083,       45.9094,       35.4044,      0.222600,     2367.3500
   1523.146563,       46.1050,       35.4070,      0.222335,     2367.3700
   1523.177043,       46.5004,       35.4264,      0.222115,     2367.1700
