~Version
VERS  .             3.0                                 : CWLS LOG ASCII STANDARD - VERSION 3.0
WRAP  .             NO                                  : One line per depth step
DLM   .             COMMA                               : Delimiter character between data columns
#Delimiting character ( SPACE TAB OR COMMA ).

~Well
#MNEM.UNIT          DATA                                DESCRIPTION
#----- ----        -----------------                   -----------
STRT  .M                 9.936480                       : FIRST INDEX VALUE
STOP  .M              1530.918963                       : LAST INDEX VALUE
STEP  .M                 0.030480                       : STEP OF INDEX
NULL  .             -999.25                             : NULL VALUE
COMP  .                                                 : COMPANY
WELL  .             TALITHA                             : WELL
FLD   .                                                 : FIELD
LOC   .                                                 : LOCATION
SRVC  .                                                 : SERVICE COMPANY
CTRY  .                                                 : COUNTRY
PROV  .                                                 : PROVINCE
UWI   .                                                 : UNIQUE WELL ID
LIC   .                                                 : LICENSE NUMBER
STAT  .                                                 : STATE
CNTY  .                                                 : COUNTY
API   .                                                 : API NUMBER
DATE  .                                                 : LOG DATE
X     .             653720.586786                       : X OR EAST-WEST COORDINATE
Y     .             8158169.199339                      : Y OR NORTH-SOUTH COORDINATE
HZCS  .                                                 : HORIZONTAL CO-ORDINATE SYSTEM
LATI  .             -16.65391666667                     : LATITUDE
LONG  .             154.4414027778                      : LONGITUDE
GDAT  .                                                 : GEODETIC DATUM

~DEVIATION_PARAMETER 
#MNEM.UNIT                    VALUE                        DESCRIPTION
#--------------- ---         ------------                 -----------------

~DEVIATION_DEFINITION 
#MNEM.UNIT                 LOG CODE                  CURVE DESCRIPTION
#----------- ----         ------------              -----------------
DEPTH       .M                                      :     {F}
AZIMUTH     .DEG                                    :     {F}
DEVIATION   .DEG                                    : 90-DIP    {F}

~DEVIATION_DATA | DEVIATION_DEFINITION
       10.0000,        0.0000,        0.0000
       26.1300,        0.0000,        0.7500
       44.9000,        0.0000,        0.2000
       63.6700,        0.0000,        0.1500
       82.4400,        0.0000,        0.1500
      101.2100,        0.0000,        0.4000
      119.9800,        0.0000,        0.7000
      138.7500,        0.0000,        0.8500
      157.0300,        0.0000,        0.8500
      175.3100,        0.0000,        0.7500
      193.5900,        0.0000,        0.6000
      212.9500,        0.0000,        0.3000
      232.3100,        0.0000,        0.2500
      251.6700,        0.0000,        0.2000
      271.0300,        0.0000,        0.2000
      290.3900,        0.0000,        0.3000
      309.7500,        0.0000,        0.7500
      329.1100,        0.0000,        0.7500
      348.4700,        0.0000,        0.8000
      367.8300,        0.0000,        0.6000
      387.1900,        0.0000,        0.2500
      406.5500,        0.0000,        0.3000
      425.9100,        0.0000,        0.5000
      445.2700,        0.0000,        0.7500
      464.6300,        0.0000,        0.8500
      483.9900,        0.0000,        0.9000
      503.3500,        0.0000,        1.0000
      522.7100,        0.0000,        0.9000
      542.0700,        0.0000,        0.9000
      561.4300,        0.0000,        1.0000
      580.7900,        0.0000,        1.2000
      600.1500,      274.0000,        1.6000
      619.5100,      270.0000,        2.0000
      631.9600,      263.0000,        2.2500
      647.4200,      263.0000,        3.8000
      666.8000,      265.0000,        6.0000
      686.2300,      270.0000,        8.2000
      705.6100,      254.0000,        9.9000
      715.3000,      257.0000,       11.0000
      724.9800,      260.0000,       12.2000
      734.6600,      239.0000,       13.2000
      744.3200,      240.0000,       14.2000
      767.4000,      247.0000,       15.7000
      796.4700,      231.0000,       18.0000
      825.3900,      230.0000,       19.9000
      854.4900,      224.3000,       21.2000
      883.3100,      204.0000,       22.4000
      912.4100,      191.0000,       24.2000
      930.2500,      195.0000,       25.2000
      959.4000,      190.2000,       24.4000
      998.2500,      187.0000,       24.0000
     1056.3500,      184.0000,       23.4000
     1104.8200,      169.0000,       23.0000
     1162.9800,      170.0000,       22.2000
     1189.1900,      169.4000,       22.0000
     1198.8700,      169.0000,       22.5000
     1208.1500,      158.7000,       22.8000
     1232.7400,      147.0000,       25.1000
     1261.8300,      142.1000,       25.8000
     1310.3500,      140.3000,       26.5000
     1358.8200,      140.6000,       27.2000
     1406.8000,      140.0000,       28.0000
     1435.8800,      138.9000,       28.1000
     1513.2900,      139.0000,       31.9000
     1530.0000,      136.2000,       32.7400

~TOPS_PARAMETER 
#MNEM.UNIT                    VALUE                        DESCRIPTION
#--------------- ---         ------------                 -----------------

~TOPS_DEFINITION 
#MNEM.UNIT                 LOG CODE                  CURVE DESCRIPTION
#----------- ----         ------------              -----------------
DEPTH       .M                                      :     {F}
TOPS        .                                       : Values changed using TEXT_EDIT    {S30}

~TOPS_DATA | TOPS_DEFINITION
        5.0000,Doyles Creek Subgroup         
      447.0000,Horseshoe Creek Subgroup      
      526.5000,Apple Tree Flat Subgroup      
      731.5000,Watts Sandstone               
      750.5000,Denman Fm                     
      875.0000,Mt Leonard Fm                 
     1020.0000,Althorpe Fm                   
     1083.0000,Malabar Fm                    
     1123.0000,Mt Ogilvie Fm                 
     1193.5000,Mt Thorley Fm                 
     1253.5000,Burnamwood Fm                 
     1351.5000,Archerfield Sandstone         
     1381.0000,Mulbring Siltstone            
     1442.5000,Muree Sandstone               

~PARAMETER 
#MNEM.UNIT                    VALUE                        DESCRIPTION
#--------------- ---         ------------                 -----------------

~CURVE 
#MNEM.UNIT                 LOG CODE                  CURVE DESCRIPTION
#----------- ----         ------------              -----------------
DEPTH       .M                                      :     {F}
GR          .GAPI                                   :     {F}
LLD         .OHMM                                   :     {F}
NPHI        .V/V                                    :     {F}
RHOB        .K/M3                                   :     {F}

~ASCII | CURVE 
# ...
    414.345121,       52.1533,       10.3153,   -999.250000,     -999.2500
    414.375601,       51.5996,       10.1156,   -999.250000,     -999.2500
    414.406081,       50.9855,        9.8624,   -999.250000,     -999.2500
    414.436561,       51.0279,        9.5622,   -999.250000,     -999.2500
    414.467041,       51.1614,        9.1944,   -999.250000,     -999.2500
    414.497521,       51.3938,        8.7974,   -999.250000,     -999.2500
    414.528001,       51.6722,        8.2461,   -999.250000,     -999.2500
    414.558481,       51.7064,        7.6559,   -999.250000,     -999.2500
    414.588961,       52.2189,        7.0027,   -999.250000,     -999.2500
    414.619441,       52.8965,        6.3034,   -999.250000,     -999.2500
    414.649921,       53.8554,        5.5717,   -999.250000,     -999.2500
    414.680401,       54.8895,        4.8610,   -999.250000,     -999.2500
    414.710881,       56.2916,        4.3526,   -999.250000,     -999.2500
    414.741361,       57.4143,        4.0115,   -999.250000,     -999.2500
    414.771841,       59.1214,        3.6525,   -999.250000,     -999.2500
    414.802321,       60.2993,        3.3332,   -999.250000,     -999.2500
    414.832801,       61.3540,        3.1090,   -999.250000,     -999.2500
    414.863281,       62.5133,        2.8884,   -999.250000,     -999.2500
    414.893761,       63.5925,        2.7315,   -999.250000,     -999.2500
    414.924241,       64.4553,        2.6073,   -999.250000,     -999.2500
    414.954721,       64.8453,        2.5114,   -999.250000,     -999.2500
    414.985201,       65.5652,        2.4603,   -999.250000,     -999.2500
    415.015681,       65.7746,        2.4221,   -999.250000,     -999.2500
    415.046161,       66.3408,        2.4163,   -999.250000,     -999.2500
    415.076641,       66.2870,        2.4334,   -999.250000,     -999.2500
    415.107121,       66.4400,        2.4584,   -999.250000,     -999.2500
    415.137601,       66.1548,        2.4884,   -999.250000,     -999.2500
    415.168081,       66.0900,        2.5506,   -999.250000,     -999.2500
    415.198561,       66.2018,        2.6188,   -999.250000,     -999.2500
    415.229041,       65.6612,        2.7082,   -999.250000,     -999.2500
    415.259521,       65.4259,        2.8274,   -999.250000,     -999.2500
    415.290001,       64.8866,        2.9531,   -999.250000,     -999.2500
    415.320481,       64.4326,        3.1051,   -999.250000,     -999.2500
    415.350961,       63.4419,        3.2643,   -999.250000,     -999.2500
    415.381441,       62.5586,        3.4713,   -999.250000,     -999.2500
    415.411921,       61.6210,        3.7231,   -999.250000,     -999.2500
    415.442401,       61.0396,        4.0078,   -999.250000,     -999.2500
    415.472881,       60.4043,        4.3111,   -999.250000,     -999.2500
    415.503361,       59.8811,        4.6139,   -999.250000,     -999.2500
    415.533841,       59.0909,        4.8797,   -999.250000,     -999.2500
    415.564321,       58.2899,        5.1446,   -999.250000,     -999.2500
    415.594801,       57.7589,        5.3548,   -999.250000,     -999.2500
    415.625281,       57.0549,        5.5147,   -999.250000,     -999.2500
    415.655761,       56.3628,        5.6564,   -999.250000,     -999.2500
    415.686241,       55.5722,        5.7698,   -999.250000,     -999.2500
    415.716721,       55.1242,        5.8295,   -999.250000,     -999.2500
    415.747201,       54.6626,        5.8721,   -999.250000,     -999.2500
    415.777681,       54.4570,        5.8701,   -999.250000,     -999.2500
    415.808161,       54.1317,        5.8382,   -999.250000,     -999.2500
    415.838641,       54.0038,        5.8041,   -999.250000,     -999.2500
    415.869121,       54.3666,        5.7481,   -999.250000,     -999.2500
    415.899601,       54.2788,        5.6870,   -999.250000,     -999.2500
    415.930081,       54.1772,        5.6046,   -999.250000,     -999.2500
    415.960561,       54.1159,        5.4889,   -999.250000,     -999.2500
    415.991041,       54.6100,        5.3888,   -999.250000,     -999.2500
    416.021521,       55.5048,        5.2638,   -999.250000,     -999.2500
    416.052001,       55.5987,        5.0727,   -999.250000,     -999.2500
    416.082481,       55.6222,        4.8247,   -999.250000,     -999.2500
    416.112961,       55.8124,        4.5614,   -999.250000,     -999.2500
    416.143441,       55.6105,        4.3013,   -999.250000,     -999.2500
    416.173921,       55.8483,        4.0600,   -999.250000,     -999.2500
    416.204401,       56.0671,        3.8307,   -999.250000,     -999.2500
    416.234881,       56.3572,        3.6481,   -999.250000,     -999.2500
    416.265361,       56.9269,        3.5152,   -999.250000,     -999.2500
    416.295841,       57.2952,        3.3861,   -999.250000,     -999.2500
    416.326321,       57.5274,        3.2582,   -999.250000,     -999.2500
    416.356801,       58.0074,        3.1618,   -999.250000,     -999.2500
    416.387281,       58.4167,        3.0964,   -999.250000,     -999.2500
    416.417761,       59.1398,        3.0865,   -999.250000,     -999.2500
    416.448241,       59.6482,        3.0652,   -999.250000,     -999.2500
    416.478721,       60.1161,        3.0275,   -999.250000,     -999.2500
    416.509201,       60.5696,        3.0000,   -999.250000,     -999.2500
    416.539681,       60.8869,        2.9504,   -999.250000,     -999.2500
    416.570161,       61.6050,        2.9257,   -999.250000,     -999.2500
    416.600641,       62.0344,        2.9356,   -999.250000,     -999.2500
    416.631121,       62.1228,        2.9325,   -999.250000,     -999.2500
    416.661601,       61.9871,        2.9147,   -999.250000,     -999.2500
    416.692081,       62.2867,        2.9051,   -999.250000,     -999.2500
    416.722561,       62.1862,        2.9029,   -999.250000,     -999.2500
    416.753041,       62.0998,        2.9167,   -999.250000,     -999.2500
    416.783521,       62.2760,        2.9263,   -999.250000,     -999.2500
    416.814001,       61.7956,        2.9365,   -999.250000,     -999.2500
    416.844481,       61.5738,        2.9361,   -999.250000,     -999.2500
    416.874961,       61.3401,        2.9348,   -999.250000,     -999.2500
    416.905441,       61.3025,        2.9271,   -999.250000,     -999.2500
    416.935921,       61.1383,        2.9256,   -999.250000,     -999.2500
    416.966401,       61.4278,        2.9199,   -999.250000,     -999.2500
    416.996881,       61.3523,        2.9382,   -999.250000,     -999.2500
    417.027361,       61.8219,        2.9480,   -999.250000,     -999.2500
    417.057841,       61.8461,        2.9311,   -999.250000,     -999.2500
    417.088321,       62.2547,        2.9385,   -999.250000,     -999.2500
    417.118801,       62.2868,        2.9598,   -999.250000,     -999.2500
    417.149281,       62.6261,        2.9639,   -999.250000,     -999.2500
    417.179761,       63.2251,        2.9759,   -999.250000,     -999.2500
    417.210241,       63.1713,        2.9863,   -999.250000,     -999.2500
    417.240721,       63.6061,        2.9818,   -999.250000,     -999.2500
    417.271201,       64.0777,        2.9623,   -999.250000,     -999.2500
    417.301681,       64.5747,        2.9441,   -999.250000,     -999.2500
    417.332161,       64.4396,        2.9267,   -999.250000,     -999.2500
    417.362641,       65.1024,        2.9275,   -999.250000,     -999.2500
    417.393121,       65.3796,        2.9214,   -999.250000,     -999.2500
    417.423601,       65.5531,        2.9072,   -999.250000,     -999.2500
    417.454081,       65.4991,        2.8974,   -999.250000,     -999.2500
    417.484561,       65.3576,        2.8877,   -999.250000,     -999.2500
    417.515041,       65.6680,        2.8849,   -999.250000,     -999.2500
    417.545521,       65.3961,        2.8760,   -999.250000,     -999.2500
    417.576001,       65.6616,        2.8738,   -999.250000,     -999.2500
