~Version
VERS  .             3.0                                 : CWLS LOG ASCII STANDARD - VERSION 3.0
WRAP  .             NO                                  : One line per depth step
DLM   .             COMMA                               : Delimiter character between data columns
#Delimiting character ( SPACE TAB OR COMMA ).

~Well
#MNEM.UNIT          DATA                                DESCRIPTION
#----- ----        -----------------                   -----------
STRT  .M                 9.936480                       : FIRST INDEX VALUE
STOP  .M              1530.918963                       : LAST INDEX VALUE
STEP  .M                 0.030480                       : STEP OF INDEX
NULL  .             -999.25                             : NULL VALUE
COMP  .                                                 : COMPANY
WELL  .             TALITHA                             : WELL
FLD   .                                                 : FIELD
LOC   .                                                 : LOCATION
SRVC  .                                                 : SERVICE COMPANY
CTRY  .                                                 : COUNTRY
PROV  .                                                 : PROVINCE
UWI   .                                                 : UNIQUE WELL ID
LIC   .                                                 : LICENSE NUMBER
STAT  .                                                 : STATE
CNTY  .                                                 : COUNTY
API   .                                                 : API NUMBER
DATE  .                                                 : LOG DATE
X     .             653720.586786                       : X OR EAST-WEST COORDINATE
Y     .             8158169.199339                      : Y OR NORTH-SOUTH COORDINATE
HZCS  .                                                 : HORIZONTAL CO-ORDINATE SYSTEM
LATI  .             -16.65391666667                     : LATITUDE
LONG  .             154.4414027778                      : LONGITUDE
GDAT  .                                                 : GEODETIC DATUM

~DEVIATION_PARAMETER 
#MNEM.UNIT                    VALUE                        DESCRIPTION
#--------------- ---         ------------                 -----------------

~DEVIATION_DEFINITION 
#MNEM.UNIT                 LOG CODE                  CURVE DESCRIPTION
#----------- ----         ------------              -----------------
DEPTH       .M                                      :     {F}
AZIMUTH     .DEG                                    :     {F}
DEVIATION   .DEG                                    : 90-DIP    {F}

~DEVIATION_DATA | DEVIATION_DEFINITION
       10.0000,        0.0000,        0.0000
       26.1300,        0.0000,        0.7500
       44.9000,        0.0000,        0.2000
       63.6700,        0.0000,        0.1500
       82.4400,        0.0000,        0.1500
      101.2100,        0.0000,        0.4000
      119.9800,        0.0000,        0.7000
      138.7500,        0.0000,        0.8500
      157.0300,        0.0000,        0.8500
      175.3100,        0.0000,        0.7500
      193.5900,        0.0000,        0.6000
      212.9500,        0.0000,        0.3000
      232.3100,        0.0000,        0.2500
      251.6700,        0.0000,        0.2000
      271.0300,        0.0000,        0.2000
      290.3900,        0.0000,        0.3000
      309.7500,        0.0000,        0.7500
      329.1100,        0.0000,        0.7500
      348.4700,        0.0000,        0.8000
      367.8300,        0.0000,        0.6000
      387.1900,        0.0000,        0.2500
      406.5500,        0.0000,        0.3000
      425.9100,        0.0000,        0.5000
      445.2700,        0.0000,        0.7500
      464.6300,        0.0000,        0.8500
      483.9900,        0.0000,        0.9000
      503.3500,        0.0000,        1.0000
      522.7100,        0.0000,        0.9000
      542.0700,        0.0000,        0.9000
      561.4300,        0.0000,        1.0000
      580.7900,        0.0000,        1.2000
      600.1500,      274.0000,        1.6000
      619.5100,      270.0000,        2.0000
      631.9600,      263.0000,        2.2500
      647.4200,      263.0000,        3.8000
      666.8000,      265.0000,        6.0000
      686.2300,      270.0000,        8.2000
      705.6100,      254.0000,        9.9000
      715.3000,      257.0000,       11.0000
      724.9800,      260.0000,       12.2000
      734.6600,      239.0000,       13.2000
      744.3200,      240.0000,       14.2000
      767.4000,      247.0000,       15.7000
      796.4700,      231.0000,       18.0000
      825.3900,      230.0000,       19.9000
      854.4900,      224.3000,       21.2000
      883.3100,      204.0000,       22.4000
      912.4100,      191.0000,       24.2000
      930.2500,      195.0000,       25.2000
      959.4000,      190.2000,       24.4000
      998.2500,      187.0000,       24.0000
     1056.3500,      184.0000,       23.4000
     1104.8200,      169.0000,       23.0000
     1162.9800,      170.0000,       22.2000
     1189.1900,      169.4000,       22.0000
     1198.8700,      169.0000,       22.5000
     1208.1500,      158.7000,       22.8000
     1232.7400,      147.0000,       25.1000
     1261.8300,      142.1000,       25.8000
     1310.3500,      140.3000,       26.5000
     1358.8200,      140.6000,       27.2000
     1406.8000,      140.0000,       28.0000
     1435.8800,      138.9000,       28.1000
     1513.2900,      139.0000,       31.9000
     1530.0000,      136.2000,       32.7400

~TOPS_PARAMETER 
#MNEM.UNIT                    VALUE                        DESCRIPTION
#--------------- ---         ------------                 -----------------

~TOPS_DEFINITION 
#MNEM.UNIT                 LOG CODE                  CURVE DESCRIPTION
#----------- ----         ------------              -----------------
DEPTH       .M                                      :     {F}
TOPS        .                                       : Values changed using TEXT_EDIT    {S30}

~TOPS_DATA | TOPS_DEFINITION
        5.0000,Doyles Creek Subgroup         
      447.0000,Horseshoe Creek Subgroup      
      526.5000,Apple Tree Flat Subgroup      
      731.5000,Watts Sandstone               
      750.5000,Denman Fm                     
      875.0000,Mt Leonard Fm                 
     1020.0000,Althorpe Fm                   
     1083.0000,Malabar Fm                    
     1123.0000,Mt Ogilvie Fm                 
     1193.5000,Mt Thorley Fm                 
     1253.5000,Burnamwood Fm                 
     1351.5000,Archerfield Sandstone         
     1381.0000,Mulbring Siltstone            
     1442.5000,Muree Sandstone               

~PARAMETER 
#MNEM.UNIT                    VALUE                        DESCRIPTION
#--------------- ---         ------------                 -----------------

~CURVE 
#MNEM.UNIT                 LOG CODE                  CURVE DESCRIPTION
#----------- ----         ------------              -----------------
DEPTH       .M                                      :     {F}
GR          .GAPI                                   :     {F}
LLD         .OHMM                                   :     {F}
NPHI        .V/V                                    :     {F}
RHOB        .K/M3                                   :     {F}

~ASCII | CURVE 
# ...
   1118.798882,      119.3980,        5.2322,      0.339395,     2467.2900
   1118.829362,      119.3990,        5.2193,      0.343048,     2466.4100
   1118.859842,      119.4690,        5.1977,      0.347042,     2465.5800
   1118.890322,      120.0920,        5.1755,      0.351237,     2465.0700
   1118.920802,      120.2670,        5.1515,      0.355529,     2464.4700
   1118.951282,      120.2610,        5.1285,      0.359682,     2464.0800
   1118.981762,      121.0770,        5.0941,      0.363586,     2463.6300
   1119.012242,      121.5660,        5.0693,      0.367179,     2463.1400
   1119.042722,      121.9120,        5.0651,      0.370328,     2462.9900
   1119.073202,      121.8000,        5.0794,      0.372815,     2462.8000
   1119.103682,      122.4710,        5.1011,      0.374484,     2462.6800
   1119.134162,      122.4280,        5.1114,      0.375432,     2462.8300
   1119.164642,      122.0140,        5.1201,      0.375686,     2463.0700
   1119.195122,      122.5800,        5.1278,      0.375318,     2463.3700
   1119.225602,      122.1690,        5.1352,      0.374378,     2463.5600
   1119.256082,      122.6080,        5.1616,      0.373036,     2463.7400
   1119.286562,      122.7130,        5.1820,      0.371426,     2463.9500
   1119.317042,      122.6900,        5.1825,      0.369629,     2464.2300
   1119.347522,      122.7830,        5.1806,      0.367621,     2464.4100
   1119.378002,      122.5880,        5.2021,      0.365551,     2464.2900
   1119.408482,      122.9070,        5.2186,      0.363569,     2464.2000
   1119.438962,      123.1840,        5.2236,      0.361714,     2463.9200
   1119.469442,      123.5530,        5.2199,      0.359771,     2463.9200
   1119.499922,      123.6900,        5.2385,      0.357885,     2464.0800
   1119.530402,      123.6750,        5.2711,      0.356305,     2463.9100
   1119.560882,      124.2350,        5.2966,      0.355030,     2463.8800
   1119.591362,      125.0510,        5.3266,      0.354116,     2463.7000
   1119.621842,      126.0370,        5.3730,      0.353620,     2463.3800
   1119.652322,      126.1580,        5.4041,      0.353491,     2463.0800
   1119.682802,      127.1070,        5.4178,      0.353762,     2462.7200
   1119.713282,      127.5400,        5.4333,      0.354485,     2462.4400
   1119.743762,      127.2370,        5.4436,      0.355562,     2462.4000
   1119.774242,      127.2100,        5.4571,      0.356829,     2462.3400
   1119.804722,      127.4320,        5.4787,      0.358321,     2462.1100
   1119.835202,      126.7200,        5.5016,      0.359832,     2462.0200
   1119.865682,      126.1220,        5.5209,      0.361338,     2461.9600
   1119.896162,      125.4400,        5.5245,      0.362782,     2461.9500
   1119.926642,      125.1060,        5.5354,      0.364066,     2462.1000
   1119.957122,      124.6540,        5.5667,      0.365048,     2461.9300
   1119.987602,      124.3690,        5.5965,      0.365739,     2461.9800
   1120.018082,      123.9280,        5.6141,      0.365972,     2462.3300
   1120.048562,      123.8970,        5.6380,      0.365639,     2462.5100
   1120.079042,      124.0500,        5.6529,      0.364709,     2463.1300
   1120.109522,      123.8150,        5.6741,      0.363161,     2463.4500
   1120.140002,      124.8790,        5.6872,      0.360837,     2463.8200
   1120.170482,      125.5940,        5.6809,      0.357819,     2464.4200
   1120.200962,      126.4010,        5.6865,      0.354232,     2465.1300
   1120.231442,      126.8370,        5.7096,      0.350293,     2465.8600
   1120.261922,      127.3090,        5.7151,      0.346201,     2466.5700
   1120.292402,      129.0010,        5.7343,      0.342274,     2467.3000
   1120.322882,      129.5050,        5.7531,      0.338672,     2468.2300
   1120.353362,      130.6280,        5.7651,      0.335614,     2469.3300
   1120.383842,      130.7410,        5.7690,      0.333353,     2470.1200
   1120.414322,      131.0500,        5.7939,      0.332019,     2470.7300
   1120.444802,      130.9950,        5.8087,      0.331621,     2471.5500
   1120.475282,      131.0050,        5.8102,      0.332198,     2472.1500
   1120.505762,      131.0160,        5.8121,      0.333596,     2472.8600
   1120.536242,      130.1260,        5.8288,      0.335683,     2473.6100
   1120.566722,      129.5000,        5.8602,      0.338427,     2474.1100
   1120.597202,      128.7760,        5.8913,      0.341539,     2474.8200
   1120.627682,      127.7940,        5.9245,      0.344716,     2475.3900
   1120.658162,      127.1380,        5.9527,      0.347794,     2475.6400
   1120.688642,      125.7560,        5.9744,      0.350561,     2475.9500
   1120.719122,      125.1620,        6.0003,      0.352804,     2475.9300
   1120.749602,      124.6810,        6.0320,      0.354298,     2475.9600
   1120.780082,      123.8970,        6.0727,      0.354937,     2475.8100
   1120.810562,      123.5110,        6.1111,      0.354700,     2475.3200
   1120.841042,      123.5370,        6.1504,      0.353508,     2474.6100
   1120.871522,      123.3590,        6.1757,      0.351344,     2473.9800
   1120.902002,      123.8550,        6.1922,      0.348411,     2473.5600
   1120.932482,      123.4610,        6.2092,      0.344912,     2473.3100
   1120.962962,      123.5420,        6.2144,      0.341028,     2472.9900
   1120.993442,      123.7960,        6.2286,      0.336846,     2472.3200
   1121.023922,      124.2370,        6.2548,      0.332556,     2472.0200
   1121.054402,      124.2640,        6.2575,      0.328357,     2471.9400
   1121.084882,      124.5290,        6.2723,      0.324464,     2471.9300
   1121.115362,      124.5350,        6.2929,      0.320968,     2471.9600
   1121.145842,      125.0380,        6.3239,      0.317971,     2471.9800
   1121.176322,      125.6310,        6.3625,      0.315562,     2472.0700
   1121.206802,      126.0270,        6.4039,      0.313691,     2472.5700
   1121.237282,      126.5010,        6.4608,      0.312370,     2473.0400
   1121.267762,      127.2960,        6.5029,      0.311619,     2473.5000
   1121.298242,      128.1530,        6.5629,      0.311304,     2474.1700
   1121.328722,      128.3040,        6.6502,      0.311404,     2474.8700
   1121.359202,      128.6830,        6.7269,      0.311691,     2475.4800
   1121.389682,      128.9390,        6.7947,      0.312098,     2476.3000
   1121.420162,      128.2600,        6.8557,      0.312608,     2476.8800
   1121.450642,      128.0920,        6.9150,      0.312989,     2477.5800
   1121.481122,      127.4680,        6.9779,      0.313203,     2478.4800
   1121.511602,      126.4920,        7.0721,      0.313261,     2479.1700
   1121.542082,      125.0110,        7.1924,      0.313048,     2479.5500
   1121.572562,      123.9270,        7.3002,      0.312545,     2479.8100
   1121.603042,      122.6010,        7.4249,      0.311826,     2479.9700
   1121.633522,      120.5200,        7.5514,      0.311045,     2480.5600
   1121.664002,      118.9970,        7.6768,      0.310203,     2480.7200
   1121.694482,      117.0130,        7.8133,      0.309399,     2480.4000
   1121.724962,      115.1710,        7.9287,      0.308632,     2480.1400
   1121.755442,      113.5480,        8.0495,      0.308067,     2479.9200
   1121.785922,      111.9440,        8.1497,      0.307741,     2479.8500
   1121.816402,      110.7670,        8.2018,      0.307572,     2479.6500
   1121.846882,      110.1660,        8.2228,      0.307651,     2479.1300
   1121.877362,      109.4530,        8.2314,      0.308033,     2478.5500
   1121.907842,      109.1180,        8.2411,      0.308661,     2477.9500
   1121.938322,      108.9130,        8.2213,      0.309480,     2477.0300
   1121.968802,      110.0130,        8.1750,      0.310390,     2476.4400
   1121.999282,      110.5290,        8.1380,      0.311497,     2475.8400
   1122.029762,      111.2620,        8.0875,      0.312848,     2475.1000
