~Version
VERS  .             3.0                                 : CWLS LOG ASCII STANDARD - VERSION 3.0
WRAP  .             NO                                  : One line per depth step
DLM   .             COMMA                               : Delimiter character between data columns
#Delimiting character ( SPACE TAB OR COMMA ).

~Well
#MNEM.UNIT          DATA                                DESCRIPTION
#----- ----        -----------------                   -----------
STRT  .M                 9.936480                       : FIRST INDEX VALUE
STOP  .M              1530.918963                       : LAST INDEX VALUE
STEP  .M                 0.030480                       : STEP OF INDEX
NULL  .             -999.25                             : NULL VALUE
COMP  .                                                 : COMPANY
WELL  .             TALITHA                             : WELL
FLD   .                                                 : FIELD
LOC   .                                                 : LOCATION
SRVC  .                                                 : SERVICE COMPANY
CTRY  .                                                 : COUNTRY
PROV  .                                                 : PROVINCE
UWI   .                                                 : UNIQUE WELL ID
LIC   .                                                 : LICENSE NUMBER
STAT  .                                                 : STATE
CNTY  .                                                 : COUNTY
API   .                                                 : API NUMBER
DATE  .                                                 : LOG DATE
X     .             653720.586786                       : X OR EAST-WEST COORDINATE
Y     .             8158169.199339                      : Y OR NORTH-SOUTH COORDINATE
HZCS  .                                                 : HORIZONTAL CO-ORDINATE SYSTEM
LATI  .             -16.65391666667                     : LATITUDE
LONG  .             154.4414027778                      : LONGITUDE
GDAT  .                                                 : GEODETIC DATUM

~DEVIATION_PARAMETER 
#MNEM.UNIT                    VALUE                        DESCRIPTION
#--------------- ---         ------------                 -----------------

~DEVIATION_DEFINITION 
#MNEM.UNIT                 LOG CODE                  CURVE DESCRIPTION
#----------- ----         ------------              -----------------
DEPTH       .M                                      :     {F}
AZIMUTH     .DEG                                    :     {F}
DEVIATION   .DEG                                    : 90-DIP    {F}

~DEVIATION_DATA | DEVIATION_DEFINITION
       10.0000,        0.0000,        0.0000
       26.1300,        0.0000,        0.7500
       44.9000,        0.0000,        0.2000
       63.6700,        0.0000,        0.1500
       82.4400,        0.0000,        0.1500
      101.2100,        0.0000,        0.4000
      119.9800,        0.0000,        0.7000
      138.7500,        0.0000,        0.8500
      157.0300,        0.0000,        0.8500
      175.3100,        0.0000,        0.7500
      193.5900,        0.0000,        0.6000
      212.9500,        0.0000,        0.3000
      232.3100,        0.0000,        0.2500
      251.6700,        0.0000,        0.2000
      271.0300,        0.0000,        0.2000
      290.3900,        0.0000,        0.3000
      309.7500,        0.0000,        0.7500
      329.1100,        0.0000,        0.7500
      348.4700,        0.0000,        0.8000
      367.8300,        0.0000,        0.6000
      387.1900,        0.0000,        0.2500
      406.5500,        0.0000,        0.3000
      425.9100,        0.0000,        0.5000
      445.2700,        0.0000,        0.7500
      464.6300,        0.0000,        0.8500
      483.9900,        0.0000,        0.9000
      503.3500,        0.0000,        1.0000
      522.7100,        0.0000,        0.9000
      542.0700,        0.0000,        0.9000
      561.4300,        0.0000,        1.0000
      580.7900,        0.0000,        1.2000
      600.1500,      274.0000,        1.6000
      619.5100,      270.0000,        2.0000
      631.9600,      263.0000,        2.2500
      647.4200,      263.0000,        3.8000
      666.8000,      265.0000,        6.0000
      686.2300,      270.0000,        8.2000
      705.6100,      254.0000,        9.9000
      715.3000,      257.0000,       11.0000
      724.9800,      260.0000,       12.2000
      734.6600,      239.0000,       13.2000
      744.3200,      240.0000,       14.2000
      767.4000,      247.0000,       15.7000
      796.4700,      231.0000,       18.0000
      825.3900,      230.0000,       19.9000
      854.4900,      224.3000,       21.2000
      883.3100,      204.0000,       22.4000
      912.4100,      191.0000,       24.2000
      930.2500,      195.0000,       25.2000
      959.4000,      190.2000,       24.4000
      998.2500,      187.0000,       24.0000
     1056.3500,      184.0000,       23.4000
     1104.8200,      169.0000,       23.0000
     1162.9800,      170.0000,       22.2000
     1189.1900,      169.4000,       22.0000
     1198.8700,      169.0000,       22.5000
     1208.1500,      158.7000,       22.8000
     1232.7400,      147.0000,       25.1000
     1261.8300,      142.1000,       25.8000
     1310.3500,      140.3000,       26.5000
     1358.8200,      140.6000,       27.2000
     1406.8000,      140.0000,       28.0000
     1435.8800,      138.9000,       28.1000
     1513.2900,      139.0000,       31.9000
     1530.0000,      136.2000,       32.7400

~TOPS_PARAMETER 
#MNEM.UNIT                    VALUE                        DESCRIPTION
#--------------- ---         ------------                 -----------------

~TOPS_DEFINITION 
#MNEM.UNIT                 LOG CODE                  CURVE DESCRIPTION
#----------- ----         ------------              -----------------
DEPTH       .M                                      :     {F}
TOPS        .                                       : Values changed using TEXT_EDIT    {S30}

~TOPS_DATA | TOPS_DEFINITION
        5.0000,Doyles Creek Subgroup         
      447.0000,Horseshoe Creek Subgroup      
      526.5000,Apple Tree Flat Subgroup      
      731.5000,Watts Sandstone               
      750.5000,Denman Fm                     
      875.0000,Mt Leonard Fm                 
     1020.0000,Althorpe Fm                   
     1083.0000,Malabar Fm                    
     1123.0000,Mt Ogilvie Fm                 
     1193.5000,Mt Thorley Fm                 
     1253.5000,Burnamwood Fm                 
     1351.5000,Archerfield Sandstone         
     1381.0000,Mulbring Siltstone            
     1442.5000,Muree Sandstone               

~PARAMETER 
#MNEM.UNIT                    VALUE                        DESCRIPTION
#--------------- ---         ------------                 -----------------

~CURVE 
#MNEM.UNIT                 LOG CODE                  CURVE DESCRIPTION
#----------- ----         ------------              -----------------
DEPTH       .M                                      :     {F}
GR          .GAPI                                   :     {F}
LLD         .OHMM                                   :     {F}
NPHI        .V/V                                    :     {F}
RHOB        .K/M3                                   :     {F}

~ASCII | CURVE 
# ...
   1219.901043,       71.6812,        9.3085,      0.268390,     2310.3900
   1219.931523,       71.2345,        9.2331,      0.270278,     2311.5100
   1219.962003,       71.2959,        9.1529,      0.272245,     2312.4500
   1219.992483,       71.5274,        9.0602,      0.274399,     2313.3800
   1220.022963,       71.9281,        8.9747,      0.276881,     2314.2000
   1220.053443,       72.2810,        8.8835,      0.279778,     2314.8000
   1220.083923,       72.4572,        8.7853,      0.283095,     2314.8700
   1220.114403,       72.9848,        8.6966,      0.286958,     2314.4600
   1220.144883,       73.6129,        8.5831,      0.291329,     2314.1000
   1220.175363,       74.6755,        8.4730,      0.297310,     2313.2200
   1220.205843,       75.3238,        8.3424,      0.304853,     2311.9900
   1220.236323,       76.3089,        8.2384,      0.312554,     2311.0100
   1220.266803,       77.0694,        8.1520,      0.320091,     2309.4900
   1220.297283,       78.5220,        8.0376,      0.327153,     2308.0900
   1220.327763,       79.6692,        7.9157,      0.333356,     2306.6300
   1220.358243,       80.6508,        7.8185,      0.338176,     2305.3000
   1220.388723,       81.1166,        7.7259,      0.341275,     2304.1100
   1220.419203,       81.6098,        7.6345,      0.342705,     2303.1400
   1220.449683,       82.3237,        7.5412,      0.342427,     2302.5800
   1220.480163,       82.1874,        7.4300,      0.340568,     2302.2500
   1220.510643,       82.5643,        7.3333,      0.337325,     2302.0600
   1220.541123,       82.9905,        7.2681,      0.333076,     2301.9700
   1220.571603,       83.4391,        7.2140,      0.328301,     2302.7600
   1220.602083,       83.6455,        7.1735,      0.323377,     2304.1900
   1220.632563,       83.9861,        7.1343,      0.318468,     2305.4700
   1220.663043,       84.4681,        7.0783,      0.313780,     2307.3900
   1220.693523,       84.8076,        7.0358,      0.309557,     2309.5900
   1220.724003,       85.1497,        7.0168,      0.305806,     2312.0000
   1220.754483,       85.4242,        7.0004,      0.302412,     2314.9100
   1220.784963,       86.0637,        6.9997,      0.299279,     2317.6100
   1220.815443,       85.9232,        7.0101,      0.297256,     2320.2500
   1220.845923,       86.6230,        7.0323,      0.294359,     2323.1700
   1220.876403,       87.0580,        7.0373,      0.291535,     2325.8400
   1220.906883,       87.2052,        7.0642,      0.289238,     2328.1400
   1220.937363,       87.3141,        7.1069,      0.286654,     2330.4200
   1220.967843,       87.1305,        7.1571,      0.283687,     2332.4900
   1220.998323,       87.0764,        7.2270,      0.280316,     2334.0600
   1221.028803,       87.0446,        7.3006,      0.276504,     2335.6500
   1221.059283,       87.1540,        7.3958,      0.272337,     2336.8000
   1221.089763,       86.5343,        7.4938,      0.267906,     2337.1500
   1221.120243,       86.3038,        7.5879,      0.263368,     2337.4600
   1221.150723,       85.4569,        7.7009,      0.258845,     2337.5900
   1221.181203,       84.7696,        7.8122,      0.254432,     2337.3900
   1221.211683,       83.5145,        7.9270,      0.250246,     2336.6700
   1221.242163,       82.3849,        8.0653,      0.246406,     2335.3100
   1221.272643,       81.3061,        8.2336,      0.243028,     2334.3900
   1221.303123,       79.9889,        8.4214,      0.240135,     2333.5800
   1221.333603,       78.7462,        8.5885,      0.237736,     2332.3100
   1221.364083,       78.0880,        8.7841,      0.235840,     2331.2500
   1221.394563,       76.8379,        9.0037,      0.234393,     2330.6600
   1221.425043,       75.3963,        9.2314,      0.233408,     2329.7000
   1221.455523,       74.4198,        9.4842,      0.232876,     2329.2700
   1221.486003,       72.9495,        9.7669,      0.232728,     2329.3800
   1221.516483,       71.7483,       10.0826,      0.232829,     2329.1500
   1221.546963,       70.4763,       10.3908,      0.233121,     2329.2600
   1221.577443,       69.2533,       10.6836,      0.233540,     2329.6900
   1221.607923,       68.5756,       10.9674,      0.234097,     2329.7000
   1221.638403,       67.4773,       11.2266,      0.234740,     2329.7700
   1221.668883,       66.4023,       11.4670,      0.235459,     2329.7500
   1221.699363,       65.5161,       11.6938,      0.236206,     2329.4700
   1221.729843,       64.9663,       11.8951,      0.237014,     2329.9100
   1221.760323,       64.1722,       12.0925,      0.237815,     2329.5900
   1221.790803,       63.4405,       12.2689,      0.238629,     2328.6000
   1221.821283,       62.8026,       12.4324,      0.239477,     2327.8000
   1221.851763,       62.4933,       12.5483,      0.240322,     2326.2200
   1221.882243,       62.1662,       12.6308,      0.241121,     2324.5100
   1221.912723,       61.9668,       12.6461,      0.241819,     2322.3000
   1221.943203,       61.9232,       12.6389,      0.242416,     2318.8400
   1221.973683,       61.8510,       12.6407,      0.242938,     2315.2400
   1222.004163,       61.3710,       12.5973,      0.243358,     2311.1900
   1222.034643,       61.8451,       12.4762,      0.243744,     2306.2800
   1222.065123,       62.4161,       12.3298,      0.244041,     2301.5600
   1222.095603,       62.6500,       12.1482,      0.244268,     2296.2700
   1222.126083,       63.0283,       11.9267,      0.244465,     2290.1600
   1222.156563,       63.5445,       11.6699,      0.244692,     2284.4900
   1222.187043,       64.0855,       11.4065,      0.244974,     2278.6500
   1222.217523,       64.2613,       11.1615,      0.245290,     2272.6500
   1222.248003,       64.3152,       10.9166,      0.245616,     2267.1200
   1222.278483,       64.5406,       10.6789,      0.245966,     2261.7000
   1222.308963,       64.5751,       10.4555,      0.246244,     2256.5100
   1222.339443,       64.2763,       10.2444,      0.246450,     2251.7600
   1222.369923,       63.8472,       10.0505,      0.246520,     2246.6900
   1222.400403,       63.8217,        9.8707,      0.246518,     2242.5600
   1222.430883,       63.8803,        9.7120,      0.246415,     2239.0900
   1222.461363,       63.4181,        9.5537,      0.246231,     2236.0600
   1222.491843,       63.2360,        9.4651,      0.245949,     2233.9200
   1222.522323,       62.9130,        9.3868,      0.245652,     2232.1000
   1222.552803,       62.6535,        9.3416,      0.245400,     2230.4100
   1222.583283,       62.6569,        9.3214,      0.245130,     2229.8300
   1222.613763,       62.9093,        9.3122,      0.244799,     2229.7800
   1222.644243,       63.0917,        9.3113,      0.244446,     2230.1000
   1222.674723,       62.8064,        9.3523,      0.244042,     2230.9600
   1222.705203,       62.5959,        9.4113,      0.243658,     2231.8400
   1222.735683,       62.6143,        9.4912,      0.243309,     2232.8700
   1222.766163,       62.5206,        9.5959,      0.243027,     2234.3400
   1222.796643,       62.4775,        9.7189,      0.242879,     2235.5500
   1222.827123,       62.2974,        9.8448,      0.242863,     2236.9600
   1222.857603,       62.1605,        9.9474,      0.242902,     2238.1500
   1222.888083,       61.6950,       10.0587,      0.242951,     2238.8300
   1222.918563,       61.3536,       10.1989,      0.243051,     2239.7200
   1222.949043,       60.8888,       10.3253,      0.243214,     2240.1100
   1222.979523,       60.1615,       10.4455,      0.243362,     2240.0900
   1223.010003,       59.9020,       10.5882,      0.243497,     2239.8600
   1223.040483,       59.0088,       10.7275,      0.243629,     2239.1300
   1223.070963,       57.9138,       10.8391,      0.243813,     2238.0500
   1223.101443,       57.5865,       10.9547,      0.244049,     2236.5500
   1223.131923,       57.1741,       11.0169,      0.244405,     2234.6300
