~Version
VERS  .             3.0                                 : CWLS LOG ASCII STANDARD - VERSION 3.0
WRAP  .             NO                                  : One line per depth step
DLM   .             COMMA                               : Delimiter character between data columns
#Delimiting character ( SPACE TAB OR COMMA ).

~Well
#MNEM.UNIT          DATA                                DESCRIPTION
#----- ----        -----------------                   -----------
STRT  .M                 9.936480                       : FIRST INDEX VALUE
STOP  .M              1530.918963                       : LAST INDEX VALUE
STEP  .M                 0.030480                       : STEP OF INDEX
NULL  .             -999.25                             : NULL VALUE
COMP  .                                                 : COMPANY
WELL  .             TALITHA                             : WELL
FLD   .                                                 : FIELD
LOC   .                                                 : LOCATION
SRVC  .                                                 : SERVICE COMPANY
CTRY  .                                                 : COUNTRY
PROV  .                                                 : PROVINCE
UWI   .                                                 : UNIQUE WELL ID
LIC   .                                                 : LICENSE NUMBER
STAT  .                                                 : STATE
CNTY  .                                                 : COUNTY
API   .                                                 : API NUMBER
DATE  .                                                 : LOG DATE
X     .             653720.586786                       : X OR EAST-WEST COORDINATE
Y     .             8158169.199339                      : Y OR NORTH-SOUTH COORDINATE
HZCS  .                                                 : HORIZONTAL CO-ORDINATE SYSTEM
LATI  .             -16.65391666667                     : LATITUDE
LONG  .             154.4414027778                      : LONGITUDE
GDAT  .                                                 : GEODETIC DATUM

~DEVIATION_PARAMETER 
#MNEM.UNIT                    VALUE                        DESCRIPTION
#--------------- ---         ------------                 -----------------

~DEVIATION_DEFINITION 
#MNEM.UNIT                 LOG CODE                  CURVE DESCRIPTION
#----------- ----         ------------              -----------------
DEPTH       .M                                      :     {F}
AZIMUTH     .DEG                                    :     {F}
DEVIATION   .DEG                                    : 90-DIP    {F}

~DEVIATION_DATA | DEVIATION_DEFINITION
       10.0000,        0.0000,        0.0000
       26.1300,        0.0000,        0.7500
       44.9000,        0.0000,        0.2000
       63.6700,        0.0000,        0.1500
       82.4400,        0.0000,        0.1500
      101.2100,        0.0000,        0.4000
      119.9800,        0.0000,        0.7000
      138.7500,        0.0000,        0.8500
      157.0300,        0.0000,        0.8500
      175.3100,        0.0000,        0.7500
      193.5900,        0.0000,        0.6000
      212.9500,        0.0000,        0.3000
      232.3100,        0.0000,        0.2500
      251.6700,        0.0000,        0.2000
      271.0300,        0.0000,        0.2000
      290.3900,        0.0000,        0.3000
      309.7500,        0.0000,        0.7500
      329.1100,        0.0000,        0.7500
      348.4700,        0.0000,        0.8000
      367.8300,        0.0000,        0.6000
      387.1900,        0.0000,        0.2500
      406.5500,        0.0000,        0.3000
      425.9100,        0.0000,        0.5000
      445.2700,        0.0000,        0.7500
      464.6300,        0.0000,        0.8500
      483.9900,        0.0000,        0.9000
      503.3500,        0.0000,        1.0000
      522.7100,        0.0000,        0.9000
      542.0700,        0.0000,        0.9000
      561.4300,        0.0000,        1.0000
      580.7900,        0.0000,        1.2000
      600.1500,      274.0000,        1.6000
      619.5100,      270.0000,        2.0000
      631.9600,      263.0000,        2.2500
      647.4200,      263.0000,        3.8000
      666.8000,      265.0000,        6.0000
      686.2300,      270.0000,        8.2000
      705.6100,      254.0000,        9.9000
      715.3000,      257.0000,       11.0000
      724.9800,      260.0000,       12.2000
      734.6600,      239.0000,       13.2000
      744.3200,      240.0000,       14.2000
      767.4000,      247.0000,       15.7000
      796.4700,      231.0000,       18.0000
      825.3900,      230.0000,       19.9000
      854.4900,      224.3000,       21.2000
      883.3100,      204.0000,       22.4000
      912.4100,      191.0000,       24.2000
      930.2500,      195.0000,       25.2000
      959.4000,      190.2000,       24.4000
      998.2500,      187.0000,       24.0000
     1056.3500,      184.0000,       23.4000
     1104.8200,      169.0000,       23.0000
     1162.9800,      170.0000,       22.2000
     1189.1900,      169.4000,       22.0000
     1198.8700,      169.0000,       22.5000
     1208.1500,      158.7000,       22.8000
     1232.7400,      147.0000,       25.1000
     1261.8300,      142.1000,       25.8000
     1310.3500,      140.3000,       26.5000
     1358.8200,      140.6000,       27.2000
     1406.8000,      140.0000,       28.0000
     1435.8800,      138.9000,       28.1000
     1513.2900,      139.0000,       31.9000
     1530.0000,      136.2000,       32.7400

~TOPS_PARAMETER 
#MNEM.UNIT                    VALUE                        DESCRIPTION
#--------------- ---         ------------                 -----------------

~TOPS_DEFINITION 
#MNEM.UNIT                 LOG CODE                  CURVE DESCRIPTION
#----------- ----         ------------              -----------------
DEPTH       .M                                      :     {F}
TOPS        .                                       : Values changed using TEXT_EDIT    {S30}

~TOPS_DATA | TOPS_DEFINITION
        5.0000,Doyles Creek Subgroup         
      447.0000,Horseshoe Creek Subgroup      
      526.5000,Apple Tree Flat Subgroup      
      731.5000,Watts Sandstone               
      750.5000,Denman Fm                     
      875.0000,Mt Leonard Fm                 
     1020.0000,Althorpe Fm                   
     1083.0000,Malabar Fm                    
     1123.0000,Mt Ogilvie Fm                 
     1193.5000,Mt Thorley Fm                 
     1253.5000,Burnamwood Fm                 
     1351.5000,Archerfield Sandstone         
     1381.0000,Mulbring Siltstone            
     1442.5000,Muree Sandstone               

~PARAMETER 
#MNEM.UNIT                    VALUE                        DESCRIPTION
#--------------- ---         ------------                 -----------------

~CURVE 
#MNEM.UNIT                 LOG CODE                  CURVE DESCRIPTION
#----------- ----         ------------              -----------------
DEPTH       .M                                      :     {F}
GR          .GAPI                                   :     {F}
LLD         .OHMM                                   :     {F}
NPHI        .V/V                                    :     {F}
RHOB        .K/M3                                   :     {F}

~ASCII | CURVE 
# ...
   1418.844003,       74.9452,       11.4795,      0.219864,     2452.6900
   1418.874483,       75.3655,       10.9656,      0.221029,     2452.2000
   1418.904963,       76.0411,       10.4748,      0.222183,     2451.7200
   1418.935443,       76.7551,       10.0061,      0.223387,     2451.1100
   1418.965923,       77.4397,        9.5347,      0.224686,     2450.5400
   1418.996403,       78.2482,        9.0741,      0.226076,     2450.0600
   1419.026883,       79.9883,        8.6019,      0.227622,     2449.3500
   1419.057363,       80.9595,        8.1257,      0.229358,     2448.2000
   1419.087843,       81.5774,        7.6435,      0.231267,     2447.3000
   1419.118323,       82.4882,        7.1817,      0.233347,     2446.2500
   1419.148803,       83.8723,        6.7551,      0.235645,     2445.4700
   1419.179283,       85.3706,        6.3483,      0.238037,     2444.8400
   1419.209763,       86.9169,        5.9909,      0.240505,     2444.1200
   1419.240243,       88.1727,        5.6799,      0.243061,     2443.7500
   1419.270723,       89.8781,        5.4262,      0.245640,     2443.4500
   1419.301203,       90.9900,        5.2227,      0.248240,     2443.4300
   1419.331683,       92.6521,        5.0738,      0.250917,     2443.8000
   1419.362163,       94.5444,        4.9517,      0.253615,     2444.3000
   1419.392643,       95.9721,        4.8417,      0.256290,     2444.8100
   1419.423123,       98.0496,        4.7486,      0.258972,     2445.2900
   1419.453603,       99.9406,        4.6656,      0.261733,     2445.8400
   1419.484083,      101.8470,        4.5970,      0.264501,     2446.6600
   1419.514563,      103.4560,        4.5371,      0.267266,     2447.5500
   1419.545043,      105.1790,        4.4820,      0.269994,     2448.8300
   1419.575523,      107.0680,        4.4250,      0.272637,     2449.8700
   1419.606003,      108.5170,        4.3787,      0.275182,     2450.8700
   1419.636483,      109.5480,        4.3418,      0.277566,     2451.9200
   1419.666963,      109.9020,        4.3068,      0.279756,     2453.1500
   1419.697443,      110.8470,        4.2845,      0.281728,     2454.6900
   1419.727923,      111.8150,        4.2735,      0.283510,     2455.6700
   1419.758403,      112.0090,        4.2727,      0.285079,     2456.6800
   1419.788883,      111.6220,        4.2740,      0.286367,     2457.4500
   1419.819363,      111.2350,        4.2778,      0.287466,     2458.0500
   1419.849843,      110.2570,        4.2770,      0.288394,     2458.6400
   1419.880323,      109.9090,        4.2679,      0.289141,     2459.0000
   1419.910803,      109.1550,        4.2568,      0.289696,     2459.2100
   1419.941283,      108.3280,        4.2478,      0.290031,     2459.3300
   1419.971763,      107.1300,        4.2343,      0.290113,     2459.1600
   1420.002243,      105.9620,        4.2229,      0.289964,     2458.8800
   1420.032723,      105.7740,        4.2162,      0.289668,     2458.2600
   1420.063203,      105.0340,        4.2052,      0.289219,     2457.8800
   1420.093683,      104.4860,        4.1979,      0.288647,     2457.3700
   1420.124163,      103.8060,        4.1903,      0.287988,     2456.9200
   1420.154643,      103.8850,        4.1820,      0.287252,     2456.3900
   1420.185123,      103.9290,        4.1725,      0.286504,     2455.6100
   1420.215603,      103.8670,        4.1635,      0.285758,     2455.1800
   1420.246083,      104.3060,        4.1571,      0.285002,     2454.6900
   1420.276563,      104.3270,        4.1500,      0.284227,     2453.8900
   1420.307043,      104.7950,        4.1414,      0.283380,     2452.9400
   1420.337523,      105.2850,        4.1322,      0.282416,     2452.0000
   1420.368003,      105.7160,        4.1218,      0.281333,     2451.4100
   1420.398483,      105.6990,        4.1108,      0.280192,     2450.9600
   1420.428963,      106.3800,        4.1023,      0.279065,     2450.4300
   1420.459443,      106.6180,        4.0911,      0.277947,     2449.8000
   1420.489923,      107.1860,        4.0789,      0.276862,     2449.1000
   1420.520403,      107.0590,        4.0747,      0.275870,     2448.7200
   1420.550883,      107.2090,        4.0744,      0.275046,     2448.4200
   1420.581363,      107.7480,        4.0738,      0.274412,     2448.2600
   1420.611843,      107.8150,        4.0700,      0.273943,     2448.0600
   1420.642323,      108.0460,        4.0609,      0.273686,     2447.7600
   1420.672803,      108.1260,        4.0525,      0.273672,     2447.7800
   1420.703283,      108.1150,        4.0461,      0.273903,     2447.7900
   1420.733763,      108.3260,        4.0391,      0.274357,     2447.9500
   1420.764243,      108.3130,        4.0305,      0.275029,     2448.1000
   1420.794723,      108.1100,        4.0256,      0.275987,     2448.4100
   1420.825203,      108.3540,        4.0225,      0.277178,     2448.5600
   1420.855683,      108.6420,        4.0254,      0.278535,     2448.5000
   1420.886163,      108.4880,        4.0265,      0.279973,     2448.5200
   1420.916643,      108.9330,        4.0221,      0.281410,     2448.9300
   1420.947123,      108.7920,        4.0196,      0.282735,     2449.5000
   1420.977603,      108.7100,        4.0141,      0.283833,     2450.2300
   1421.008083,      108.8530,        4.0113,      0.284544,     2450.9900
   1421.038563,      109.5250,        4.0079,      0.284801,     2451.6400
   1421.069043,      109.4980,        4.0070,      0.284582,     2452.3800
   1421.099523,      109.7490,        4.0088,      0.283927,     2453.1600
   1421.130003,      109.8280,        4.0128,      0.282867,     2453.8800
   1421.160483,      110.4990,        4.0171,      0.281460,     2454.1300
   1421.190963,      110.6150,        4.0176,      0.279777,     2454.2500
   1421.221443,      110.7270,        4.0155,      0.277969,     2454.2700
   1421.251923,      111.0180,        4.0141,      0.276110,     2454.3900
   1421.282403,      111.4020,        4.0093,      0.274251,     2454.6500
   1421.312883,      111.2240,        4.0026,      0.272432,     2455.0600
   1421.343363,      111.4850,        4.0094,      0.270771,     2455.3600
   1421.373843,      111.4060,        4.0170,      0.269308,     2455.5100
   1421.404323,      111.9150,        4.0219,      0.268099,     2455.5100
   1421.434803,      111.9850,        4.0221,      0.267150,     2455.3800
   1421.465283,      111.7270,        4.0232,      0.266515,     2455.3600
   1421.495763,      111.8720,        4.0217,      0.266228,     2455.2200
   1421.526243,      112.2500,        4.0212,      0.266275,     2455.0200
   1421.556723,      112.5790,        4.0291,      0.266569,     2454.8000
   1421.587203,      112.8850,        4.0346,      0.267055,     2454.6400
   1421.617683,      113.2850,        4.0390,      0.267657,     2454.3900
   1421.648163,      113.7800,        4.0492,      0.268326,     2454.1800
   1421.678643,      113.7250,        4.0569,      0.268951,     2454.1100
   1421.709123,      113.7860,        4.0626,      0.269515,     2453.8800
   1421.739603,      113.8800,        4.0675,      0.269985,     2453.8300
   1421.770083,      113.6990,        4.0804,      0.270375,     2453.8900
   1421.800563,      112.8320,        4.0807,      0.270724,     2454.2100
   1421.831043,      112.4120,        4.0828,      0.271072,     2454.6200
   1421.861523,      111.7510,        4.0863,      0.271441,     2455.0900
   1421.892003,      110.9690,        4.0879,      0.271953,     2455.6300
   1421.922483,      109.8770,        4.0991,      0.272647,     2456.0500
   1421.952963,      109.5830,        4.1054,      0.273492,     2456.2400
   1421.983443,      108.1340,        4.0952,      0.274386,     2456.5200
   1422.013923,      107.2880,        4.0773,      0.275400,     2456.8500
   1422.044403,      106.1160,        4.0610,      0.276457,     2457.2100
   1422.074883,      105.3600,        4.0513,      0.277506,     2457.4200
