~Version
VERS  .             3.0                                 : CWLS LOG ASCII STANDARD - VERSION 3.0
WRAP  .             NO                                  : One line per depth step
DLM   .             COMMA                               : Delimiter character between data columns
#Delimiting character ( SPACE TAB OR COMMA ).

~Well
#MNEM.UNIT          DATA                                DESCRIPTION
#----- ----        -----------------                   -----------
STRT  .M                 9.936480                       : FIRST INDEX VALUE
STOP  .M              1530.918963                       : LAST INDEX VALUE
STEP  .M                 0.030480                       : STEP OF INDEX
NULL  .             -999.25                             : NULL VALUE
COMP  .                                                 : COMPANY
WELL  .             TALITHA                             : WELL
FLD   .                                                 : FIELD
LOC   .                                                 : LOCATION
SRVC  .                                                 : SERVICE COMPANY
CTRY  .                                                 : COUNTRY
PROV  .                                                 : PROVINCE
UWI   .                                                 : UNIQUE WELL ID
LIC   .                                                 : LICENSE NUMBER
STAT  .                                                 : STATE
CNTY  .                                                 : COUNTY
API   .                                                 : API NUMBER
DATE  .                                                 : LOG DATE
X     .             653720.586786                       : X OR EAST-WEST COORDINATE
Y     .             8158169.199339                      : Y OR NORTH-SOUTH COORDINATE
HZCS  .                                                 : HORIZONTAL CO-ORDINATE SYSTEM
LATI  .             -16.65391666667                     : LATITUDE
LONG  .             154.4414027778                      : LONGITUDE
GDAT  .                                                 : GEODETIC DATUM

~DEVIATION_PARAMETER 
#MNEM.UNIT                    VALUE                        DESCRIPTION
#--------------- ---         ------------                 -----------------

~DEVIATION_DEFINITION 
#MNEM.UNIT                 LOG CODE                  CURVE DESCRIPTION
#----------- ----         ------------              -----------------
DEPTH       .M                                      :     {F}
AZIMUTH     .DEG                                    :     {F}
DEVIATION   .DEG                                    : 90-DIP    {F}

~DEVIATION_DATA | DEVIATION_DEFINITION
       10.0000,        0.0000,        0.0000
       26.1300,        0.0000,        0.7500
       44.9000,        0.0000,        0.2000
       63.6700,        0.0000,        0.1500
       82.4400,        0.0000,        0.1500
      101.2100,        0.0000,        0.4000
      119.9800,        0.0000,        0.7000
      138.7500,        0.0000,        0.8500
      157.0300,        0.0000,        0.8500
      175.3100,        0.0000,        0.7500
      193.5900,        0.0000,        0.6000
      212.9500,        0.0000,        0.3000
      232.3100,        0.0000,        0.2500
      251.6700,        0.0000,        0.2000
      271.0300,        0.0000,        0.2000
      290.3900,        0.0000,        0.3000
      309.7500,        0.0000,        0.7500
      329.1100,        0.0000,        0.7500
      348.4700,        0.0000,        0.8000
      367.8300,        0.0000,        0.6000
      387.1900,        0.0000,        0.2500
      406.5500,        0.0000,        0.3000
      425.9100,        0.0000,        0.5000
      445.2700,        0.0000,        0.7500
      464.6300,        0.0000,        0.8500
      483.9900,        0.0000,        0.9000
      503.3500,        0.0000,        1.0000
      522.7100,        0.0000,        0.9000
      542.0700,        0.0000,        0.9000
      561.4300,        0.0000,        1.0000
      580.7900,        0.0000,        1.2000
      600.1500,      274.0000,        1.6000
      619.5100,      270.0000,        2.0000
      631.9600,      263.0000,        2.2500
      647.4200,      263.0000,        3.8000
      666.8000,      265.0000,        6.0000
      686.2300,      270.0000,        8.2000
      705.6100,      254.0000,        9.9000
      715.3000,      257.0000,       11.0000
      724.9800,      260.0000,       12.2000
      734.6600,      239.0000,       13.2000
      744.3200,      240.0000,       14.2000
      767.4000,      247.0000,       15.7000
      796.4700,      231.0000,       18.0000
      825.3900,      230.0000,       19.9000
      854.4900,      224.3000,       21.2000
      883.3100,      204.0000,       22.4000
      912.4100,      191.0000,       24.2000
      930.2500,      195.0000,       25.2000
      959.4000,      190.2000,       24.4000
      998.2500,      187.0000,       24.0000
     1056.3500,      184.0000,       23.4000
     1104.8200,      169.0000,       23.0000
     1162.9800,      170.0000,       22.2000
     1189.1900,      169.4000,       22.0000
     1198.8700,      169.0000,       22.5000
     1208.1500,      158.7000,       22.8000
     1232.7400,      147.0000,       25.1000
     1261.8300,      142.1000,       25.8000
     1310.3500,      140.3000,       26.5000
     1358.8200,      140.6000,       27.2000
     1406.8000,      140.0000,       28.0000
     1435.8800,      138.9000,       28.1000
     1513.2900,      139.0000,       31.9000
     1530.0000,      136.2000,       32.7400

~TOPS_PARAMETER 
#MNEM.UNIT                    VALUE                        DESCRIPTION
#--------------- ---         ------------                 -----------------

~TOPS_DEFINITION 
#MNEM.UNIT                 LOG CODE                  CURVE DESCRIPTION
#----------- ----         ------------              -----------------
DEPTH       .M                                      :     {F}
TOPS        .                                       : Values changed using TEXT_EDIT    {S30}

~TOPS_DATA | TOPS_DEFINITION
        5.0000,Doyles Creek Subgroup         
      447.0000,Horseshoe Creek Subgroup      
      526.5000,Apple Tree Flat Subgroup      
      731.5000,Watts Sandstone               
      750.5000,Denman Fm                     
      875.0000,Mt Leonard Fm                 
     1020.0000,Althorpe Fm                   
     1083.0000,Malabar Fm                    
     1123.0000,Mt Ogilvie Fm                 
     1193.5000,Mt Thorley Fm                 
     1253.5000,Burnamwood Fm                 
     1351.5000,Archerfield Sandstone         
     1381.0000,Mulbring Siltstone            
     1442.5000,Muree Sandstone               

~PARAMETER 
#MNEM.UNIT                    VALUE                        DESCRIPTION
#--------------- ---         ------------                 -----------------

~CURVE 
#MNEM.UNIT                 LOG CODE                  CURVE DESCRIPTION
#----------- ----         ------------              -----------------
DEPTH       .M                                      :     {F}
GR          .GAPI                                   :     {F}
LLD         .OHMM                                   :     {F}
NPHI        .V/V                                    :     {F}
RHOB        .K/M3                                   :     {F}

~ASCII | CURVE 
# ...
   1017.696722,       99.9916,        1.6143,      0.333486,     2393.9500
   1017.727202,       99.0574,        1.6392,      0.329203,     2397.6500
   1017.757682,       98.7196,        1.6669,      0.325563,     2400.6100
   1017.788162,       97.6374,        1.6869,      0.322392,     2401.4300
   1017.818642,       96.6345,        1.7054,      0.319782,     2401.1800
   1017.849122,       94.6124,        1.7266,      0.317768,     2398.9700
   1017.879602,       93.1602,        1.7468,      0.316336,     2396.2700
   1017.910082,       91.3870,        1.7511,      0.315266,     2392.5400
   1017.940562,       89.8460,        1.7424,      0.314680,     2388.4400
   1017.971042,       87.9024,        1.7285,      0.314501,     2384.0000
   1018.001522,       86.7746,        1.7025,      0.314844,     2378.5900
   1018.032002,       84.8764,        1.7009,      0.315866,     2372.8100
   1018.062482,       83.5570,        1.7165,      0.317399,     2365.8800
   1018.092962,       82.7446,        1.7169,      0.319442,     2359.2600
   1018.123442,       81.9447,        1.7215,      0.322259,     2353.1300
   1018.153922,       82.0388,        1.7454,      0.325737,     2346.4600
   1018.184402,       82.0522,        1.7616,      0.329971,     2341.3600
   1018.214882,       82.1072,        1.7627,      0.334733,     2335.9700
   1018.245362,       82.5737,        1.7399,      0.339742,     2331.8500
   1018.275842,       82.2115,        1.7142,      0.344771,     2330.1400
   1018.306322,       82.4138,        1.6849,      0.349727,     2328.8600
   1018.336802,       83.1379,        1.6662,      0.354579,     2329.7600
   1018.367282,       83.7467,        1.6709,      0.358824,     2331.2900
   1018.397762,       83.3013,        1.6762,      0.362342,     2334.9600
   1018.428242,       83.3947,        1.6667,      0.365179,     2339.2600
   1018.458722,       83.5296,        1.6528,      0.367333,     2343.5500
   1018.489202,       83.4417,        1.6376,      0.368699,     2349.7200
   1018.519682,       83.2901,        1.6332,      0.369293,     2355.3000
   1018.550162,       83.0396,        1.6384,      0.369362,     2361.3400
   1018.580642,       82.7310,        1.6459,      0.369029,     2367.4600
   1018.611122,       81.9175,        1.6620,      0.368322,     2372.2800
   1018.641602,       81.2523,        1.6712,      0.367283,     2376.4300
   1018.672082,       81.2695,        1.6866,      0.365966,     2379.7900
   1018.702562,       80.5993,        1.6912,      0.364750,     2382.2700
   1018.733042,       79.9414,        1.6865,      0.363498,     2383.5900
   1018.763522,       80.6046,        1.6830,      0.362095,     2382.9600
   1018.794002,       80.3041,        1.6792,      0.360683,     2381.9400
   1018.824482,       80.7178,        1.6778,      0.359486,     2380.2600
   1018.854962,       81.1821,        1.6811,      0.358693,     2378.2000
   1018.885442,       81.9771,        1.6840,      0.358394,     2374.7200
   1018.915922,       82.9642,        1.6833,      0.358558,     2370.4000
   1018.946402,       83.7946,        1.6912,      0.359159,     2365.7500
   1018.976882,       84.3324,        1.6855,      0.360088,     2359.6200
   1019.007362,       85.1300,        1.6511,      0.361132,     2353.8400
   1019.037842,       85.7155,        1.6184,      0.362010,     2347.2300
   1019.068322,       85.9386,        1.6050,      0.362771,     2340.9700
   1019.098802,       86.1738,        1.5978,      0.363164,     2335.9400
   1019.129282,       86.7218,        1.5813,      0.363091,     2330.6700
   1019.159762,       86.5401,        1.5665,      0.362682,     2326.1400
   1019.190242,       86.5791,        1.5503,      0.362145,     2322.6500
   1019.220722,       86.8166,        1.5381,      0.361721,     2318.7800
   1019.251202,       87.0017,        1.5232,      0.361700,     2316.8300
   1019.281682,       86.7466,        1.5065,      0.362313,     2316.3800
   1019.312162,       86.5201,        1.4812,      0.363558,     2316.1700
   1019.342642,       86.4738,        1.4531,      0.365212,     2317.6200
   1019.373122,       86.6866,        1.4571,      0.367352,     2319.6300
   1019.403602,       86.8305,        1.4677,      0.369622,     2322.7000
   1019.434082,       87.1956,        1.4546,      0.371723,     2326.7200
   1019.464562,       87.6273,        1.4641,      0.373228,     2331.3900
   1019.495042,       88.3097,        1.4862,      0.373748,     2336.2500
   1019.525522,       88.6502,        1.5071,      0.373209,     2341.7500
   1019.556002,       88.7785,        1.5312,      0.371500,     2347.4600
   1019.586482,       89.2403,        1.5465,      0.368455,     2352.9600
   1019.616962,       89.7160,        1.5581,      0.364133,     2358.8900
   1019.647442,       89.4826,        1.5904,      0.358832,     2364.6800
   1019.677922,       90.0141,        1.6335,      0.352848,     2370.5000
   1019.708402,       90.1493,        1.6815,      0.346208,     2376.6800
   1019.738882,       90.4205,        1.7322,      0.339251,     2382.6500
   1019.769362,       90.1306,        1.7949,      0.332407,     2387.9300
   1019.799842,       90.0336,        1.8434,      0.325944,     2393.0300
   1019.830322,       89.7737,        1.8614,      0.319850,     2397.0900
   1019.860802,       89.0783,        1.8584,      0.314218,     2401.3100
   1019.891282,       89.0384,        1.8857,      0.309210,     2404.3600
   1019.921762,       88.9706,        1.9082,      0.304843,     2405.9200
   1019.952242,       88.8561,        1.9312,      0.301097,     2406.9000
   1019.982722,       88.8227,        1.9573,      0.297821,     2407.2000
   1020.013202,       88.4219,        1.9782,      0.294923,     2406.8200
   1020.043682,       87.9495,        1.9822,      0.292325,     2406.2500
   1020.074162,       88.2204,        2.0185,      0.289773,     2405.0200
   1020.104642,       87.8592,        2.0333,      0.287464,     2403.0500
   1020.135122,       87.7271,        2.0391,      0.285212,     2401.2700
   1020.165602,       87.5613,        2.0650,      0.282652,     2398.6900
   1020.196082,       87.6398,        2.0990,      0.279829,     2395.8500
   1020.226562,       87.3929,        2.1416,      0.276724,     2393.6300
   1020.257042,       87.1885,        2.1864,      0.273369,     2391.1900
   1020.287522,       86.9783,        2.2307,      0.269951,     2388.8800
   1020.318002,       87.0059,        2.2649,      0.266676,     2386.3900
   1020.348482,       86.5809,        2.2861,      0.263691,     2383.8800
   1020.378962,       86.1995,        2.3037,      0.261213,     2381.5100
   1020.409442,       86.4611,        2.3239,      0.259405,     2379.2400
   1020.439922,       86.5816,        2.3470,      0.258275,     2377.4300
   1020.470402,       86.6013,        2.4079,      0.257903,     2376.2100
   1020.500882,       86.8411,        2.4975,      0.258119,     2374.7400
   1020.531362,       86.4090,        2.5592,      0.258798,     2373.3800
   1020.561842,       86.2773,        2.6399,      0.259860,     2372.5600
   1020.592322,       85.8069,        2.7540,      0.261131,     2372.1100
   1020.622802,       85.4224,        2.8983,      0.262380,     2371.7600
   1020.653282,       84.5156,        3.0690,      0.263334,     2371.9900
   1020.683762,       83.5312,        3.2811,      0.263870,     2372.1600
   1020.714242,       82.3138,        3.5210,      0.263872,     2372.0900
   1020.744722,       81.2565,        3.7992,      0.263271,     2372.5800
   1020.775202,       79.4504,        4.1054,      0.262040,     2372.5300
   1020.805682,       77.8012,        4.4098,      0.260057,     2372.8800
   1020.836162,       75.6124,        4.7008,      0.257491,     2373.0500
   1020.866642,       73.7068,        5.0057,      0.254461,     2372.8700
   1020.897122,       71.1160,        5.3112,      0.251111,     2373.1000
   1020.927602,       68.8895,        5.6054,      0.247621,     2373.2800
